{
"type": "FeatureCollection",
"name": "Mobility",
"crs": { "type": "name", "properties": { "name": "urn:ogc:def:crs:OGC:1.3:CRS84" } },
"features": [
{ "type": "Feature", "properties": { "osm_id": "27207397", "code": 2563, "fclass": "car_rental", "name": "Europcar", "C_Weight": 4.0 }, "geometry": { "type": "Point", "coordinates": [ 9.7834974, 52.3217201 ] } },
{ "type": "Feature", "properties": { "osm_id": "59942642", "code": 2542, "fclass": "bicycle_shop", "name": "Atelier Vélo", "C_Weight": 3.0 }, "geometry": { "type": "Point", "coordinates": [ 10.5245149, 52.2733093 ] } },
{ "type": "Feature", "properties": { "osm_id": "97013439", "code": 2542, "fclass": "bicycle_shop", "name": "Rad Spezi Mesmer (Zweigstelle Fahrrad)", "C_Weight": 3.0 }, "geometry": { "type": "Point", "coordinates": [ 10.5150524, 52.3216047 ] } },
{ "type": "Feature", "properties": { "osm_id": "171310809", "code": 2542, "fclass": "bicycle_shop", "name": "Goldi's Fahrradshop", "C_Weight": 3.0 }, "geometry": { "type": "Point", "coordinates": [ 8.8785232, 53.0727418 ] } },
{ "type": "Feature", "properties": { "osm_id": "175673447", "code": 2542, "fclass": "bicycle_shop", "name": "Hermann Fritsch", "C_Weight": 3.0 }, "geometry": { "type": "Point", "coordinates": [ 8.9482201, 53.0330893 ] } },
{ "type": "Feature", "properties": { "osm_id": "247987657", "code": 2542, "fclass": "bicycle_shop", "name": "Deterding", "C_Weight": 3.0 }, "geometry": { "type": "Point", "coordinates": [ 9.2225214, 52.6430938 ] } },
{ "type": "Feature", "properties": { "osm_id": "247997210", "code": 2542, "fclass": "bicycle_shop", "name": "Fahrrad Felden - Radhaus am Rathaus", "C_Weight": 3.0 }, "geometry": { "type": "Point", "coordinates": [ 9.2045458, 52.6378002 ] } },
{ "type": "Feature", "properties": { "osm_id": "252098750", "code": 2252, "fclass": "pitch", "name": null, "C_Weight": 2.0 }, "geometry": { "type": "Point", "coordinates": [ 8.7489554, 53.1090373 ] } },
{ "type": "Feature", "properties": { "osm_id": "253006824", "code": 2542, "fclass": "bicycle_shop", "name": "TEO - Die Fahrrad GmbH", "C_Weight": 3.0 }, "geometry": { "type": "Point", "coordinates": [ 10.541416, 52.2609093 ] } },
{ "type": "Feature", "properties": { "osm_id": "253177068", "code": 2542, "fclass": "bicycle_shop", "name": "B.O.C.", "C_Weight": 3.0 }, "geometry": { "type": "Point", "coordinates": [ 9.7363216, 52.4000819 ] } },
{ "type": "Feature", "properties": { "osm_id": "256548384", "code": 2542, "fclass": "bicycle_shop", "name": "Radgeber", "C_Weight": 3.0 }, "geometry": { "type": "Point", "coordinates": [ 9.6935093, 52.3764226 ] } },
{ "type": "Feature", "properties": { "osm_id": "256553894", "code": 2542, "fclass": "bicycle_shop", "name": "Radbaukasten", "C_Weight": 3.0 }, "geometry": { "type": "Point", "coordinates": [ 9.6897051, 52.377844 ] } },
{ "type": "Feature", "properties": { "osm_id": "258409588", "code": 2542, "fclass": "bicycle_shop", "name": "Dynamo Fahrradideen (VSF)", "C_Weight": 3.0 }, "geometry": { "type": "Point", "coordinates": [ 9.9547458, 52.1470109 ] } },
{ "type": "Feature", "properties": { "osm_id": "261580645", "code": 2542, "fclass": "bicycle_shop", "name": "Zweirad & Service Kracke", "C_Weight": 3.0 }, "geometry": { "type": "Point", "coordinates": [ 9.9663164, 52.1973332 ] } },
{ "type": "Feature", "properties": { "osm_id": "261580647", "code": 2542, "fclass": "bicycle_shop", "name": "Meyer", "C_Weight": 3.0 }, "geometry": { "type": "Point", "coordinates": [ 9.9588833, 52.211571 ] } },
{ "type": "Feature", "properties": { "osm_id": "263444775", "code": 2566, "fclass": "bicycle_rental", "name": null, "C_Weight": 3.0 }, "geometry": { "type": "Point", "coordinates": [ 9.5534289, 52.7600792 ] } },
{ "type": "Feature", "properties": { "osm_id": "263444775", "code": 2542, "fclass": "bicycle_shop", "name": null, "C_Weight": 3.0 }, "geometry": { "type": "Point", "coordinates": [ 9.5534289, 52.7600792 ] } },
{ "type": "Feature", "properties": { "osm_id": "264277856", "code": 2542, "fclass": "bicycle_shop", "name": "Zweirad Jähde", "C_Weight": 3.0 }, "geometry": { "type": "Point", "coordinates": [ 8.0968875, 53.5194911 ] } },
{ "type": "Feature", "properties": { "osm_id": "264488653", "code": 2542, "fclass": "bicycle_shop", "name": "Bike&Sport", "C_Weight": 3.0 }, "geometry": { "type": "Point", "coordinates": [ 8.1153364, 53.5286425 ] } },
{ "type": "Feature", "properties": { "osm_id": "264745469", "code": 2542, "fclass": "bicycle_shop", "name": "2Rad Wiederhold", "C_Weight": 3.0 }, "geometry": { "type": "Point", "coordinates": [ 9.6717673, 52.3558422 ] } },
{ "type": "Feature", "properties": { "osm_id": "264843303", "code": 2542, "fclass": "bicycle_shop", "name": "Zweirad Hör", "C_Weight": 3.0 }, "geometry": { "type": "Point", "coordinates": [ 9.6978419, 53.4758362 ] } },
{ "type": "Feature", "properties": { "osm_id": "266724455", "code": 2252, "fclass": "pitch", "name": "Sportplatz Kennedystraße", "C_Weight": 2.0 }, "geometry": { "type": "Point", "coordinates": [ 8.1686234, 53.1368716 ] } },
{ "type": "Feature", "properties": { "osm_id": "267465038", "code": 2565, "fclass": "car_sharing", "name": null, "C_Weight": 4.0 }, "geometry": { "type": "Point", "coordinates": [ 9.7316579, 52.47855 ] } },
{ "type": "Feature", "properties": { "osm_id": "267546927", "code": 2566, "fclass": "bicycle_rental", "name": "Dat Langeooger Radhus", "C_Weight": 3.0 }, "geometry": { "type": "Point", "coordinates": [ 7.4843846, 53.7459824 ] } },
{ "type": "Feature", "properties": { "osm_id": "267632835", "code": 2565, "fclass": "car_sharing", "name": "Luther", "C_Weight": 4.0 }, "geometry": { "type": "Point", "coordinates": [ 8.8090458, 53.094869 ] } },
{ "type": "Feature", "properties": { "osm_id": "267778615", "code": 2252, "fclass": "pitch", "name": "Polizei Sportverein", "C_Weight": 2.0 }, "geometry": { "type": "Point", "coordinates": [ 8.1743153, 53.1622954 ] } },
{ "type": "Feature", "properties": { "osm_id": "267887102", "code": 2542, "fclass": "bicycle_shop", "name": "Radhaus Braunschweig", "C_Weight": 3.0 }, "geometry": { "type": "Point", "coordinates": [ 10.5446888, 52.2718283 ] } },
{ "type": "Feature", "properties": { "osm_id": "268059665", "code": 2564, "fclass": "car_wash", "name": null, "C_Weight": 2.0 }, "geometry": { "type": "Point", "coordinates": [ 10.3843639, 53.2491497 ] } },
{ "type": "Feature", "properties": { "osm_id": "268398416", "code": 2542, "fclass": "bicycle_shop", "name": "CUBE Store Braunschweig", "C_Weight": 3.0 }, "geometry": { "type": "Point", "coordinates": [ 10.527286, 52.2879907 ] } },
{ "type": "Feature", "properties": { "osm_id": "268622402", "code": 2542, "fclass": "bicycle_shop", "name": "Fahrradwerkstatt Zweiraddiele Norbert Lang", "C_Weight": 3.0 }, "geometry": { "type": "Point", "coordinates": [ 8.4846314, 53.3146602 ] } },
{ "type": "Feature", "properties": { "osm_id": "268643505", "code": 2542, "fclass": "bicycle_shop", "name": "Zweirad Röwer", "C_Weight": 3.0 }, "geometry": { "type": "Point", "coordinates": [ 8.0405534, 52.2757294 ] } },
{ "type": "Feature", "properties": { "osm_id": "268735535", "code": 2542, "fclass": "bicycle_shop", "name": "B.O.C.", "C_Weight": 3.0 }, "geometry": { "type": "Point", "coordinates": [ 8.02573, 52.289719 ] } },
{ "type": "Feature", "properties": { "osm_id": "269391859", "code": 2542, "fclass": "bicycle_shop", "name": "Troch-E-Bike", "C_Weight": 3.0 }, "geometry": { "type": "Point", "coordinates": [ 9.373744, 52.1031259 ] } },
{ "type": "Feature", "properties": { "osm_id": "269786689", "code": 2542, "fclass": "bicycle_shop", "name": "Bekemeier GmbH & Co. KG, Gartengeräte", "C_Weight": 3.0 }, "geometry": { "type": "Point", "coordinates": [ 8.7461137, 52.4204018 ] } },
{ "type": "Feature", "properties": { "osm_id": "270250814", "code": 2566, "fclass": "bicycle_rental", "name": null, "C_Weight": 3.0 }, "geometry": { "type": "Point", "coordinates": [ 8.4699887, 53.3366311 ] } },
{ "type": "Feature", "properties": { "osm_id": "270250814", "code": 2542, "fclass": "bicycle_shop", "name": null, "C_Weight": 3.0 }, "geometry": { "type": "Point", "coordinates": [ 8.4699887, 53.3366311 ] } },
{ "type": "Feature", "properties": { "osm_id": "270263463", "code": 2542, "fclass": "bicycle_shop", "name": "Fahrradkontor", "C_Weight": 3.0 }, "geometry": { "type": "Point", "coordinates": [ 9.7411301, 52.3876123 ] } },
{ "type": "Feature", "properties": { "osm_id": "271741695", "code": 2252, "fclass": "pitch", "name": "Skaterbahn", "C_Weight": 2.0 }, "geometry": { "type": "Point", "coordinates": [ 9.8348743, 53.2491719 ] } },
{ "type": "Feature", "properties": { "osm_id": "272441219", "code": 2563, "fclass": "car_rental", "name": "WAV", "C_Weight": 4.0 }, "geometry": { "type": "Point", "coordinates": [ 7.9307702, 53.2520549 ] } },
{ "type": "Feature", "properties": { "osm_id": "272821296", "code": 2564, "fclass": "car_wash", "name": "Marktkauf", "C_Weight": 2.0 }, "geometry": { "type": "Point", "coordinates": [ 8.1111435, 53.575949 ] } },
{ "type": "Feature", "properties": { "osm_id": "275599049", "code": 2542, "fclass": "bicycle_shop", "name": "Ritzel", "C_Weight": 3.0 }, "geometry": { "type": "Point", "coordinates": [ 9.9541528, 52.1560423 ] } },
{ "type": "Feature", "properties": { "osm_id": "277436620", "code": 2252, "fclass": "pitch", "name": "Schützenhaus Tostedt", "C_Weight": 2.0 }, "geometry": { "type": "Point", "coordinates": [ 9.7119307, 53.2732619 ] } },
{ "type": "Feature", "properties": { "osm_id": "277478221", "code": 2252, "fclass": "pitch", "name": "Tennisclub Todtglüsingen", "C_Weight": 2.0 }, "geometry": { "type": "Point", "coordinates": [ 9.7610798, 53.2847113 ] } },
{ "type": "Feature", "properties": { "osm_id": "278075807", "code": 2252, "fclass": "pitch", "name": "Hundeplatz", "C_Weight": 2.0 }, "geometry": { "type": "Point", "coordinates": [ 9.7362458, 53.2923372 ] } },
{ "type": "Feature", "properties": { "osm_id": "279236510", "code": 2542, "fclass": "bicycle_shop", "name": "Radsport-Corner", "C_Weight": 3.0 }, "geometry": { "type": "Point", "coordinates": [ 9.9339014, 51.5339719 ] } },
{ "type": "Feature", "properties": { "osm_id": "279569377", "code": 2542, "fclass": "bicycle_shop", "name": "Fahrradwerft", "C_Weight": 3.0 }, "geometry": { "type": "Point", "coordinates": [ 11.0449898, 53.1497846 ] } },
{ "type": "Feature", "properties": { "osm_id": "279786405", "code": 2542, "fclass": "bicycle_shop", "name": "Radstudio Vegesack", "C_Weight": 3.0 }, "geometry": { "type": "Point", "coordinates": [ 8.6197665, 53.1729209 ] } },
{ "type": "Feature", "properties": { "osm_id": "281222078", "code": 2542, "fclass": "bicycle_shop", "name": "Zweirad-Profis", "C_Weight": 3.0 }, "geometry": { "type": "Point", "coordinates": [ 10.5183762, 52.2607731 ] } },
{ "type": "Feature", "properties": { "osm_id": "281222218", "code": 2542, "fclass": "bicycle_shop", "name": "Fahrrad-Hahne", "C_Weight": 3.0 }, "geometry": { "type": "Point", "coordinates": [ 10.5197493, 52.2660921 ] } },
{ "type": "Feature", "properties": { "osm_id": "284006922", "code": 2564, "fclass": "car_wash", "name": "Del-Wash", "C_Weight": 2.0 }, "geometry": { "type": "Point", "coordinates": [ 8.6645936, 53.0328477 ] } },
{ "type": "Feature", "properties": { "osm_id": "284892102", "code": 2542, "fclass": "bicycle_shop", "name": "D. Otten", "C_Weight": 3.0 }, "geometry": { "type": "Point", "coordinates": [ 8.6322244, 53.0272089 ] } },
{ "type": "Feature", "properties": { "osm_id": "285149628", "code": 2542, "fclass": "bicycle_shop", "name": "rund ums rad", "C_Weight": 3.0 }, "geometry": { "type": "Point", "coordinates": [ 8.6785471, 53.0563404 ] } },
{ "type": "Feature", "properties": { "osm_id": "285156370", "code": 2542, "fclass": "bicycle_shop", "name": "Stöver", "C_Weight": 3.0 }, "geometry": { "type": "Point", "coordinates": [ 8.623198, 53.0642412 ] } },
{ "type": "Feature", "properties": { "osm_id": "285163432", "code": 2542, "fclass": "bicycle_shop", "name": "Kehlenbeck", "C_Weight": 3.0 }, "geometry": { "type": "Point", "coordinates": [ 8.6166885, 53.0493186 ] } },
{ "type": "Feature", "properties": { "osm_id": "285168732", "code": 2542, "fclass": "bicycle_shop", "name": "Mackowiak", "C_Weight": 3.0 }, "geometry": { "type": "Point", "coordinates": [ 8.6348785, 53.0320197 ] } },
{ "type": "Feature", "properties": { "osm_id": "285917693", "code": 2542, "fclass": "bicycle_shop", "name": "Fahrrad Strauß GbR", "C_Weight": 3.0 }, "geometry": { "type": "Point", "coordinates": [ 10.2659837, 52.3864559 ] } },
{ "type": "Feature", "properties": { "osm_id": "286493807", "code": 2564, "fclass": "car_wash", "name": "TAS", "C_Weight": 2.0 }, "geometry": { "type": "Point", "coordinates": [ 10.3619672, 52.2586404 ] } },
{ "type": "Feature", "properties": { "osm_id": "287552283", "code": 2542, "fclass": "bicycle_shop", "name": "Willis Fahrradladen", "C_Weight": 3.0 }, "geometry": { "type": "Point", "coordinates": [ 8.1376791, 53.3977178 ] } },
{ "type": "Feature", "properties": { "osm_id": "287930142", "code": 2252, "fclass": "pitch", "name": null, "C_Weight": 2.0 }, "geometry": { "type": "Point", "coordinates": [ 9.3846847, 52.0954026 ] } },
{ "type": "Feature", "properties": { "osm_id": "288007976", "code": 2252, "fclass": "pitch", "name": "Schach", "C_Weight": 2.0 }, "geometry": { "type": "Point", "coordinates": [ 9.3622296, 52.1050455 ] } },
{ "type": "Feature", "properties": { "osm_id": "288740235", "code": 2564, "fclass": "car_wash", "name": null, "C_Weight": 2.0 }, "geometry": { "type": "Point", "coordinates": [ 8.7081597, 53.1804644 ] } },
{ "type": "Feature", "properties": { "osm_id": "291017003", "code": 2542, "fclass": "bicycle_shop", "name": "Ma bicyclette", "C_Weight": 3.0 }, "geometry": { "type": "Point", "coordinates": [ 8.835578, 53.0740291 ] } },
{ "type": "Feature", "properties": { "osm_id": "291048575", "code": 2542, "fclass": "bicycle_shop", "name": "Mega Bikes/Holland Center", "C_Weight": 3.0 }, "geometry": { "type": "Point", "coordinates": [ 8.1928235, 53.1438376 ] } },
{ "type": "Feature", "properties": { "osm_id": "292753807", "code": 2542, "fclass": "bicycle_shop", "name": "Drahtesel", "C_Weight": 3.0 }, "geometry": { "type": "Point", "coordinates": [ 8.2120201, 53.0500991 ] } },
{ "type": "Feature", "properties": { "osm_id": "293013752", "code": 2542, "fclass": "bicycle_shop", "name": "Zweirad Stille", "C_Weight": 3.0 }, "geometry": { "type": "Point", "coordinates": [ 9.7346543, 52.5799495 ] } },
{ "type": "Feature", "properties": { "osm_id": "293021214", "code": 2542, "fclass": "bicycle_shop", "name": "Pedalo", "C_Weight": 3.0 }, "geometry": { "type": "Point", "coordinates": [ 9.7308733, 52.5454321 ] } },
{ "type": "Feature", "properties": { "osm_id": "293253516", "code": 2542, "fclass": "bicycle_shop", "name": "Speiche", "C_Weight": 3.0 }, "geometry": { "type": "Point", "coordinates": [ 8.8241322, 53.0732568 ] } },
{ "type": "Feature", "properties": { "osm_id": "293387120", "code": 2542, "fclass": "bicycle_shop", "name": "Fahrrad Ambulanz", "C_Weight": 3.0 }, "geometry": { "type": "Point", "coordinates": [ 10.5150062, 52.2653513 ] } },
{ "type": "Feature", "properties": { "osm_id": "293393317", "code": 2542, "fclass": "bicycle_shop", "name": "Max Weigl", "C_Weight": 3.0 }, "geometry": { "type": "Point", "coordinates": [ 8.7943277, 53.1025805 ] } },
{ "type": "Feature", "properties": { "osm_id": "293393318", "code": 2542, "fclass": "bicycle_shop", "name": "Dutschke", "C_Weight": 3.0 }, "geometry": { "type": "Point", "coordinates": [ 8.7863855, 53.1024017 ] } },
{ "type": "Feature", "properties": { "osm_id": "294824207", "code": 2566, "fclass": "bicycle_rental", "name": "Fahrradverleih Mardorf", "C_Weight": 3.0 }, "geometry": { "type": "Point", "coordinates": [ 9.2869191, 52.4862997 ] } },
{ "type": "Feature", "properties": { "osm_id": "294888995", "code": 2542, "fclass": "bicycle_shop", "name": "KonRad Fahrrad-Selbsthilfe-Werkstatt", "C_Weight": 3.0 }, "geometry": { "type": "Point", "coordinates": [ 10.3988148, 53.2296613 ] } },
{ "type": "Feature", "properties": { "osm_id": "294905861", "code": 2542, "fclass": "bicycle_shop", "name": "Erlenborn", "C_Weight": 3.0 }, "geometry": { "type": "Point", "coordinates": [ 7.5284061, 53.3302391 ] } },
{ "type": "Feature", "properties": { "osm_id": "295281643", "code": 2542, "fclass": "bicycle_shop", "name": "Fahrradschmiede Ricklingen", "C_Weight": 3.0 }, "geometry": { "type": "Point", "coordinates": [ 9.7235158, 52.3476566 ] } },
{ "type": "Feature", "properties": { "osm_id": "295281668", "code": 2542, "fclass": "bicycle_shop", "name": "Fahrrad Alex", "C_Weight": 3.0 }, "geometry": { "type": "Point", "coordinates": [ 9.7485747, 52.3581935 ] } },
{ "type": "Feature", "properties": { "osm_id": "296092724", "code": 2252, "fclass": "pitch", "name": "SV Voran Brögbern", "C_Weight": 2.0 }, "geometry": { "type": "Point", "coordinates": [ 7.3710621, 52.5601896 ] } },
{ "type": "Feature", "properties": { "osm_id": "297120278", "code": 2542, "fclass": "bicycle_shop", "name": "Mardorf.bike", "C_Weight": 3.0 }, "geometry": { "type": "Point", "coordinates": [ 9.2923873, 52.4895999 ] } },
{ "type": "Feature", "properties": { "osm_id": "299619398", "code": 2563, "fclass": "car_rental", "name": "Wentorf & Schenkhut", "C_Weight": 4.0 }, "geometry": { "type": "Point", "coordinates": [ 10.2291326, 51.7403678 ] } },
{ "type": "Feature", "properties": { "osm_id": "300812865", "code": 2542, "fclass": "bicycle_shop", "name": "Wellbrock", "C_Weight": 3.0 }, "geometry": { "type": "Point", "coordinates": [ 8.7898842, 53.2272933 ] } },
{ "type": "Feature", "properties": { "osm_id": "301287875", "code": 2542, "fclass": "bicycle_shop", "name": "Bike Point", "C_Weight": 3.0 }, "geometry": { "type": "Point", "coordinates": [ 10.214023, 51.6124423 ] } },
{ "type": "Feature", "properties": { "osm_id": "302624553", "code": 2563, "fclass": "car_rental", "name": "Europcar", "C_Weight": 4.0 }, "geometry": { "type": "Point", "coordinates": [ 9.7346363, 52.4047551 ] } },
{ "type": "Feature", "properties": { "osm_id": "302729928", "code": 2542, "fclass": "bicycle_shop", "name": "Radicarl", "C_Weight": 3.0 }, "geometry": { "type": "Point", "coordinates": [ 9.7087658, 52.3669285 ] } },
{ "type": "Feature", "properties": { "osm_id": "302730401", "code": 2542, "fclass": "bicycle_shop", "name": "sebs bikeshop", "C_Weight": 3.0 }, "geometry": { "type": "Point", "coordinates": [ 9.7136063, 52.369833 ] } },
{ "type": "Feature", "properties": { "osm_id": "302825321", "code": 2566, "fclass": "bicycle_rental", "name": "Cycle Center", "C_Weight": 3.0 }, "geometry": { "type": "Point", "coordinates": [ 9.9985351, 53.0680375 ] } },
{ "type": "Feature", "properties": { "osm_id": "302839281", "code": 2542, "fclass": "bicycle_shop", "name": "Oelles bike service", "C_Weight": 3.0 }, "geometry": { "type": "Point", "coordinates": [ 9.9363209, 51.5348212 ] } },
{ "type": "Feature", "properties": { "osm_id": "302839585", "code": 2542, "fclass": "bicycle_shop", "name": "Jans Radhaus", "C_Weight": 3.0 }, "geometry": { "type": "Point", "coordinates": [ 9.939161, 51.5343832 ] } },
{ "type": "Feature", "properties": { "osm_id": "302841896", "code": 2542, "fclass": "bicycle_shop", "name": "R+W Zweirad Team", "C_Weight": 3.0 }, "geometry": { "type": "Point", "coordinates": [ 9.9220829, 51.5341998 ] } },
{ "type": "Feature", "properties": { "osm_id": "303813907", "code": 2592, "fclass": "vending_parking", "name": null, "C_Weight": 2.0 }, "geometry": { "type": "Point", "coordinates": [ 10.0848883, 52.6254983 ] } },
{ "type": "Feature", "properties": { "osm_id": "304209621", "code": 2252, "fclass": "pitch", "name": "Zum Adlerhorst", "C_Weight": 2.0 }, "geometry": { "type": "Point", "coordinates": [ 8.0510959, 52.2957628 ] } },
{ "type": "Feature", "properties": { "osm_id": "307679826", "code": 2542, "fclass": "bicycle_shop", "name": "Engelking & Wiegmann Markenräder", "C_Weight": 3.0 }, "geometry": { "type": "Point", "coordinates": [ 9.358155, 52.4532246 ] } },
{ "type": "Feature", "properties": { "osm_id": "309484440", "code": 2542, "fclass": "bicycle_shop", "name": "Bartels", "C_Weight": 3.0 }, "geometry": { "type": "Point", "coordinates": [ 8.93757, 53.0908674 ] } },
{ "type": "Feature", "properties": { "osm_id": "309524449", "code": 2564, "fclass": "car_wash", "name": "Autohaus Frank Schröder", "C_Weight": 2.0 }, "geometry": { "type": "Point", "coordinates": [ 8.0960582, 53.1248605 ] } },
{ "type": "Feature", "properties": { "osm_id": "309968095", "code": 2252, "fclass": "pitch", "name": "Reithalle Reit- und Fahrverein Tostedt", "C_Weight": 2.0 }, "geometry": { "type": "Point", "coordinates": [ 9.6958546, 53.2814274 ] } },
{ "type": "Feature", "properties": { "osm_id": "310271503", "code": 2542, "fclass": "bicycle_shop", "name": "Bäsmann", "C_Weight": 3.0 }, "geometry": { "type": "Point", "coordinates": [ 8.8227657, 53.433356 ] } },
{ "type": "Feature", "properties": { "osm_id": "310383134", "code": 2542, "fclass": "bicycle_shop", "name": "Bike&Niess", "C_Weight": 3.0 }, "geometry": { "type": "Point", "coordinates": [ 10.8388403, 52.4380082 ] } },
{ "type": "Feature", "properties": { "osm_id": "310592581", "code": 2565, "fclass": "car_sharing", "name": "WallerRing", "C_Weight": 4.0 }, "geometry": { "type": "Point", "coordinates": [ 8.7858888, 53.1024038 ] } },
{ "type": "Feature", "properties": { "osm_id": "310595530", "code": 2565, "fclass": "car_sharing", "name": "Elisabeth", "C_Weight": 4.0 }, "geometry": { "type": "Point", "coordinates": [ 8.7871833, 53.0969298 ] } },
{ "type": "Feature", "properties": { "osm_id": "312048223", "code": 2542, "fclass": "bicycle_shop", "name": "Küstenverleih Bensersiel", "C_Weight": 3.0 }, "geometry": { "type": "Point", "coordinates": [ 7.5731829, 53.675353 ] } },
{ "type": "Feature", "properties": { "osm_id": "312599120", "code": 2565, "fclass": "car_sharing", "name": "Berck", "C_Weight": 4.0 }, "geometry": { "type": "Point", "coordinates": [ 8.8708464, 53.0976504 ] } },
{ "type": "Feature", "properties": { "osm_id": "313720620", "code": 2563, "fclass": "car_rental", "name": "Kottländer", "C_Weight": 4.0 }, "geometry": { "type": "Point", "coordinates": [ 9.5990291, 52.3170332 ] } },
{ "type": "Feature", "properties": { "osm_id": "313825976", "code": 2542, "fclass": "bicycle_shop", "name": "Zweiradcenter", "C_Weight": 3.0 }, "geometry": { "type": "Point", "coordinates": [ 9.4489003, 51.8205765 ] } },
{ "type": "Feature", "properties": { "osm_id": "316738875", "code": 2252, "fclass": "pitch", "name": "Skaterbahn", "C_Weight": 2.0 }, "geometry": { "type": "Point", "coordinates": [ 9.1451985, 52.3589989 ] } },
{ "type": "Feature", "properties": { "osm_id": "320861216", "code": 2542, "fclass": "bicycle_shop", "name": "Fahrradscheune", "C_Weight": 3.0 }, "geometry": { "type": "Point", "coordinates": [ 9.9676035, 52.9171987 ] } },
{ "type": "Feature", "properties": { "osm_id": "321264263", "code": 2542, "fclass": "bicycle_shop", "name": "Calenberger Radkultur", "C_Weight": 3.0 }, "geometry": { "type": "Point", "coordinates": [ 9.7273168, 52.3701029 ] } },
{ "type": "Feature", "properties": { "osm_id": "321423978", "code": 2252, "fclass": "pitch", "name": null, "C_Weight": 2.0 }, "geometry": { "type": "Point", "coordinates": [ 9.6328279, 51.9283566 ] } },
{ "type": "Feature", "properties": { "osm_id": "321580062", "code": 2592, "fclass": "vending_parking", "name": null, "C_Weight": 2.0 }, "geometry": { "type": "Point", "coordinates": [ 10.3974169, 53.2396402 ] } },
{ "type": "Feature", "properties": { "osm_id": "322690980", "code": 2252, "fclass": "pitch", "name": null, "C_Weight": 2.0 }, "geometry": { "type": "Point", "coordinates": [ 10.5733035, 52.4610998 ] } },
{ "type": "Feature", "properties": { "osm_id": "323014836", "code": 2566, "fclass": "bicycle_rental", "name": "Zweirad Bredemeier", "C_Weight": 3.0 }, "geometry": { "type": "Point", "coordinates": [ 9.5480567, 52.2071696 ] } },
{ "type": "Feature", "properties": { "osm_id": "323014836", "code": 2542, "fclass": "bicycle_shop", "name": "Zweirad Bredemeier", "C_Weight": 3.0 }, "geometry": { "type": "Point", "coordinates": [ 9.5480567, 52.2071696 ] } },
{ "type": "Feature", "properties": { "osm_id": "323177548", "code": 2592, "fclass": "vending_parking", "name": null, "C_Weight": 2.0 }, "geometry": { "type": "Point", "coordinates": [ 10.3974139, 53.240543 ] } },
{ "type": "Feature", "properties": { "osm_id": "323177549", "code": 2592, "fclass": "vending_parking", "name": null, "C_Weight": 2.0 }, "geometry": { "type": "Point", "coordinates": [ 10.3976627, 53.2405417 ] } },
{ "type": "Feature", "properties": { "osm_id": "323193218", "code": 2542, "fclass": "bicycle_shop", "name": "Günter Heinecke", "C_Weight": 3.0 }, "geometry": { "type": "Point", "coordinates": [ 10.3557041, 52.3837939 ] } },
{ "type": "Feature", "properties": { "osm_id": "323197174", "code": 2252, "fclass": "pitch", "name": "Schützenhalle", "C_Weight": 2.0 }, "geometry": { "type": "Point", "coordinates": [ 7.2702023, 52.2717952 ] } },
{ "type": "Feature", "properties": { "osm_id": "325031078", "code": 2542, "fclass": "bicycle_shop", "name": "Radladen Städing", "C_Weight": 3.0 }, "geometry": { "type": "Point", "coordinates": [ 9.2109268, 52.3270087 ] } },
{ "type": "Feature", "properties": { "osm_id": "325051266", "code": 2542, "fclass": "bicycle_shop", "name": "Zweiradcenter", "C_Weight": 3.0 }, "geometry": { "type": "Point", "coordinates": [ 9.1966968, 52.3274348 ] } },
{ "type": "Feature", "properties": { "osm_id": "325056481", "code": 2542, "fclass": "bicycle_shop", "name": "Radtechnik Lindemeier", "C_Weight": 3.0 }, "geometry": { "type": "Point", "coordinates": [ 9.1652118, 52.2841975 ] } },
{ "type": "Feature", "properties": { "osm_id": "325059558", "code": 2542, "fclass": "bicycle_shop", "name": "Pelzing Radsport", "C_Weight": 3.0 }, "geometry": { "type": "Point", "coordinates": [ 9.0525015, 52.2609124 ] } },
{ "type": "Feature", "properties": { "osm_id": "325165027", "code": 2566, "fclass": "bicycle_rental", "name": "Das Tretmobil", "C_Weight": 3.0 }, "geometry": { "type": "Point", "coordinates": [ 8.5204641, 53.7361514 ] } },
{ "type": "Feature", "properties": { "osm_id": "326669038", "code": 2542, "fclass": "bicycle_shop", "name": "Zweiradservice Muhlack", "C_Weight": 3.0 }, "geometry": { "type": "Point", "coordinates": [ 8.0870912, 52.1020072 ] } },
{ "type": "Feature", "properties": { "osm_id": "327149822", "code": 2564, "fclass": "car_wash", "name": null, "C_Weight": 2.0 }, "geometry": { "type": "Point", "coordinates": [ 9.6134618, 52.3925283 ] } },
{ "type": "Feature", "properties": { "osm_id": "329579849", "code": 2542, "fclass": "bicycle_shop", "name": "Zweirad-Schütz", "C_Weight": 3.0 }, "geometry": { "type": "Point", "coordinates": [ 9.4087795, 53.1115152 ] } },
{ "type": "Feature", "properties": { "osm_id": "331275541", "code": 2542, "fclass": "bicycle_shop", "name": "Zweirad-Fachwerk", "C_Weight": 3.0 }, "geometry": { "type": "Point", "coordinates": [ 9.7492248, 52.3204731 ] } },
{ "type": "Feature", "properties": { "osm_id": "331644131", "code": 2564, "fclass": "car_wash", "name": "IMO wash", "C_Weight": 2.0 }, "geometry": { "type": "Point", "coordinates": [ 9.3420266, 52.0847435 ] } },
{ "type": "Feature", "properties": { "osm_id": "331959422", "code": 2564, "fclass": "car_wash", "name": "Aquafant", "C_Weight": 2.0 }, "geometry": { "type": "Point", "coordinates": [ 8.9573329, 53.0570808 ] } },
{ "type": "Feature", "properties": { "osm_id": "333125164", "code": 2564, "fclass": "car_wash", "name": null, "C_Weight": 2.0 }, "geometry": { "type": "Point", "coordinates": [ 9.2845571, 52.3560724 ] } },
{ "type": "Feature", "properties": { "osm_id": "334303430", "code": 2566, "fclass": "bicycle_rental", "name": "Heutelbecks Fietsbuud", "C_Weight": 3.0 }, "geometry": { "type": "Point", "coordinates": [ 7.4821753, 53.74866 ] } },
{ "type": "Feature", "properties": { "osm_id": "335452388", "code": 2252, "fclass": "pitch", "name": null, "C_Weight": 2.0 }, "geometry": { "type": "Point", "coordinates": [ 10.5335533, 52.2749701 ] } },
{ "type": "Feature", "properties": { "osm_id": "335654070", "code": 2542, "fclass": "bicycle_shop", "name": "Linkogel", "C_Weight": 3.0 }, "geometry": { "type": "Point", "coordinates": [ 9.9670472, 52.2525734 ] } },
{ "type": "Feature", "properties": { "osm_id": "335828698", "code": 2252, "fclass": "pitch", "name": null, "C_Weight": 2.0 }, "geometry": { "type": "Point", "coordinates": [ 8.3298594, 52.2079785 ] } },
{ "type": "Feature", "properties": { "osm_id": "339037317", "code": 2563, "fclass": "car_rental", "name": "Avis", "C_Weight": 4.0 }, "geometry": { "type": "Point", "coordinates": [ 9.740288, 52.3767813 ] } },
{ "type": "Feature", "properties": { "osm_id": "339206977", "code": 2542, "fclass": "bicycle_shop", "name": "TnT Bike Sport", "C_Weight": 3.0 }, "geometry": { "type": "Point", "coordinates": [ 9.4411486, 52.4174433 ] } },
{ "type": "Feature", "properties": { "osm_id": "339315941", "code": 2542, "fclass": "bicycle_shop", "name": "Stahlross - Der Fahrradladen", "C_Weight": 3.0 }, "geometry": { "type": "Point", "coordinates": [ 9.7272284, 52.3966043 ] } },
{ "type": "Feature", "properties": { "osm_id": "342149027", "code": 2252, "fclass": "pitch", "name": "Seilgarten Lesum", "C_Weight": 2.0 }, "geometry": { "type": "Point", "coordinates": [ 8.6716838, 53.1775708 ] } },
{ "type": "Feature", "properties": { "osm_id": "344424480", "code": 2252, "fclass": "pitch", "name": "Sportplatz und Sporthalle Hassendorf", "C_Weight": 2.0 }, "geometry": { "type": "Point", "coordinates": [ 9.2716843, 53.1202699 ] } },
{ "type": "Feature", "properties": { "osm_id": "347267958", "code": 2252, "fclass": "pitch", "name": null, "C_Weight": 2.0 }, "geometry": { "type": "Point", "coordinates": [ 9.384994, 53.118422 ] } },
{ "type": "Feature", "properties": { "osm_id": "348234501", "code": 2592, "fclass": "vending_parking", "name": null, "C_Weight": 2.0 }, "geometry": { "type": "Point", "coordinates": [ 11.1519717, 52.9674589 ] } },
{ "type": "Feature", "properties": { "osm_id": "348302134", "code": 2565, "fclass": "car_sharing", "name": null, "C_Weight": 4.0 }, "geometry": { "type": "Point", "coordinates": [ 9.6774685, 52.3962004 ] } },
{ "type": "Feature", "properties": { "osm_id": "349962134", "code": 2592, "fclass": "vending_parking", "name": null, "C_Weight": 2.0 }, "geometry": { "type": "Point", "coordinates": [ 11.1545295, 52.9676065 ] } },
{ "type": "Feature", "properties": { "osm_id": "349962153", "code": 2592, "fclass": "vending_parking", "name": null, "C_Weight": 2.0 }, "geometry": { "type": "Point", "coordinates": [ 11.1532936, 52.9676273 ] } },
{ "type": "Feature", "properties": { "osm_id": "351947907", "code": 2252, "fclass": "pitch", "name": "Todtglüsinger Schützenverein", "C_Weight": 2.0 }, "geometry": { "type": "Point", "coordinates": [ 9.7315856, 53.2823165 ] } },
{ "type": "Feature", "properties": { "osm_id": "355724315", "code": 2542, "fclass": "bicycle_shop", "name": "H.-P. Jakst", "C_Weight": 3.0 }, "geometry": { "type": "Point", "coordinates": [ 8.9500887, 53.0631732 ] } },
{ "type": "Feature", "properties": { "osm_id": "359744910", "code": 2565, "fclass": "car_sharing", "name": null, "C_Weight": 4.0 }, "geometry": { "type": "Point", "coordinates": [ 8.1998141, 53.151667 ] } },
{ "type": "Feature", "properties": { "osm_id": "359913043", "code": 2565, "fclass": "car_sharing", "name": "Beginen", "C_Weight": 4.0 }, "geometry": { "type": "Point", "coordinates": [ 8.8075053, 53.0621246 ] } },
{ "type": "Feature", "properties": { "osm_id": "359913046", "code": 2565, "fclass": "car_sharing", "name": "Hardy", "C_Weight": 4.0 }, "geometry": { "type": "Point", "coordinates": [ 8.8047771, 53.0639698 ] } },
{ "type": "Feature", "properties": { "osm_id": "360386508", "code": 2542, "fclass": "bicycle_shop", "name": "Bartels", "C_Weight": 3.0 }, "geometry": { "type": "Point", "coordinates": [ 8.9372191, 53.0888737 ] } },
{ "type": "Feature", "properties": { "osm_id": "361114713", "code": 2563, "fclass": "car_rental", "name": "Key cars", "C_Weight": 4.0 }, "geometry": { "type": "Point", "coordinates": [ 8.7971176, 53.0945395 ] } },
{ "type": "Feature", "properties": { "osm_id": "364611716", "code": 2258, "fclass": "track", "name": "Landesleistungszentrum Biathlon", "C_Weight": 2.0 }, "geometry": { "type": "Point", "coordinates": [ 10.3159387, 51.8143276 ] } },
{ "type": "Feature", "properties": { "osm_id": "364611717", "code": 2258, "fclass": "track", "name": "Landesleistungszentrum Biathlon", "C_Weight": 2.0 }, "geometry": { "type": "Point", "coordinates": [ 10.3085356, 51.8107915 ] } },
{ "type": "Feature", "properties": { "osm_id": "366542516", "code": 2564, "fclass": "car_wash", "name": "Shell", "C_Weight": 2.0 }, "geometry": { "type": "Point", "coordinates": [ 9.4721494, 53.5846923 ] } },
{ "type": "Feature", "properties": { "osm_id": "366940695", "code": 2563, "fclass": "car_rental", "name": "STARCAR", "C_Weight": 4.0 }, "geometry": { "type": "Point", "coordinates": [ 10.5197264, 52.2792342 ] } },
{ "type": "Feature", "properties": { "osm_id": "369776026", "code": 2542, "fclass": "bicycle_shop", "name": "B.O.C.", "C_Weight": 3.0 }, "geometry": { "type": "Point", "coordinates": [ 9.9303434, 51.554005 ] } },
{ "type": "Feature", "properties": { "osm_id": "370282831", "code": 2592, "fclass": "vending_parking", "name": null, "C_Weight": 2.0 }, "geometry": { "type": "Point", "coordinates": [ 8.2233806, 53.1451888 ] } },
{ "type": "Feature", "properties": { "osm_id": "371601270", "code": 2542, "fclass": "bicycle_shop", "name": null, "C_Weight": 3.0 }, "geometry": { "type": "Point", "coordinates": [ 9.0269062, 52.6416164 ] } },
{ "type": "Feature", "properties": { "osm_id": "371684504", "code": 2565, "fclass": "car_sharing", "name": "Stadtmobil", "C_Weight": 4.0 }, "geometry": { "type": "Point", "coordinates": [ 9.6843271, 52.3772104 ] } },
{ "type": "Feature", "properties": { "osm_id": "372392907", "code": 2564, "fclass": "car_wash", "name": "Jet", "C_Weight": 2.0 }, "geometry": { "type": "Point", "coordinates": [ 9.9434495, 52.1259419 ] } },
{ "type": "Feature", "properties": { "osm_id": "372538515", "code": 2564, "fclass": "car_wash", "name": null, "C_Weight": 2.0 }, "geometry": { "type": "Point", "coordinates": [ 10.2339521, 51.7368776 ] } },
{ "type": "Feature", "properties": { "osm_id": "372970315", "code": 2564, "fclass": "car_wash", "name": "Autowäsche Schröder", "C_Weight": 2.0 }, "geometry": { "type": "Point", "coordinates": [ 8.0960736, 53.1249774 ] } },
{ "type": "Feature", "properties": { "osm_id": "373258106", "code": 2252, "fclass": "pitch", "name": null, "C_Weight": 2.0 }, "geometry": { "type": "Point", "coordinates": [ 9.5067444, 52.4324234 ] } },
{ "type": "Feature", "properties": { "osm_id": "374399745", "code": 2542, "fclass": "bicycle_shop", "name": "Franz Siefke", "C_Weight": 3.0 }, "geometry": { "type": "Point", "coordinates": [ 8.2331866, 52.5130759 ] } },
{ "type": "Feature", "properties": { "osm_id": "379722773", "code": 2563, "fclass": "car_rental", "name": "SIXT", "C_Weight": 4.0 }, "geometry": { "type": "Point", "coordinates": [ 8.6259906, 53.1812947 ] } },
{ "type": "Feature", "properties": { "osm_id": "380449623", "code": 2542, "fclass": "bicycle_shop", "name": "Teutenberg", "C_Weight": 3.0 }, "geometry": { "type": "Point", "coordinates": [ 7.5806033, 53.1364536 ] } },
{ "type": "Feature", "properties": { "osm_id": "380956433", "code": 2564, "fclass": "car_wash", "name": "Aral", "C_Weight": 2.0 }, "geometry": { "type": "Point", "coordinates": [ 10.4010688, 53.2411294 ] } },
{ "type": "Feature", "properties": { "osm_id": "383776585", "code": 2592, "fclass": "vending_parking", "name": null, "C_Weight": 2.0 }, "geometry": { "type": "Point", "coordinates": [ 8.6986693, 53.8597607 ] } },
{ "type": "Feature", "properties": { "osm_id": "386116901", "code": 2592, "fclass": "vending_parking", "name": "Osterstraße", "C_Weight": 2.0 }, "geometry": { "type": "Point", "coordinates": [ 8.2172253, 53.1434388 ] } },
{ "type": "Feature", "properties": { "osm_id": "386125080", "code": 2592, "fclass": "vending_parking", "name": "Bundesbahnweg", "C_Weight": 2.0 }, "geometry": { "type": "Point", "coordinates": [ 8.2174036, 53.1446297 ] } },
{ "type": "Feature", "properties": { "osm_id": "386135671", "code": 2592, "fclass": "vending_parking", "name": "Rosenstraße", "C_Weight": 2.0 }, "geometry": { "type": "Point", "coordinates": [ 8.2181704, 53.1429076 ] } },
{ "type": "Feature", "properties": { "osm_id": "386152624", "code": 2592, "fclass": "vending_parking", "name": "Kaiserstraße", "C_Weight": 2.0 }, "geometry": { "type": "Point", "coordinates": [ 8.2217957, 53.1421646 ] } },
{ "type": "Feature", "properties": { "osm_id": "386156590", "code": 2592, "fclass": "vending_parking", "name": "Klävemannstraße", "C_Weight": 2.0 }, "geometry": { "type": "Point", "coordinates": [ 8.2228442, 53.1420789 ] } },
{ "type": "Feature", "properties": { "osm_id": "386156603", "code": 2592, "fclass": "vending_parking", "name": "Kaiserstraße", "C_Weight": 2.0 }, "geometry": { "type": "Point", "coordinates": [ 8.2216312, 53.1415515 ] } },
{ "type": "Feature", "properties": { "osm_id": "386840931", "code": 2252, "fclass": "pitch", "name": null, "C_Weight": 2.0 }, "geometry": { "type": "Point", "coordinates": [ 10.2887177, 52.1466768 ] } },
{ "type": "Feature", "properties": { "osm_id": "387194955", "code": 2564, "fclass": "car_wash", "name": "IMO Car Wash", "C_Weight": 2.0 }, "geometry": { "type": "Point", "coordinates": [ 8.6764867, 53.0398684 ] } },
{ "type": "Feature", "properties": { "osm_id": "387500311", "code": 2566, "fclass": "bicycle_rental", "name": "Paddel & Pedal", "C_Weight": 3.0 }, "geometry": { "type": "Point", "coordinates": [ 7.3684723, 53.1716326 ] } },
{ "type": "Feature", "properties": { "osm_id": "390280680", "code": 2566, "fclass": "bicycle_rental", "name": null, "C_Weight": 3.0 }, "geometry": { "type": "Point", "coordinates": [ 10.3349709, 51.817504 ] } },
{ "type": "Feature", "properties": { "osm_id": "390482625", "code": 2565, "fclass": "car_sharing", "name": null, "C_Weight": 4.0 }, "geometry": { "type": "Point", "coordinates": [ 8.2224063, 53.1451129 ] } },
{ "type": "Feature", "properties": { "osm_id": "390482626", "code": 2565, "fclass": "car_sharing", "name": "Brüderstraße", "C_Weight": 4.0 }, "geometry": { "type": "Point", "coordinates": [ 8.2108237, 53.1459624 ] } },
{ "type": "Feature", "properties": { "osm_id": "390482627", "code": 2565, "fclass": "car_sharing", "name": null, "C_Weight": 4.0 }, "geometry": { "type": "Point", "coordinates": [ 8.2179764, 53.1357629 ] } },
{ "type": "Feature", "properties": { "osm_id": "390482628", "code": 2565, "fclass": "car_sharing", "name": null, "C_Weight": 4.0 }, "geometry": { "type": "Point", "coordinates": [ 8.1932874, 53.1335858 ] } },
{ "type": "Feature", "properties": { "osm_id": "390482629", "code": 2565, "fclass": "car_sharing", "name": null, "C_Weight": 4.0 }, "geometry": { "type": "Point", "coordinates": [ 8.1913982, 53.1439234 ] } },
{ "type": "Feature", "properties": { "osm_id": "390926543", "code": 2542, "fclass": "bicycle_shop", "name": "Radpraxis Welle", "C_Weight": 3.0 }, "geometry": { "type": "Point", "coordinates": [ 10.5288585, 52.2688104 ] } },
{ "type": "Feature", "properties": { "osm_id": "391976913", "code": 2592, "fclass": "vending_parking", "name": null, "C_Weight": 2.0 }, "geometry": { "type": "Point", "coordinates": [ 8.0547293, 52.2677283 ] } },
{ "type": "Feature", "properties": { "osm_id": "393356091", "code": 2565, "fclass": "car_sharing", "name": "Emma", "C_Weight": 4.0 }, "geometry": { "type": "Point", "coordinates": [ 8.8513034, 53.0870071 ] } },
{ "type": "Feature", "properties": { "osm_id": "393362319", "code": 2542, "fclass": "bicycle_shop", "name": "EinRad", "C_Weight": 3.0 }, "geometry": { "type": "Point", "coordinates": [ 8.8538478, 53.0827979 ] } },
{ "type": "Feature", "properties": { "osm_id": "393422699", "code": 2565, "fclass": "car_sharing", "name": null, "C_Weight": 4.0 }, "geometry": { "type": "Point", "coordinates": [ 9.7410787, 52.3782646 ] } },
{ "type": "Feature", "properties": { "osm_id": "393998044", "code": 2564, "fclass": "car_wash", "name": "Nissan", "C_Weight": 2.0 }, "geometry": { "type": "Point", "coordinates": [ 8.0226269, 52.3360486 ] } },
{ "type": "Feature", "properties": { "osm_id": "410199537", "code": 2542, "fclass": "bicycle_shop", "name": "Zweirad Langer", "C_Weight": 3.0 }, "geometry": { "type": "Point", "coordinates": [ 10.3378273, 51.8129589 ] } },
{ "type": "Feature", "properties": { "osm_id": "410913380", "code": 2592, "fclass": "vending_parking", "name": "Geiststraße 2", "C_Weight": 2.0 }, "geometry": { "type": "Point", "coordinates": [ 9.9284821, 51.5338543 ] } },
{ "type": "Feature", "properties": { "osm_id": "410913396", "code": 2592, "fclass": "vending_parking", "name": "Neustadt 2", "C_Weight": 2.0 }, "geometry": { "type": "Point", "coordinates": [ 9.9297193, 51.5336808 ] } },
{ "type": "Feature", "properties": { "osm_id": "411680468", "code": 2542, "fclass": "bicycle_shop", "name": "marcobike", "C_Weight": 3.0 }, "geometry": { "type": "Point", "coordinates": [ 9.9262745, 51.5359847 ] } },
{ "type": "Feature", "properties": { "osm_id": "411797455", "code": 2564, "fclass": "car_wash", "name": "Waschpark", "C_Weight": 2.0 }, "geometry": { "type": "Point", "coordinates": [ 9.7651092, 52.0879848 ] } },
{ "type": "Feature", "properties": { "osm_id": "411799958", "code": 2592, "fclass": "vending_parking", "name": "Voigt-Realschule", "C_Weight": 2.0 }, "geometry": { "type": "Point", "coordinates": [ 9.9279618, 51.5313649 ] } },
{ "type": "Feature", "properties": { "osm_id": "412913105", "code": 2542, "fclass": "bicycle_shop", "name": "Fahrradwerkstatt Hantigk", "C_Weight": 3.0 }, "geometry": { "type": "Point", "coordinates": [ 9.9137028, 52.2942437 ] } },
{ "type": "Feature", "properties": { "osm_id": "413200714", "code": 2542, "fclass": "bicycle_shop", "name": "Herby's Fahrradlädchen", "C_Weight": 3.0 }, "geometry": { "type": "Point", "coordinates": [ 10.2161856, 52.5176898 ] } },
{ "type": "Feature", "properties": { "osm_id": "414929366", "code": 2252, "fclass": "pitch", "name": "Beachvollyballfeld", "C_Weight": 2.0 }, "geometry": { "type": "Point", "coordinates": [ 9.3147884, 53.113442 ] } },
{ "type": "Feature", "properties": { "osm_id": "415226172", "code": 2542, "fclass": "bicycle_shop", "name": "Fahrräder und KFZ-Teile", "C_Weight": 3.0 }, "geometry": { "type": "Point", "coordinates": [ 9.9682324, 52.3145213 ] } },
{ "type": "Feature", "properties": { "osm_id": "415947599", "code": 2542, "fclass": "bicycle_shop", "name": "Tretlaster", "C_Weight": 3.0 }, "geometry": { "type": "Point", "coordinates": [ 8.2495667, 53.1120824 ] } },
{ "type": "Feature", "properties": { "osm_id": "417778315", "code": 2566, "fclass": "bicycle_rental", "name": "Fahrrad- und Gokart-Vermietung Landal Dwergter Sand", "C_Weight": 3.0 }, "geometry": { "type": "Point", "coordinates": [ 7.9184289, 52.8849237 ] } },
{ "type": "Feature", "properties": { "osm_id": "420538154", "code": 2565, "fclass": "car_sharing", "name": "Rent a Car", "C_Weight": 4.0 }, "geometry": { "type": "Point", "coordinates": [ 9.9214827, 51.5346122 ] } },
{ "type": "Feature", "properties": { "osm_id": "429705918", "code": 2542, "fclass": "bicycle_shop", "name": "Fahrradhaus L & M GmbH", "C_Weight": 3.0 }, "geometry": { "type": "Point", "coordinates": [ 9.6133156, 53.4332282 ] } },
{ "type": "Feature", "properties": { "osm_id": "430176552", "code": 2252, "fclass": "pitch", "name": null, "C_Weight": 2.0 }, "geometry": { "type": "Point", "coordinates": [ 9.7950642, 52.4050425 ] } },
{ "type": "Feature", "properties": { "osm_id": "430371525", "code": 2542, "fclass": "bicycle_shop", "name": "Franz de Vries", "C_Weight": 3.0 }, "geometry": { "type": "Point", "coordinates": [ 7.1892976, 53.4814093 ] } },
{ "type": "Feature", "properties": { "osm_id": "430615069", "code": 2542, "fclass": "bicycle_shop", "name": "Fahrradservice Schulze", "C_Weight": 3.0 }, "geometry": { "type": "Point", "coordinates": [ 10.0087962, 52.065468 ] } },
{ "type": "Feature", "properties": { "osm_id": "431726681", "code": 2542, "fclass": "bicycle_shop", "name": "Zweirad M. Lemke", "C_Weight": 3.0 }, "geometry": { "type": "Point", "coordinates": [ 8.9445056, 53.0422316 ] } },
{ "type": "Feature", "properties": { "osm_id": "431755671", "code": 2252, "fclass": "pitch", "name": null, "C_Weight": 2.0 }, "geometry": { "type": "Point", "coordinates": [ 9.8966501, 51.5367543 ] } },
{ "type": "Feature", "properties": { "osm_id": "432519217", "code": 2565, "fclass": "car_sharing", "name": "Stadt-Teil-Auto Göttingen", "C_Weight": 4.0 }, "geometry": { "type": "Point", "coordinates": [ 9.9271238, 51.5327422 ] } },
{ "type": "Feature", "properties": { "osm_id": "432519219", "code": 2563, "fclass": "car_rental", "name": "PUK-Minicar GmbH", "C_Weight": 4.0 }, "geometry": { "type": "Point", "coordinates": [ 9.9269835, 51.5326632 ] } },
{ "type": "Feature", "properties": { "osm_id": "432575676", "code": 2564, "fclass": "car_wash", "name": "star Tankstelle", "C_Weight": 2.0 }, "geometry": { "type": "Point", "coordinates": [ 7.9316306, 53.2598695 ] } },
{ "type": "Feature", "properties": { "osm_id": "433181166", "code": 2542, "fclass": "bicycle_shop", "name": "Fahrrad Oltmanns", "C_Weight": 3.0 }, "geometry": { "type": "Point", "coordinates": [ 7.202197, 53.3664839 ] } },
{ "type": "Feature", "properties": { "osm_id": "435084378", "code": 2542, "fclass": "bicycle_shop", "name": "Radel Bluschke", "C_Weight": 3.0 }, "geometry": { "type": "Point", "coordinates": [ 8.0426528, 52.1554899 ] } },
{ "type": "Feature", "properties": { "osm_id": "435396057", "code": 2566, "fclass": "bicycle_rental", "name": "Gerken Fahrradvermietung", "C_Weight": 3.0 }, "geometry": { "type": "Point", "coordinates": [ 8.6403511, 53.8832998 ] } },
{ "type": "Feature", "properties": { "osm_id": "438299738", "code": 2592, "fclass": "vending_parking", "name": null, "C_Weight": 2.0 }, "geometry": { "type": "Point", "coordinates": [ 9.9426738, 51.5505017 ] } },
{ "type": "Feature", "properties": { "osm_id": "438299740", "code": 2592, "fclass": "vending_parking", "name": null, "C_Weight": 2.0 }, "geometry": { "type": "Point", "coordinates": [ 9.942736, 51.5505008 ] } },
{ "type": "Feature", "properties": { "osm_id": "439642391", "code": 2566, "fclass": "bicycle_rental", "name": "F. Schumacher", "C_Weight": 3.0 }, "geometry": { "type": "Point", "coordinates": [ 6.6643283, 53.5852667 ] } },
{ "type": "Feature", "properties": { "osm_id": "440896283", "code": 2542, "fclass": "bicycle_shop", "name": "Der Mechaniker", "C_Weight": 3.0 }, "geometry": { "type": "Point", "coordinates": [ 10.2053937, 51.7683418 ] } },
{ "type": "Feature", "properties": { "osm_id": "441408573", "code": 2542, "fclass": "bicycle_shop", "name": "Radfix", "C_Weight": 3.0 }, "geometry": { "type": "Point", "coordinates": [ 10.2633334, 52.3907891 ] } },
{ "type": "Feature", "properties": { "osm_id": "441937702", "code": 2542, "fclass": "bicycle_shop", "name": "Bergers Fahrrad-Laden", "C_Weight": 3.0 }, "geometry": { "type": "Point", "coordinates": [ 10.3352405, 52.1631214 ] } },
{ "type": "Feature", "properties": { "osm_id": "442307481", "code": 2566, "fclass": "bicycle_rental", "name": "Fredebohm Familien-Ferien", "C_Weight": 3.0 }, "geometry": { "type": "Point", "coordinates": [ 8.8825618, 53.8213802 ] } },
{ "type": "Feature", "properties": { "osm_id": "442555027", "code": 2564, "fclass": "car_wash", "name": "Tiger-Wäsche", "C_Weight": 2.0 }, "geometry": { "type": "Point", "coordinates": [ 9.1549494, 52.6560365 ] } },
{ "type": "Feature", "properties": { "osm_id": "442599551", "code": 2252, "fclass": "pitch", "name": "Streetball Platz", "C_Weight": 2.0 }, "geometry": { "type": "Point", "coordinates": [ 9.880289, 53.3290527 ] } },
{ "type": "Feature", "properties": { "osm_id": "448642292", "code": 2252, "fclass": "pitch", "name": "Heibek", "C_Weight": 2.0 }, "geometry": { "type": "Point", "coordinates": [ 10.455108, 51.6312096 ] } },
{ "type": "Feature", "properties": { "osm_id": "448680947", "code": 2252, "fclass": "pitch", "name": null, "C_Weight": 2.0 }, "geometry": { "type": "Point", "coordinates": [ 9.7416299, 52.3857917 ] } },
{ "type": "Feature", "properties": { "osm_id": "452081588", "code": 2542, "fclass": "bicycle_shop", "name": "Boeljes", "C_Weight": 3.0 }, "geometry": { "type": "Point", "coordinates": [ 8.0196434, 53.4979617 ] } },
{ "type": "Feature", "properties": { "osm_id": "454899933", "code": 2566, "fclass": "bicycle_rental", "name": "Call a Bike", "C_Weight": 3.0 }, "geometry": { "type": "Point", "coordinates": [ 10.5400639, 52.2531678 ] } },
{ "type": "Feature", "properties": { "osm_id": "457312189", "code": 2564, "fclass": "car_wash", "name": "Cleanpark", "C_Weight": 2.0 }, "geometry": { "type": "Point", "coordinates": [ 9.4791364, 52.5039219 ] } },
{ "type": "Feature", "properties": { "osm_id": "457946943", "code": 2564, "fclass": "car_wash", "name": "Christ car wash", "C_Weight": 2.0 }, "geometry": { "type": "Point", "coordinates": [ 9.1594799, 52.6599677 ] } },
{ "type": "Feature", "properties": { "osm_id": "458273847", "code": 2252, "fclass": "pitch", "name": "K. - J. Edeler Reithalle", "C_Weight": 2.0 }, "geometry": { "type": "Point", "coordinates": [ 10.0887557, 52.384391 ] } },
{ "type": "Feature", "properties": { "osm_id": "459033174", "code": 2565, "fclass": "car_sharing", "name": "Cambio Station Daniel", "C_Weight": 4.0 }, "geometry": { "type": "Point", "coordinates": [ 8.8995038, 53.1239916 ] } },
{ "type": "Feature", "properties": { "osm_id": "462252792", "code": 2564, "fclass": "car_wash", "name": null, "C_Weight": 2.0 }, "geometry": { "type": "Point", "coordinates": [ 9.9289261, 52.3473323 ] } },
{ "type": "Feature", "properties": { "osm_id": "463626227", "code": 2542, "fclass": "bicycle_shop", "name": "Witt-Rad", "C_Weight": 3.0 }, "geometry": { "type": "Point", "coordinates": [ 8.7861979, 53.0689244 ] } },
{ "type": "Feature", "properties": { "osm_id": "463879093", "code": 2542, "fclass": "bicycle_shop", "name": "Warnken", "C_Weight": 3.0 }, "geometry": { "type": "Point", "coordinates": [ 8.8764006, 53.0626817 ] } },
{ "type": "Feature", "properties": { "osm_id": "466055599", "code": 2566, "fclass": "bicycle_rental", "name": "Fahrradverleih Borkumer Kleinbahn", "C_Weight": 3.0 }, "geometry": { "type": "Point", "coordinates": [ 6.6623497, 53.5870775 ] } },
{ "type": "Feature", "properties": { "osm_id": "468744251", "code": 2566, "fclass": "bicycle_rental", "name": null, "C_Weight": 3.0 }, "geometry": { "type": "Point", "coordinates": [ 9.0997405, 53.189655 ] } },
{ "type": "Feature", "properties": { "osm_id": "469371898", "code": 2592, "fclass": "vending_parking", "name": null, "C_Weight": 2.0 }, "geometry": { "type": "Point", "coordinates": [ 10.2494903, 51.7258441 ] } },
{ "type": "Feature", "properties": { "osm_id": "469371904", "code": 2592, "fclass": "vending_parking", "name": null, "C_Weight": 2.0 }, "geometry": { "type": "Point", "coordinates": [ 10.250839, 51.7262692 ] } },
{ "type": "Feature", "properties": { "osm_id": "469390301", "code": 2542, "fclass": "bicycle_shop", "name": "Zweirad-Bahrenburg", "C_Weight": 3.0 }, "geometry": { "type": "Point", "coordinates": [ 9.0936406, 53.1935384 ] } },
{ "type": "Feature", "properties": { "osm_id": "470249203", "code": 2564, "fclass": "car_wash", "name": "Westfalen", "C_Weight": 2.0 }, "geometry": { "type": "Point", "coordinates": [ 8.4641353, 53.3250258 ] } },
{ "type": "Feature", "properties": { "osm_id": "470249208", "code": 2564, "fclass": "car_wash", "name": "bft", "C_Weight": 2.0 }, "geometry": { "type": "Point", "coordinates": [ 8.4683148, 53.3255316 ] } },
{ "type": "Feature", "properties": { "osm_id": "470799664", "code": 2564, "fclass": "car_wash", "name": null, "C_Weight": 2.0 }, "geometry": { "type": "Point", "coordinates": [ 7.7733826, 53.5835376 ] } },
{ "type": "Feature", "properties": { "osm_id": "471313036", "code": 2542, "fclass": "bicycle_shop", "name": "Zweirad Meyer", "C_Weight": 3.0 }, "geometry": { "type": "Point", "coordinates": [ 7.928409, 53.2539823 ] } },
{ "type": "Feature", "properties": { "osm_id": "471794024", "code": 2258, "fclass": "track", "name": "Schützenhaus Sievershausen", "C_Weight": 2.0 }, "geometry": { "type": "Point", "coordinates": [ 9.992389, 51.784611 ] } },
{ "type": "Feature", "properties": { "osm_id": "474735413", "code": 2566, "fclass": "bicycle_rental", "name": null, "C_Weight": 3.0 }, "geometry": { "type": "Point", "coordinates": [ 10.8938876, 53.2377428 ] } },
{ "type": "Feature", "properties": { "osm_id": "477624295", "code": 2542, "fclass": "bicycle_shop", "name": "Koopmann", "C_Weight": 3.0 }, "geometry": { "type": "Point", "coordinates": [ 7.5082977, 52.8332626 ] } },
{ "type": "Feature", "properties": { "osm_id": "480334958", "code": 2542, "fclass": "bicycle_shop", "name": "M. Ratzow", "C_Weight": 3.0 }, "geometry": { "type": "Point", "coordinates": [ 8.2281677, 52.1062603 ] } },
{ "type": "Feature", "properties": { "osm_id": "482465906", "code": 2542, "fclass": "bicycle_shop", "name": "Ansorge Fahrrad", "C_Weight": 3.0 }, "geometry": { "type": "Point", "coordinates": [ 9.9898922, 51.7048775 ] } },
{ "type": "Feature", "properties": { "osm_id": "482465939", "code": 2252, "fclass": "pitch", "name": null, "C_Weight": 2.0 }, "geometry": { "type": "Point", "coordinates": [ 9.9965471, 51.7043253 ] } },
{ "type": "Feature", "properties": { "osm_id": "482845843", "code": 2542, "fclass": "bicycle_shop", "name": "Pedalo", "C_Weight": 3.0 }, "geometry": { "type": "Point", "coordinates": [ 9.7881336, 53.1203662 ] } },
{ "type": "Feature", "properties": { "osm_id": "486179444", "code": 2564, "fclass": "car_wash", "name": "Mr. Wash", "C_Weight": 2.0 }, "geometry": { "type": "Point", "coordinates": [ 8.8618503, 53.0712961 ] } },
{ "type": "Feature", "properties": { "osm_id": "486624616", "code": 2252, "fclass": "pitch", "name": "Modelflugplatz", "C_Weight": 2.0 }, "geometry": { "type": "Point", "coordinates": [ 8.7574967, 53.7433744 ] } },
{ "type": "Feature", "properties": { "osm_id": "487098669", "code": 2542, "fclass": "bicycle_shop", "name": "Feine Räder", "C_Weight": 3.0 }, "geometry": { "type": "Point", "coordinates": [ 9.7489625, 52.3784461 ] } },
{ "type": "Feature", "properties": { "osm_id": "488556645", "code": 2542, "fclass": "bicycle_shop", "name": "Harzer E-Bike", "C_Weight": 3.0 }, "geometry": { "type": "Point", "coordinates": [ 9.8660362, 51.8165803 ] } },
{ "type": "Feature", "properties": { "osm_id": "488616139", "code": 2542, "fclass": "bicycle_shop", "name": null, "C_Weight": 3.0 }, "geometry": { "type": "Point", "coordinates": [ 8.3541224, 52.1572681 ] } },
{ "type": "Feature", "properties": { "osm_id": "496430692", "code": 2252, "fclass": "pitch", "name": null, "C_Weight": 2.0 }, "geometry": { "type": "Point", "coordinates": [ 9.7408445, 52.4434263 ] } },
{ "type": "Feature", "properties": { "osm_id": "496437200", "code": 2252, "fclass": "pitch", "name": null, "C_Weight": 2.0 }, "geometry": { "type": "Point", "coordinates": [ 9.7418843, 52.4465265 ] } },
{ "type": "Feature", "properties": { "osm_id": "501756427", "code": 2542, "fclass": "bicycle_shop", "name": "H. Thesing", "C_Weight": 3.0 }, "geometry": { "type": "Point", "coordinates": [ 7.3143051, 52.8599858 ] } },
{ "type": "Feature", "properties": { "osm_id": "502219421", "code": 2542, "fclass": "bicycle_shop", "name": "Rad & Sport Kruckemeyer", "C_Weight": 3.0 }, "geometry": { "type": "Point", "coordinates": [ 8.3116946, 52.3639474 ] } },
{ "type": "Feature", "properties": { "osm_id": "503430643", "code": 2564, "fclass": "car_wash", "name": "Waschstraße", "C_Weight": 2.0 }, "geometry": { "type": "Point", "coordinates": [ 10.3035661, 53.2319476 ] } },
{ "type": "Feature", "properties": { "osm_id": "514204797", "code": 2542, "fclass": "bicycle_shop", "name": "Fahrradshop Jever", "C_Weight": 3.0 }, "geometry": { "type": "Point", "coordinates": [ 7.8980438, 53.5732363 ] } },
{ "type": "Feature", "properties": { "osm_id": "516662556", "code": 2564, "fclass": "car_wash", "name": "EB Meyer Mineralöle", "C_Weight": 2.0 }, "geometry": { "type": "Point", "coordinates": [ 9.388398, 52.1023769 ] } },
{ "type": "Feature", "properties": { "osm_id": "516662583", "code": 2564, "fclass": "car_wash", "name": null, "C_Weight": 2.0 }, "geometry": { "type": "Point", "coordinates": [ 9.3859899, 52.1032761 ] } },
{ "type": "Feature", "properties": { "osm_id": "518511254", "code": 2542, "fclass": "bicycle_shop", "name": "Pedalritter", "C_Weight": 3.0 }, "geometry": { "type": "Point", "coordinates": [ 9.9300042, 51.5324007 ] } },
{ "type": "Feature", "properties": { "osm_id": "518580111", "code": 2542, "fclass": "bicycle_shop", "name": "Steinker Radwerkstatt", "C_Weight": 3.0 }, "geometry": { "type": "Point", "coordinates": [ 8.2389449, 53.1519128 ] } },
{ "type": "Feature", "properties": { "osm_id": "522069066", "code": 2542, "fclass": "bicycle_shop", "name": "Fahrradladen Worpswede", "C_Weight": 3.0 }, "geometry": { "type": "Point", "coordinates": [ 8.9262896, 53.2246248 ] } },
{ "type": "Feature", "properties": { "osm_id": "526268206", "code": 2252, "fclass": "pitch", "name": null, "C_Weight": 2.0 }, "geometry": { "type": "Point", "coordinates": [ 8.4067074, 52.8107003 ] } },
{ "type": "Feature", "properties": { "osm_id": "527107015", "code": 2566, "fclass": "bicycle_rental", "name": "De Insel-Radgeber", "C_Weight": 3.0 }, "geometry": { "type": "Point", "coordinates": [ 7.4799162, 53.7467619 ] } },
{ "type": "Feature", "properties": { "osm_id": "527107038", "code": 2566, "fclass": "bicycle_rental", "name": "Voß", "C_Weight": 3.0 }, "geometry": { "type": "Point", "coordinates": [ 7.4790153, 53.7470028 ] } },
{ "type": "Feature", "properties": { "osm_id": "527107066", "code": 2566, "fclass": "bicycle_rental", "name": "Andy's Fahrradverleih", "C_Weight": 3.0 }, "geometry": { "type": "Point", "coordinates": [ 7.4881584, 53.7429702 ] } },
{ "type": "Feature", "properties": { "osm_id": "527107112", "code": 2566, "fclass": "bicycle_rental", "name": "Baumhöfener", "C_Weight": 3.0 }, "geometry": { "type": "Point", "coordinates": [ 7.4804985, 53.7448135 ] } },
{ "type": "Feature", "properties": { "osm_id": "527107115", "code": 2566, "fclass": "bicycle_rental", "name": "Us Langeoog", "C_Weight": 3.0 }, "geometry": { "type": "Point", "coordinates": [ 7.4838765, 53.7469202 ] } },
{ "type": "Feature", "properties": { "osm_id": "527107355", "code": 2566, "fclass": "bicycle_rental", "name": "Rad & Roll", "C_Weight": 3.0 }, "geometry": { "type": "Point", "coordinates": [ 7.4885536, 53.745214 ] } },
{ "type": "Feature", "properties": { "osm_id": "527107383", "code": 2566, "fclass": "bicycle_rental", "name": "Weststrand", "C_Weight": 3.0 }, "geometry": { "type": "Point", "coordinates": [ 7.4753396, 53.7439462 ] } },
{ "type": "Feature", "properties": { "osm_id": "527881635", "code": 2542, "fclass": "bicycle_shop", "name": "ADFC-Werkstatt", "C_Weight": 3.0 }, "geometry": { "type": "Point", "coordinates": [ 9.9304886, 51.541569 ] } },
{ "type": "Feature", "properties": { "osm_id": "540147059", "code": 2542, "fclass": "bicycle_shop", "name": "Zweirad Pietsch", "C_Weight": 3.0 }, "geometry": { "type": "Point", "coordinates": [ 9.917543, 52.2011374 ] } },
{ "type": "Feature", "properties": { "osm_id": "540479335", "code": 2542, "fclass": "bicycle_shop", "name": "Dinus Voß", "C_Weight": 3.0 }, "geometry": { "type": "Point", "coordinates": [ 7.2113399, 53.3690984 ] } },
{ "type": "Feature", "properties": { "osm_id": "543958254", "code": 2252, "fclass": "pitch", "name": null, "C_Weight": 2.0 }, "geometry": { "type": "Point", "coordinates": [ 8.2336854, 53.1326624 ] } },
{ "type": "Feature", "properties": { "osm_id": "546856202", "code": 2542, "fclass": "bicycle_shop", "name": "Meyers Fahrradcenter", "C_Weight": 3.0 }, "geometry": { "type": "Point", "coordinates": [ 8.452685, 53.4043229 ] } },
{ "type": "Feature", "properties": { "osm_id": "555010848", "code": 2542, "fclass": "bicycle_shop", "name": "Zweiradcenter Bücker", "C_Weight": 3.0 }, "geometry": { "type": "Point", "coordinates": [ 8.0528319, 52.2681826 ] } },
{ "type": "Feature", "properties": { "osm_id": "555026065", "code": 2542, "fclass": "bicycle_shop", "name": "Lucky Bike", "C_Weight": 3.0 }, "geometry": { "type": "Point", "coordinates": [ 7.9722149, 52.2656362 ] } },
{ "type": "Feature", "properties": { "osm_id": "558499338", "code": 2592, "fclass": "vending_parking", "name": null, "C_Weight": 2.0 }, "geometry": { "type": "Point", "coordinates": [ 9.7244263, 52.3707587 ] } },
{ "type": "Feature", "properties": { "osm_id": "558521456", "code": 2542, "fclass": "bicycle_shop", "name": "Der Bastler", "C_Weight": 3.0 }, "geometry": { "type": "Point", "coordinates": [ 8.5979265, 53.5075412 ] } },
{ "type": "Feature", "properties": { "osm_id": "559558503", "code": 2542, "fclass": "bicycle_shop", "name": "Fahrräder + Sport Beckmann", "C_Weight": 3.0 }, "geometry": { "type": "Point", "coordinates": [ 10.217814, 51.5681763 ] } },
{ "type": "Feature", "properties": { "osm_id": "564764132", "code": 2542, "fclass": "bicycle_shop", "name": "Vito's 2-Radschmiede", "C_Weight": 3.0 }, "geometry": { "type": "Point", "coordinates": [ 10.3451333, 51.5312785 ] } },
{ "type": "Feature", "properties": { "osm_id": "566654868", "code": 2542, "fclass": "bicycle_shop", "name": "Vehiculo Fahrradcenter", "C_Weight": 3.0 }, "geometry": { "type": "Point", "coordinates": [ 9.7246457, 53.2702332 ] } },
{ "type": "Feature", "properties": { "osm_id": "567041821", "code": 2566, "fclass": "bicycle_rental", "name": "call a bike", "C_Weight": 3.0 }, "geometry": { "type": "Point", "coordinates": [ 9.9268657, 51.5362647 ] } },
{ "type": "Feature", "properties": { "osm_id": "567967277", "code": 2542, "fclass": "bicycle_shop", "name": "Fahrradstation Bassum", "C_Weight": 3.0 }, "geometry": { "type": "Point", "coordinates": [ 8.7400513, 52.8477353 ] } },
{ "type": "Feature", "properties": { "osm_id": "569301443", "code": 2563, "fclass": "car_rental", "name": "Europcar", "C_Weight": 4.0 }, "geometry": { "type": "Point", "coordinates": [ 8.2205199, 53.1434498 ] } },
{ "type": "Feature", "properties": { "osm_id": "569423251", "code": 2564, "fclass": "car_wash", "name": "Clean Car", "C_Weight": 2.0 }, "geometry": { "type": "Point", "coordinates": [ 10.4603782, 53.2391637 ] } },
{ "type": "Feature", "properties": { "osm_id": "571260085", "code": 2542, "fclass": "bicycle_shop", "name": "dreirad.de", "C_Weight": 3.0 }, "geometry": { "type": "Point", "coordinates": [ 8.8894482, 53.034923 ] } },
{ "type": "Feature", "properties": { "osm_id": "576414737", "code": 2542, "fclass": "bicycle_shop", "name": "Kurth Räder + Rollen", "C_Weight": 3.0 }, "geometry": { "type": "Point", "coordinates": [ 7.982475, 52.2571799 ] } },
{ "type": "Feature", "properties": { "osm_id": "581126617", "code": 2592, "fclass": "vending_parking", "name": null, "C_Weight": 2.0 }, "geometry": { "type": "Point", "coordinates": [ 8.7932062, 53.066722 ] } },
{ "type": "Feature", "properties": { "osm_id": "582746386", "code": 2542, "fclass": "bicycle_shop", "name": "Velo Fahrradwerkstatt", "C_Weight": 3.0 }, "geometry": { "type": "Point", "coordinates": [ 8.8101446, 52.916661 ] } },
{ "type": "Feature", "properties": { "osm_id": "587762031", "code": 2564, "fclass": "car_wash", "name": null, "C_Weight": 2.0 }, "geometry": { "type": "Point", "coordinates": [ 10.2209749, 53.3519076 ] } },
{ "type": "Feature", "properties": { "osm_id": "606136477", "code": 2542, "fclass": "bicycle_shop", "name": "2-Rad Kastner", "C_Weight": 3.0 }, "geometry": { "type": "Point", "coordinates": [ 9.2335932, 52.9219322 ] } },
{ "type": "Feature", "properties": { "osm_id": "606526042", "code": 2566, "fclass": "bicycle_rental", "name": "Akzent Hotel Höltje", "C_Weight": 3.0 }, "geometry": { "type": "Point", "coordinates": [ 9.230095, 52.9203189 ] } },
{ "type": "Feature", "properties": { "osm_id": "612135624", "code": 2592, "fclass": "vending_parking", "name": null, "C_Weight": 2.0 }, "geometry": { "type": "Point", "coordinates": [ 8.8073735, 53.0748093 ] } },
{ "type": "Feature", "properties": { "osm_id": "617557693", "code": 2563, "fclass": "car_rental", "name": "Klostermeier Autokranverleih", "C_Weight": 4.0 }, "geometry": { "type": "Point", "coordinates": [ 9.8907827, 51.54506 ] } },
{ "type": "Feature", "properties": { "osm_id": "618795648", "code": 2564, "fclass": "car_wash", "name": "Stolle", "C_Weight": 2.0 }, "geometry": { "type": "Point", "coordinates": [ 8.3682802, 53.5114085 ] } },
{ "type": "Feature", "properties": { "osm_id": "618841397", "code": 2565, "fclass": "car_sharing", "name": null, "C_Weight": 4.0 }, "geometry": { "type": "Point", "coordinates": [ 9.7498698, 52.381405 ] } },
{ "type": "Feature", "properties": { "osm_id": "619715943", "code": 2542, "fclass": "bicycle_shop", "name": "Die Fahrradklinik", "C_Weight": 3.0 }, "geometry": { "type": "Point", "coordinates": [ 9.9408659, 51.5435225 ] } },
{ "type": "Feature", "properties": { "osm_id": "621892970", "code": 2542, "fclass": "bicycle_shop", "name": "radschlag", "C_Weight": 3.0 }, "geometry": { "type": "Point", "coordinates": [ 8.8240427, 53.0753287 ] } },
{ "type": "Feature", "properties": { "osm_id": "622643727", "code": 2592, "fclass": "vending_parking", "name": null, "C_Weight": 2.0 }, "geometry": { "type": "Point", "coordinates": [ 8.809353, 53.073918 ] } },
{ "type": "Feature", "properties": { "osm_id": "622643987", "code": 2592, "fclass": "vending_parking", "name": null, "C_Weight": 2.0 }, "geometry": { "type": "Point", "coordinates": [ 8.8093579, 53.074031 ] } },
{ "type": "Feature", "properties": { "osm_id": "623407007", "code": 2564, "fclass": "car_wash", "name": "Westfalen Tankstelle Ellwürden", "C_Weight": 2.0 }, "geometry": { "type": "Point", "coordinates": [ 8.4503777, 53.4776051 ] } },
{ "type": "Feature", "properties": { "osm_id": "623856732", "code": 2592, "fclass": "vending_parking", "name": "Eiswiese", "C_Weight": 2.0 }, "geometry": { "type": "Point", "coordinates": [ 9.9299358, 51.5216606 ] } },
{ "type": "Feature", "properties": { "osm_id": "631719842", "code": 2542, "fclass": "bicycle_shop", "name": "Fahrrad Messerschmidt", "C_Weight": 3.0 }, "geometry": { "type": "Point", "coordinates": [ 10.599408, 52.1705103 ] } },
{ "type": "Feature", "properties": { "osm_id": "631883577", "code": 2542, "fclass": "bicycle_shop", "name": "Dammann", "C_Weight": 3.0 }, "geometry": { "type": "Point", "coordinates": [ 9.939974, 52.1491125 ] } },
{ "type": "Feature", "properties": { "osm_id": "633704048", "code": 2565, "fclass": "car_sharing", "name": "Leibniz", "C_Weight": 4.0 }, "geometry": { "type": "Point", "coordinates": [ 8.8001233, 53.0699678 ] } },
{ "type": "Feature", "properties": { "osm_id": "635051961", "code": 2592, "fclass": "vending_parking", "name": null, "C_Weight": 2.0 }, "geometry": { "type": "Point", "coordinates": [ 7.4624845, 53.2308574 ] } },
{ "type": "Feature", "properties": { "osm_id": "638938843", "code": 2563, "fclass": "car_rental", "name": "Enterprise", "C_Weight": 4.0 }, "geometry": { "type": "Point", "coordinates": [ 8.2294744, 53.173637 ] } },
{ "type": "Feature", "properties": { "osm_id": "648227516", "code": 2542, "fclass": "bicycle_shop", "name": "Zweiradhandel Holy", "C_Weight": 3.0 }, "geometry": { "type": "Point", "coordinates": [ 8.3723305, 52.5209748 ] } },
{ "type": "Feature", "properties": { "osm_id": "648263830", "code": 2542, "fclass": "bicycle_shop", "name": "Fahrrad Strauß", "C_Weight": 3.0 }, "geometry": { "type": "Point", "coordinates": [ 10.2021815, 52.4645192 ] } },
{ "type": "Feature", "properties": { "osm_id": "649194739", "code": 2542, "fclass": "bicycle_shop", "name": "Fahrrad Louis", "C_Weight": 3.0 }, "geometry": { "type": "Point", "coordinates": [ 9.7164494, 53.2761399 ] } },
{ "type": "Feature", "properties": { "osm_id": "649278420", "code": 2252, "fclass": "pitch", "name": "Bogenschießen", "C_Weight": 2.0 }, "geometry": { "type": "Point", "coordinates": [ 9.7350121, 53.2957207 ] } },
{ "type": "Feature", "properties": { "osm_id": "649278429", "code": 2252, "fclass": "pitch", "name": "Beachvolleyball", "C_Weight": 2.0 }, "geometry": { "type": "Point", "coordinates": [ 9.7342371, 53.2969229 ] } },
{ "type": "Feature", "properties": { "osm_id": "656148845", "code": 2252, "fclass": "pitch", "name": "Streetbasket", "C_Weight": 2.0 }, "geometry": { "type": "Point", "coordinates": [ 9.8679243, 53.2952685 ] } },
{ "type": "Feature", "properties": { "osm_id": "659973179", "code": 2252, "fclass": "pitch", "name": null, "C_Weight": 2.0 }, "geometry": { "type": "Point", "coordinates": [ 9.7088949, 52.372167 ] } },
{ "type": "Feature", "properties": { "osm_id": "660572316", "code": 2564, "fclass": "car_wash", "name": "park", "C_Weight": 2.0 }, "geometry": { "type": "Point", "coordinates": [ 9.1112146, 53.4976347 ] } },
{ "type": "Feature", "properties": { "osm_id": "661084261", "code": 2592, "fclass": "vending_parking", "name": null, "C_Weight": 2.0 }, "geometry": { "type": "Point", "coordinates": [ 9.7992732, 52.3178234 ] } },
{ "type": "Feature", "properties": { "osm_id": "662769328", "code": 2542, "fclass": "bicycle_shop", "name": "Zweirad Petersen", "C_Weight": 3.0 }, "geometry": { "type": "Point", "coordinates": [ 8.6059415, 53.5707223 ] } },
{ "type": "Feature", "properties": { "osm_id": "662775135", "code": 2542, "fclass": "bicycle_shop", "name": "Der Radgeber", "C_Weight": 3.0 }, "geometry": { "type": "Point", "coordinates": [ 8.5736301, 53.5489884 ] } },
{ "type": "Feature", "properties": { "osm_id": "662993098", "code": 2252, "fclass": "pitch", "name": "1. Bogenschießclub Nordheide", "C_Weight": 2.0 }, "geometry": { "type": "Point", "coordinates": [ 9.7713223, 53.304397 ] } },
{ "type": "Feature", "properties": { "osm_id": "663008289", "code": 2565, "fclass": "car_sharing", "name": "Bahnhof", "C_Weight": 4.0 }, "geometry": { "type": "Point", "coordinates": [ 9.9265539, 51.5361686 ] } },
{ "type": "Feature", "properties": { "osm_id": "663033202", "code": 2565, "fclass": "car_sharing", "name": "Grünes Auto Göttingen - Goßlerstraße", "C_Weight": 4.0 }, "geometry": { "type": "Point", "coordinates": [ 9.9378157, 51.5427273 ] } },
{ "type": "Feature", "properties": { "osm_id": "663870625", "code": 2252, "fclass": "pitch", "name": "Heike", "C_Weight": 2.0 }, "geometry": { "type": "Point", "coordinates": [ 6.6903802, 53.5269604 ] } },
{ "type": "Feature", "properties": { "osm_id": "666263443", "code": 2252, "fclass": "pitch", "name": null, "C_Weight": 2.0 }, "geometry": { "type": "Point", "coordinates": [ 10.0581805, 52.6279059 ] } },
{ "type": "Feature", "properties": { "osm_id": "667249579", "code": 2252, "fclass": "pitch", "name": "Bogensportanlage Schützenverein Isernhagen N.B.", "C_Weight": 2.0 }, "geometry": { "type": "Point", "coordinates": [ 9.8080495, 52.4619669 ] } },
{ "type": "Feature", "properties": { "osm_id": "670765284", "code": 2592, "fclass": "vending_parking", "name": null, "C_Weight": 2.0 }, "geometry": { "type": "Point", "coordinates": [ 8.6269175, 53.0480275 ] } },
{ "type": "Feature", "properties": { "osm_id": "670765295", "code": 2592, "fclass": "vending_parking", "name": null, "C_Weight": 2.0 }, "geometry": { "type": "Point", "coordinates": [ 8.6261719, 53.0483339 ] } },
{ "type": "Feature", "properties": { "osm_id": "670765309", "code": 2592, "fclass": "vending_parking", "name": null, "C_Weight": 2.0 }, "geometry": { "type": "Point", "coordinates": [ 8.6258125, 53.0485629 ] } },
{ "type": "Feature", "properties": { "osm_id": "671580474", "code": 2542, "fclass": "bicycle_shop", "name": "Bernd Göbel Radsport", "C_Weight": 3.0 }, "geometry": { "type": "Point", "coordinates": [ 10.0314667, 51.5099632 ] } },
{ "type": "Feature", "properties": { "osm_id": "672444313", "code": 2252, "fclass": "pitch", "name": "Bogenplatz", "C_Weight": 2.0 }, "geometry": { "type": "Point", "coordinates": [ 10.5163173, 53.2914503 ] } },
{ "type": "Feature", "properties": { "osm_id": "672444456", "code": 2564, "fclass": "car_wash", "name": "Kärcher SB-Autowäsch", "C_Weight": 2.0 }, "geometry": { "type": "Point", "coordinates": [ 8.7555354, 53.1928123 ] } },
{ "type": "Feature", "properties": { "osm_id": "672749619", "code": 2252, "fclass": "pitch", "name": null, "C_Weight": 2.0 }, "geometry": { "type": "Point", "coordinates": [ 10.4991009, 53.2904241 ] } },
{ "type": "Feature", "properties": { "osm_id": "673484809", "code": 2542, "fclass": "bicycle_shop", "name": "Ansorge", "C_Weight": 3.0 }, "geometry": { "type": "Point", "coordinates": [ 10.4211091, 51.9186365 ] } },
{ "type": "Feature", "properties": { "osm_id": "684431516", "code": 2563, "fclass": "car_rental", "name": "Klausi's Autovermietung und Lackierstube", "C_Weight": 4.0 }, "geometry": { "type": "Point", "coordinates": [ 10.3454415, 51.8193004 ] } },
{ "type": "Feature", "properties": { "osm_id": "684525739", "code": 2564, "fclass": "car_wash", "name": "CleanBaer", "C_Weight": 2.0 }, "geometry": { "type": "Point", "coordinates": [ 9.8979626, 53.4218662 ] } },
{ "type": "Feature", "properties": { "osm_id": "685398608", "code": 2566, "fclass": "bicycle_rental", "name": "nordseerad", "C_Weight": 3.0 }, "geometry": { "type": "Point", "coordinates": [ 8.0245129, 53.7030993 ] } },
{ "type": "Feature", "properties": { "osm_id": "685398608", "code": 2542, "fclass": "bicycle_shop", "name": "nordseerad", "C_Weight": 3.0 }, "geometry": { "type": "Point", "coordinates": [ 8.0245129, 53.7030993 ] } },
{ "type": "Feature", "properties": { "osm_id": "685875711", "code": 2252, "fclass": "pitch", "name": null, "C_Weight": 2.0 }, "geometry": { "type": "Point", "coordinates": [ 9.6371936, 51.9298606 ] } },
{ "type": "Feature", "properties": { "osm_id": "685875772", "code": 2252, "fclass": "pitch", "name": null, "C_Weight": 2.0 }, "geometry": { "type": "Point", "coordinates": [ 9.6369721, 51.9296178 ] } },
{ "type": "Feature", "properties": { "osm_id": "688507572", "code": 2542, "fclass": "bicycle_shop", "name": "Zweirad Schael", "C_Weight": 3.0 }, "geometry": { "type": "Point", "coordinates": [ 10.7874308, 52.4249875 ] } },
{ "type": "Feature", "properties": { "osm_id": "698879775", "code": 2566, "fclass": "bicycle_rental", "name": "H&P Fahrradverleih Cuxhaven", "C_Weight": 3.0 }, "geometry": { "type": "Point", "coordinates": [ 8.6689035, 53.8888377 ] } },
{ "type": "Feature", "properties": { "osm_id": "699618019", "code": 2542, "fclass": "bicycle_shop", "name": "Gazelle Store Gifhorn", "C_Weight": 3.0 }, "geometry": { "type": "Point", "coordinates": [ 10.5453114, 52.483498 ] } },
{ "type": "Feature", "properties": { "osm_id": "704475654", "code": 2542, "fclass": "bicycle_shop", "name": "Fahrrad Fricke", "C_Weight": 3.0 }, "geometry": { "type": "Point", "coordinates": [ 10.5386284, 52.2736749 ] } },
{ "type": "Feature", "properties": { "osm_id": "709463188", "code": 2592, "fclass": "vending_parking", "name": null, "C_Weight": 2.0 }, "geometry": { "type": "Point", "coordinates": [ 8.8106764, 53.0739746 ] } },
{ "type": "Feature", "properties": { "osm_id": "710429366", "code": 2252, "fclass": "pitch", "name": null, "C_Weight": 2.0 }, "geometry": { "type": "Point", "coordinates": [ 10.0439207, 52.6349553 ] } },
{ "type": "Feature", "properties": { "osm_id": "710711970", "code": 2542, "fclass": "bicycle_shop", "name": "Töwer Rad", "C_Weight": 3.0 }, "geometry": { "type": "Point", "coordinates": [ 6.9955626, 53.6780242 ] } },
{ "type": "Feature", "properties": { "osm_id": "710756412", "code": 2542, "fclass": "bicycle_shop", "name": "Der Fahrradladen H. Neef", "C_Weight": 3.0 }, "geometry": { "type": "Point", "coordinates": [ 7.1474628, 53.3662061 ] } },
{ "type": "Feature", "properties": { "osm_id": "710864430", "code": 2566, "fclass": "bicycle_rental", "name": "Fahrradvermietung Seemannstreu", "C_Weight": 3.0 }, "geometry": { "type": "Point", "coordinates": [ 6.9981304, 53.6785395 ] } },
{ "type": "Feature", "properties": { "osm_id": "711899669", "code": 2564, "fclass": "car_wash", "name": "TruckWash", "C_Weight": 2.0 }, "geometry": { "type": "Point", "coordinates": [ 9.8833635, 52.9454619 ] } },
{ "type": "Feature", "properties": { "osm_id": "712916181", "code": 2592, "fclass": "vending_parking", "name": null, "C_Weight": 2.0 }, "geometry": { "type": "Point", "coordinates": [ 9.7684786, 52.3820442 ] } },
{ "type": "Feature", "properties": { "osm_id": "714331572", "code": 2592, "fclass": "vending_parking", "name": null, "C_Weight": 2.0 }, "geometry": { "type": "Point", "coordinates": [ 8.8002738, 53.0700511 ] } },
{ "type": "Feature", "properties": { "osm_id": "717465904", "code": 2592, "fclass": "vending_parking", "name": null, "C_Weight": 2.0 }, "geometry": { "type": "Point", "coordinates": [ 8.8101912, 53.0827568 ] } },
{ "type": "Feature", "properties": { "osm_id": "717810392", "code": 2542, "fclass": "bicycle_shop", "name": "2Rad Hof Buchholz", "C_Weight": 3.0 }, "geometry": { "type": "Point", "coordinates": [ 9.8264851, 52.4000277 ] } },
{ "type": "Feature", "properties": { "osm_id": "718900872", "code": 2252, "fclass": "pitch", "name": null, "C_Weight": 2.0 }, "geometry": { "type": "Point", "coordinates": [ 9.5440609, 52.3437889 ] } },
{ "type": "Feature", "properties": { "osm_id": "718963739", "code": 2592, "fclass": "vending_parking", "name": null, "C_Weight": 2.0 }, "geometry": { "type": "Point", "coordinates": [ 8.7993116, 53.0794472 ] } },
{ "type": "Feature", "properties": { "osm_id": "721028372", "code": 2542, "fclass": "bicycle_shop", "name": "Rad und Krad", "C_Weight": 3.0 }, "geometry": { "type": "Point", "coordinates": [ 8.6994808, 53.1866587 ] } },
{ "type": "Feature", "properties": { "osm_id": "722542907", "code": 2592, "fclass": "vending_parking", "name": null, "C_Weight": 2.0 }, "geometry": { "type": "Point", "coordinates": [ 8.7894945, 53.0711138 ] } },
{ "type": "Feature", "properties": { "osm_id": "722542941", "code": 2592, "fclass": "vending_parking", "name": null, "C_Weight": 2.0 }, "geometry": { "type": "Point", "coordinates": [ 8.7891091, 53.0708584 ] } },
{ "type": "Feature", "properties": { "osm_id": "722543514", "code": 2592, "fclass": "vending_parking", "name": null, "C_Weight": 2.0 }, "geometry": { "type": "Point", "coordinates": [ 8.7883707, 53.0703994 ] } },
{ "type": "Feature", "properties": { "osm_id": "722544225", "code": 2592, "fclass": "vending_parking", "name": null, "C_Weight": 2.0 }, "geometry": { "type": "Point", "coordinates": [ 8.7877141, 53.0701174 ] } },
{ "type": "Feature", "properties": { "osm_id": "722544355", "code": 2592, "fclass": "vending_parking", "name": null, "C_Weight": 2.0 }, "geometry": { "type": "Point", "coordinates": [ 8.7882979, 53.0704929 ] } },
{ "type": "Feature", "properties": { "osm_id": "722544673", "code": 2542, "fclass": "bicycle_shop", "name": "Fahrradstation Neustadt", "C_Weight": 3.0 }, "geometry": { "type": "Point", "coordinates": [ 8.7925802, 53.0690975 ] } },
{ "type": "Feature", "properties": { "osm_id": "723143083", "code": 2592, "fclass": "vending_parking", "name": null, "C_Weight": 2.0 }, "geometry": { "type": "Point", "coordinates": [ 8.7919515, 53.0674379 ] } },
{ "type": "Feature", "properties": { "osm_id": "723143874", "code": 2592, "fclass": "vending_parking", "name": null, "C_Weight": 2.0 }, "geometry": { "type": "Point", "coordinates": [ 8.7925073, 53.0669985 ] } },
{ "type": "Feature", "properties": { "osm_id": "725058017", "code": 2252, "fclass": "pitch", "name": "Rider's Garden", "C_Weight": 2.0 }, "geometry": { "type": "Point", "coordinates": [ 10.0469684, 52.7926033 ] } },
{ "type": "Feature", "properties": { "osm_id": "727390404", "code": 2252, "fclass": "pitch", "name": "Schützenheim Sülze", "C_Weight": 2.0 }, "geometry": { "type": "Point", "coordinates": [ 10.042113, 52.7692856 ] } },
{ "type": "Feature", "properties": { "osm_id": "727626790", "code": 2252, "fclass": "pitch", "name": "Schützenhaus Ahlden", "C_Weight": 2.0 }, "geometry": { "type": "Point", "coordinates": [ 9.5437082, 52.7612503 ] } },
{ "type": "Feature", "properties": { "osm_id": "727833389", "code": 2542, "fclass": "bicycle_shop", "name": "Fahradverleih Germania", "C_Weight": 3.0 }, "geometry": { "type": "Point", "coordinates": [ 6.9976607, 53.6772709 ] } },
{ "type": "Feature", "properties": { "osm_id": "727833401", "code": 2542, "fclass": "bicycle_shop", "name": "Fahrradverleih Schönrock", "C_Weight": 3.0 }, "geometry": { "type": "Point", "coordinates": [ 6.9900812, 53.6775995 ] } },
{ "type": "Feature", "properties": { "osm_id": "732712407", "code": 2564, "fclass": "car_wash", "name": "Taxi Twiehaus GmbH", "C_Weight": 2.0 }, "geometry": { "type": "Point", "coordinates": [ 7.3252585, 52.5062259 ] } },
{ "type": "Feature", "properties": { "osm_id": "732713537", "code": 2564, "fclass": "car_wash", "name": null, "C_Weight": 2.0 }, "geometry": { "type": "Point", "coordinates": [ 8.0729945, 53.521 ] } },
{ "type": "Feature", "properties": { "osm_id": "736156847", "code": 2542, "fclass": "bicycle_shop", "name": "Fahrrad Hoffmann", "C_Weight": 3.0 }, "geometry": { "type": "Point", "coordinates": [ 9.9734763, 52.3804845 ] } },
{ "type": "Feature", "properties": { "osm_id": "736156849", "code": 2542, "fclass": "bicycle_shop", "name": "Fahrrad Sturm", "C_Weight": 3.0 }, "geometry": { "type": "Point", "coordinates": [ 9.9759433, 52.3767172 ] } },
{ "type": "Feature", "properties": { "osm_id": "736376778", "code": 2542, "fclass": "bicycle_shop", "name": "Leinebike", "C_Weight": 3.0 }, "geometry": { "type": "Point", "coordinates": [ 9.7791775, 52.0858773 ] } },
{ "type": "Feature", "properties": { "osm_id": "736973201", "code": 2252, "fclass": "pitch", "name": "Reiterverein Brookmerland", "C_Weight": 2.0 }, "geometry": { "type": "Point", "coordinates": [ 7.3992476, 53.486436 ] } },
{ "type": "Feature", "properties": { "osm_id": "738274148", "code": 2542, "fclass": "bicycle_shop", "name": "Zweirad-Center Stadler", "C_Weight": 3.0 }, "geometry": { "type": "Point", "coordinates": [ 9.715606, 52.356613 ] } },
{ "type": "Feature", "properties": { "osm_id": "742451920", "code": 2252, "fclass": "pitch", "name": null, "C_Weight": 2.0 }, "geometry": { "type": "Point", "coordinates": [ 8.0608586, 52.8138882 ] } },
{ "type": "Feature", "properties": { "osm_id": "742453445", "code": 2252, "fclass": "pitch", "name": null, "C_Weight": 2.0 }, "geometry": { "type": "Point", "coordinates": [ 8.0610312, 52.8137227 ] } },
{ "type": "Feature", "properties": { "osm_id": "747130088", "code": 2542, "fclass": "bicycle_shop", "name": "Hannoversche Werkstätten Rethen Fahrradwerkstatt", "C_Weight": 3.0 }, "geometry": { "type": "Point", "coordinates": [ 9.8224574, 52.2832309 ] } },
{ "type": "Feature", "properties": { "osm_id": "748804602", "code": 2252, "fclass": "pitch", "name": null, "C_Weight": 2.0 }, "geometry": { "type": "Point", "coordinates": [ 8.0473819, 52.8496967 ] } },
{ "type": "Feature", "properties": { "osm_id": "748825695", "code": 2542, "fclass": "bicycle_shop", "name": "Fahrradhaus Jacoby", "C_Weight": 3.0 }, "geometry": { "type": "Point", "coordinates": [ 10.0686432, 52.6211062 ] } },
{ "type": "Feature", "properties": { "osm_id": "750094874", "code": 2252, "fclass": "pitch", "name": null, "C_Weight": 2.0 }, "geometry": { "type": "Point", "coordinates": [ 8.0626604, 52.80843 ] } },
{ "type": "Feature", "properties": { "osm_id": "752178527", "code": 2252, "fclass": "pitch", "name": null, "C_Weight": 2.0 }, "geometry": { "type": "Point", "coordinates": [ 9.9358039, 51.5216074 ] } },
{ "type": "Feature", "properties": { "osm_id": "752183427", "code": 2565, "fclass": "car_sharing", "name": "Rosdorfer Weg", "C_Weight": 4.0 }, "geometry": { "type": "Point", "coordinates": [ 9.9250071, 51.5300306 ] } },
{ "type": "Feature", "properties": { "osm_id": "761352597", "code": 2566, "fclass": "bicycle_rental", "name": "Paddel und Pedal", "C_Weight": 3.0 }, "geometry": { "type": "Point", "coordinates": [ 7.2767191, 53.3113473 ] } },
{ "type": "Feature", "properties": { "osm_id": "761583432", "code": 2563, "fclass": "car_rental", "name": "Europcar", "C_Weight": 4.0 }, "geometry": { "type": "Point", "coordinates": [ 10.5356085, 52.2509693 ] } },
{ "type": "Feature", "properties": { "osm_id": "761603100", "code": 2252, "fclass": "pitch", "name": "Bolzplatz", "C_Weight": 2.0 }, "geometry": { "type": "Point", "coordinates": [ 9.7336266, 53.2967341 ] } },
{ "type": "Feature", "properties": { "osm_id": "761828706", "code": 2252, "fclass": "pitch", "name": "Angelteich Todtglüsinger Sportverein", "C_Weight": 2.0 }, "geometry": { "type": "Point", "coordinates": [ 9.6862821, 53.2796603 ] } },
{ "type": "Feature", "properties": { "osm_id": "761829012", "code": 2252, "fclass": "pitch", "name": "Angelteich Todtglüsinger Sportverein", "C_Weight": 2.0 }, "geometry": { "type": "Point", "coordinates": [ 9.7405284, 53.2924277 ] } },
{ "type": "Feature", "properties": { "osm_id": "765560505", "code": 2566, "fclass": "bicycle_rental", "name": null, "C_Weight": 3.0 }, "geometry": { "type": "Point", "coordinates": [ 10.1779405, 53.2194852 ] } },
{ "type": "Feature", "properties": { "osm_id": "765664006", "code": 2563, "fclass": "car_rental", "name": "Hegger", "C_Weight": 4.0 }, "geometry": { "type": "Point", "coordinates": [ 8.1187082, 52.6643162 ] } },
{ "type": "Feature", "properties": { "osm_id": "771687694", "code": 2542, "fclass": "bicycle_shop", "name": "akkurad", "C_Weight": 3.0 }, "geometry": { "type": "Point", "coordinates": [ 10.5352752, 52.2547307 ] } },
{ "type": "Feature", "properties": { "osm_id": "775304585", "code": 2542, "fclass": "bicycle_shop", "name": "Fahrradladen im Zimmerhof", "C_Weight": 3.0 }, "geometry": { "type": "Point", "coordinates": [ 10.533293, 52.1617532 ] } },
{ "type": "Feature", "properties": { "osm_id": "775645567", "code": 2252, "fclass": "pitch", "name": "Hundeschule Weseloh", "C_Weight": 2.0 }, "geometry": { "type": "Point", "coordinates": [ 8.907273, 52.8094613 ] } },
{ "type": "Feature", "properties": { "osm_id": "776239323", "code": 2542, "fclass": "bicycle_shop", "name": "Havenbike", "C_Weight": 3.0 }, "geometry": { "type": "Point", "coordinates": [ 8.6279529, 53.5296491 ] } },
{ "type": "Feature", "properties": { "osm_id": "776317093", "code": 2542, "fclass": "bicycle_shop", "name": "Zweirad-Fachmarkt-Bauer GmbH", "C_Weight": 3.0 }, "geometry": { "type": "Point", "coordinates": [ 8.5979525, 53.4890772 ] } },
{ "type": "Feature", "properties": { "osm_id": "776339028", "code": 2542, "fclass": "bicycle_shop", "name": "Drahtesel", "C_Weight": 3.0 }, "geometry": { "type": "Point", "coordinates": [ 8.6084947, 53.5882249 ] } },
{ "type": "Feature", "properties": { "osm_id": "777480394", "code": 2542, "fclass": "bicycle_shop", "name": null, "C_Weight": 3.0 }, "geometry": { "type": "Point", "coordinates": [ 7.0628384, 52.4441582 ] } },
{ "type": "Feature", "properties": { "osm_id": "777480397", "code": 2542, "fclass": "bicycle_shop", "name": "flotte Fietse", "C_Weight": 3.0 }, "geometry": { "type": "Point", "coordinates": [ 7.0571956, 52.4510962 ] } },
{ "type": "Feature", "properties": { "osm_id": "793441426", "code": 2252, "fclass": "pitch", "name": "Schützenplatz", "C_Weight": 2.0 }, "geometry": { "type": "Point", "coordinates": [ 7.3849316, 52.3326143 ] } },
{ "type": "Feature", "properties": { "osm_id": "795130601", "code": 2542, "fclass": "bicycle_shop", "name": "B.O.C.", "C_Weight": 3.0 }, "geometry": { "type": "Point", "coordinates": [ 8.1720441, 53.1603129 ] } },
{ "type": "Feature", "properties": { "osm_id": "798553562", "code": 2563, "fclass": "car_rental", "name": "Enterprise", "C_Weight": 4.0 }, "geometry": { "type": "Point", "coordinates": [ 8.5915479, 53.5450872 ] } },
{ "type": "Feature", "properties": { "osm_id": "800460249", "code": 2252, "fclass": "pitch", "name": null, "C_Weight": 2.0 }, "geometry": { "type": "Point", "coordinates": [ 9.05831, 53.0074117 ] } },
{ "type": "Feature", "properties": { "osm_id": "800460281", "code": 2252, "fclass": "pitch", "name": null, "C_Weight": 2.0 }, "geometry": { "type": "Point", "coordinates": [ 9.058463, 53.0073857 ] } },
{ "type": "Feature", "properties": { "osm_id": "803144287", "code": 2564, "fclass": "car_wash", "name": "Rolf Fehrmann", "C_Weight": 2.0 }, "geometry": { "type": "Point", "coordinates": [ 7.1010242, 52.8416767 ] } },
{ "type": "Feature", "properties": { "osm_id": "803144356", "code": 2542, "fclass": "bicycle_shop", "name": "Rolf Fehrmann", "C_Weight": 3.0 }, "geometry": { "type": "Point", "coordinates": [ 7.1011447, 52.8415814 ] } },
{ "type": "Feature", "properties": { "osm_id": "806655544", "code": 2542, "fclass": "bicycle_shop", "name": "Zweirad-Center Marnowski", "C_Weight": 3.0 }, "geometry": { "type": "Point", "coordinates": [ 10.5288158, 52.1634577 ] } },
{ "type": "Feature", "properties": { "osm_id": "815654032", "code": 2563, "fclass": "car_rental", "name": "Europcar", "C_Weight": 4.0 }, "geometry": { "type": "Point", "coordinates": [ 10.8026987, 52.4271714 ] } },
{ "type": "Feature", "properties": { "osm_id": "817462337", "code": 2566, "fclass": "bicycle_rental", "name": "Paddel und Pedal", "C_Weight": 3.0 }, "geometry": { "type": "Point", "coordinates": [ 7.2672459, 53.259783 ] } },
{ "type": "Feature", "properties": { "osm_id": "817514838", "code": 2564, "fclass": "car_wash", "name": "Autowaschcenter Leer", "C_Weight": 2.0 }, "geometry": { "type": "Point", "coordinates": [ 7.4554563, 53.2603839 ] } },
{ "type": "Feature", "properties": { "osm_id": "820441889", "code": 2252, "fclass": "pitch", "name": null, "C_Weight": 2.0 }, "geometry": { "type": "Point", "coordinates": [ 10.5235376, 52.2204358 ] } },
{ "type": "Feature", "properties": { "osm_id": "820443015", "code": 2252, "fclass": "pitch", "name": null, "C_Weight": 2.0 }, "geometry": { "type": "Point", "coordinates": [ 10.5314148, 52.237307 ] } },
{ "type": "Feature", "properties": { "osm_id": "826040493", "code": 2252, "fclass": "pitch", "name": "Reiterverein Northeim", "C_Weight": 2.0 }, "geometry": { "type": "Point", "coordinates": [ 10.0256209, 51.7014162 ] } },
{ "type": "Feature", "properties": { "osm_id": "828582625", "code": 2592, "fclass": "vending_parking", "name": null, "C_Weight": 2.0 }, "geometry": { "type": "Point", "coordinates": [ 8.8817115, 53.8224786 ] } },
{ "type": "Feature", "properties": { "osm_id": "828662989", "code": 2252, "fclass": "pitch", "name": null, "C_Weight": 2.0 }, "geometry": { "type": "Point", "coordinates": [ 10.4472636, 53.204962 ] } },
{ "type": "Feature", "properties": { "osm_id": "834082330", "code": 2542, "fclass": "bicycle_shop", "name": "Velo-Sport", "C_Weight": 3.0 }, "geometry": { "type": "Point", "coordinates": [ 8.803507, 53.076626 ] } },
{ "type": "Feature", "properties": { "osm_id": "835193660", "code": 2252, "fclass": "pitch", "name": null, "C_Weight": 2.0 }, "geometry": { "type": "Point", "coordinates": [ 9.7673613, 52.3925479 ] } },
{ "type": "Feature", "properties": { "osm_id": "839229751", "code": 2252, "fclass": "pitch", "name": null, "C_Weight": 2.0 }, "geometry": { "type": "Point", "coordinates": [ 7.4754568, 52.5491859 ] } },
{ "type": "Feature", "properties": { "osm_id": "846999998", "code": 2542, "fclass": "bicycle_shop", "name": "Kamphaus", "C_Weight": 3.0 }, "geometry": { "type": "Point", "coordinates": [ 8.123862, 52.6609606 ] } },
{ "type": "Feature", "properties": { "osm_id": "852843351", "code": 2542, "fclass": "bicycle_shop", "name": "freyrad", "C_Weight": 3.0 }, "geometry": { "type": "Point", "coordinates": [ 8.8410748, 53.0723929 ] } },
{ "type": "Feature", "properties": { "osm_id": "854965246", "code": 2542, "fclass": "bicycle_shop", "name": "Radhaus Schwachhausen", "C_Weight": 3.0 }, "geometry": { "type": "Point", "coordinates": [ 8.8481051, 53.0849189 ] } },
{ "type": "Feature", "properties": { "osm_id": "858175313", "code": 2566, "fclass": "bicycle_rental", "name": "Fahrradverleih Minigolfanlage", "C_Weight": 3.0 }, "geometry": { "type": "Point", "coordinates": [ 9.348431, 52.4518554 ] } },
{ "type": "Feature", "properties": { "osm_id": "858378914", "code": 2542, "fclass": "bicycle_shop", "name": "DER FAHRRADLADEN", "C_Weight": 3.0 }, "geometry": { "type": "Point", "coordinates": [ 8.8298051, 53.0853397 ] } },
{ "type": "Feature", "properties": { "osm_id": "861552127", "code": 2252, "fclass": "pitch", "name": null, "C_Weight": 2.0 }, "geometry": { "type": "Point", "coordinates": [ 10.3258248, 51.9403803 ] } },
{ "type": "Feature", "properties": { "osm_id": "861746651", "code": 2564, "fclass": "car_wash", "name": "Hoyer Tank-Treff Lüneburg", "C_Weight": 2.0 }, "geometry": { "type": "Point", "coordinates": [ 10.4084713, 53.2748049 ] } },
{ "type": "Feature", "properties": { "osm_id": "863887691", "code": 2542, "fclass": "bicycle_shop", "name": "B. Seifert", "C_Weight": 3.0 }, "geometry": { "type": "Point", "coordinates": [ 10.3338018, 51.9376131 ] } },
{ "type": "Feature", "properties": { "osm_id": "864024279", "code": 2542, "fclass": "bicycle_shop", "name": "Rad Spezi Mesmer", "C_Weight": 3.0 }, "geometry": { "type": "Point", "coordinates": [ 10.5152613, 52.3280163 ] } },
{ "type": "Feature", "properties": { "osm_id": "864029456", "code": 2542, "fclass": "bicycle_shop", "name": "Zweirad Brouwer", "C_Weight": 3.0 }, "geometry": { "type": "Point", "coordinates": [ 6.9598162, 52.4653407 ] } },
{ "type": "Feature", "properties": { "osm_id": "867544760", "code": 2542, "fclass": "bicycle_shop", "name": "CUBE Store", "C_Weight": 3.0 }, "geometry": { "type": "Point", "coordinates": [ 10.4032069, 53.2757356 ] } },
{ "type": "Feature", "properties": { "osm_id": "876312918", "code": 2252, "fclass": "pitch", "name": null, "C_Weight": 2.0 }, "geometry": { "type": "Point", "coordinates": [ 7.9940715, 53.4768963 ] } },
{ "type": "Feature", "properties": { "osm_id": "878496080", "code": 2592, "fclass": "vending_parking", "name": null, "C_Weight": 2.0 }, "geometry": { "type": "Point", "coordinates": [ 7.2116638, 53.5906629 ] } },
{ "type": "Feature", "properties": { "osm_id": "880696479", "code": 2542, "fclass": "bicycle_shop", "name": "Hegeler", "C_Weight": 3.0 }, "geometry": { "type": "Point", "coordinates": [ 8.1453394, 53.3959018 ] } },
{ "type": "Feature", "properties": { "osm_id": "894608701", "code": 2542, "fclass": "bicycle_shop", "name": "Radhaus Heino Mindrup", "C_Weight": 3.0 }, "geometry": { "type": "Point", "coordinates": [ 7.4902864, 53.3009748 ] } },
{ "type": "Feature", "properties": { "osm_id": "895452533", "code": 2592, "fclass": "vending_parking", "name": null, "C_Weight": 2.0 }, "geometry": { "type": "Point", "coordinates": [ 7.1542315, 53.6133571 ] } },
{ "type": "Feature", "properties": { "osm_id": "897464798", "code": 2252, "fclass": "pitch", "name": null, "C_Weight": 2.0 }, "geometry": { "type": "Point", "coordinates": [ 8.8462246, 53.0910615 ] } },
{ "type": "Feature", "properties": { "osm_id": "901665314", "code": 2564, "fclass": "car_wash", "name": "Clean Car", "C_Weight": 2.0 }, "geometry": { "type": "Point", "coordinates": [ 9.8659027, 53.3483384 ] } },
{ "type": "Feature", "properties": { "osm_id": "902433662", "code": 2565, "fclass": "car_sharing", "name": "Bahnhof_Hohenlohe", "C_Weight": 4.0 }, "geometry": { "type": "Point", "coordinates": [ 8.8174166, 53.0833108 ] } },
{ "type": "Feature", "properties": { "osm_id": "906646293", "code": 2592, "fclass": "vending_parking", "name": null, "C_Weight": 2.0 }, "geometry": { "type": "Point", "coordinates": [ 7.0516483, 53.5008248 ] } },
{ "type": "Feature", "properties": { "osm_id": "908304615", "code": 2564, "fclass": "car_wash", "name": "Waschanlage", "C_Weight": 2.0 }, "geometry": { "type": "Point", "coordinates": [ 10.7453525, 52.4423725 ] } },
{ "type": "Feature", "properties": { "osm_id": "911709652", "code": 2564, "fclass": "car_wash", "name": "Easy Car Wash", "C_Weight": 2.0 }, "geometry": { "type": "Point", "coordinates": [ 10.0107906, 51.8707414 ] } },
{ "type": "Feature", "properties": { "osm_id": "912327937", "code": 2252, "fclass": "pitch", "name": null, "C_Weight": 2.0 }, "geometry": { "type": "Point", "coordinates": [ 7.2671745, 52.4215038 ] } },
{ "type": "Feature", "properties": { "osm_id": "913775582", "code": 2542, "fclass": "bicycle_shop", "name": "Vosgerau am Damm", "C_Weight": 3.0 }, "geometry": { "type": "Point", "coordinates": [ 8.2185946, 53.1350148 ] } },
{ "type": "Feature", "properties": { "osm_id": "913953011", "code": 2542, "fclass": "bicycle_shop", "name": "Fahrradhaus A.O. Meyer", "C_Weight": 3.0 }, "geometry": { "type": "Point", "coordinates": [ 8.5722575, 53.1877965 ] } },
{ "type": "Feature", "properties": { "osm_id": "921353059", "code": 2542, "fclass": "bicycle_shop", "name": "CityCycles", "C_Weight": 3.0 }, "geometry": { "type": "Point", "coordinates": [ 10.4092172, 53.2457326 ] } },
{ "type": "Feature", "properties": { "osm_id": "921842678", "code": 2564, "fclass": "car_wash", "name": null, "C_Weight": 2.0 }, "geometry": { "type": "Point", "coordinates": [ 8.756544, 53.1845038 ] } },
{ "type": "Feature", "properties": { "osm_id": "921919343", "code": 2258, "fclass": "track", "name": "Kartbahn", "C_Weight": 2.0 }, "geometry": { "type": "Point", "coordinates": [ 7.6695139, 53.1079307 ] } },
{ "type": "Feature", "properties": { "osm_id": "922439754", "code": 2542, "fclass": "bicycle_shop", "name": "Wiegetritt Cycle Components", "C_Weight": 3.0 }, "geometry": { "type": "Point", "coordinates": [ 8.9126005, 53.1537172 ] } },
{ "type": "Feature", "properties": { "osm_id": "923966773", "code": 2563, "fclass": "car_rental", "name": "Avis", "C_Weight": 4.0 }, "geometry": { "type": "Point", "coordinates": [ 8.7258413, 53.8477788 ] } },
{ "type": "Feature", "properties": { "osm_id": "926610137", "code": 2564, "fclass": "car_wash", "name": "Star", "C_Weight": 2.0 }, "geometry": { "type": "Point", "coordinates": [ 10.5497062, 53.364227 ] } },
{ "type": "Feature", "properties": { "osm_id": "927278117", "code": 2542, "fclass": "bicycle_shop", "name": "R+S Radservice", "C_Weight": 3.0 }, "geometry": { "type": "Point", "coordinates": [ 9.9344883, 51.4055816 ] } },
{ "type": "Feature", "properties": { "osm_id": "944493104", "code": 2592, "fclass": "vending_parking", "name": null, "C_Weight": 2.0 }, "geometry": { "type": "Point", "coordinates": [ 8.8484345, 53.1052556 ] } },
{ "type": "Feature", "properties": { "osm_id": "944493376", "code": 2592, "fclass": "vending_parking", "name": null, "C_Weight": 2.0 }, "geometry": { "type": "Point", "coordinates": [ 8.8475199, 53.1054553 ] } },
{ "type": "Feature", "properties": { "osm_id": "954977116", "code": 2566, "fclass": "bicycle_rental", "name": "Fahrradverleihstation", "C_Weight": 3.0 }, "geometry": { "type": "Point", "coordinates": [ 8.0379173, 53.1887846 ] } },
{ "type": "Feature", "properties": { "osm_id": "963203187", "code": 2542, "fclass": "bicycle_shop", "name": "Mispagel", "C_Weight": 3.0 }, "geometry": { "type": "Point", "coordinates": [ 9.9612212, 52.1428898 ] } },
{ "type": "Feature", "properties": { "osm_id": "964051216", "code": 2252, "fclass": "pitch", "name": null, "C_Weight": 2.0 }, "geometry": { "type": "Point", "coordinates": [ 9.8924712, 53.3318684 ] } },
{ "type": "Feature", "properties": { "osm_id": "966188264", "code": 2563, "fclass": "car_rental", "name": "SIXT", "C_Weight": 4.0 }, "geometry": { "type": "Point", "coordinates": [ 8.0650133, 52.2729474 ] } },
{ "type": "Feature", "properties": { "osm_id": "970616978", "code": 2542, "fclass": "bicycle_shop", "name": "Zweirad Brust GmbH", "C_Weight": 3.0 }, "geometry": { "type": "Point", "coordinates": [ 7.2858121, 53.6030071 ] } },
{ "type": "Feature", "properties": { "osm_id": "975328006", "code": 2564, "fclass": "car_wash", "name": "AutoWaschCenter Winkler", "C_Weight": 2.0 },