{
"type": "FeatureCollection",
"name": "service_points",
"crs": { "type": "name", "properties": { "name": "urn:ogc:def:crs:OGC:1.3:CRS84" } },
"features": [
{ "type": "Feature", "properties": { "osm_id": "29181908", "code": 2004, "fclass": "post_box", "name": null, "Category": "Civic & Se", "Weight": 1.0 }, "geometry": { "type": "Point", "coordinates": [ 13.7417553, 51.0323813 ] } },
{ "type": "Feature", "properties": { "osm_id": "29219724", "code": 2502, "fclass": "bakery", "name": "Franke", "Category": "Food & Dai", "Weight": 1.0 }, "geometry": { "type": "Point", "coordinates": [ 13.7308072, 51.0201145 ] } },
{ "type": "Feature", "properties": { "osm_id": "29219725", "code": 2516, "fclass": "butcher", "name": "Korch", "Category": "Food & Dai", "Weight": 1.0 }, "geometry": { "type": "Point", "coordinates": [ 13.7307053, 51.0201027 ] } },
{ "type": "Feature", "properties": { "osm_id": "30330411", "code": 2721, "fclass": "attraction", "name": "Übigauer Uferkran", "Category": "Recreation", "Weight": 2.0 }, "geometry": { "type": "Point", "coordinates": [ 13.699352, 51.0684968 ] } },
{ "type": "Feature", "properties": { "osm_id": "32693690", "code": 2302, "fclass": "fast_food", "name": "Kaisergarten", "Category": "Food & Dai", "Weight": 1.0 }, "geometry": { "type": "Point", "coordinates": [ 13.7397366, 51.0372876 ] } },
{ "type": "Feature", "properties": { "osm_id": "67354286", "code": 2304, "fclass": "pub", "name": "Bottoms Up", "Category": "Recreation", "Weight": 2.0 }, "geometry": { "type": "Point", "coordinates": [ 13.7561934, 51.0650393 ] } },
{ "type": "Feature", "properties": { "osm_id": "67356279", "code": 2301, "fclass": "restaurant", "name": "Raskolnikoff", "Category": "Food & Dai", "Weight": 1.0 }, "geometry": { "type": "Point", "coordinates": [ 13.7549339, 51.0643978 ] } },
{ "type": "Feature", "properties": { "osm_id": "67356332", "code": 2302, "fclass": "fast_food", "name": "Byblos", "Category": "Food & Dai", "Weight": 1.0 }, "geometry": { "type": "Point", "coordinates": [ 13.7535249, 51.0665306 ] } },
{ "type": "Feature", "properties": { "osm_id": "67356649", "code": 2004, "fclass": "post_box", "name": null, "Category": "Civic & Se", "Weight": 1.0 }, "geometry": { "type": "Point", "coordinates": [ 13.7535379, 51.0658988 ] } },
{ "type": "Feature", "properties": { "osm_id": "67356959", "code": 2004, "fclass": "post_box", "name": null, "Category": "Civic & Se", "Weight": 1.0 }, "geometry": { "type": "Point", "coordinates": [ 13.7584591, 51.0680826 ] } },
{ "type": "Feature", "properties": { "osm_id": "76857748", "code": 2004, "fclass": "post_box", "name": null, "Category": "Civic & Se", "Weight": 1.0 }, "geometry": { "type": "Point", "coordinates": [ 13.751188, 51.0631378 ] } },
{ "type": "Feature", "properties": { "osm_id": "76857772", "code": 2004, "fclass": "post_box", "name": null, "Category": "Civic & Se", "Weight": 1.0 }, "geometry": { "type": "Point", "coordinates": [ 13.7547619, 51.0627767 ] } },
{ "type": "Feature", "properties": { "osm_id": "91493778", "code": 2201, "fclass": "theatre", "name": "Boulevardtheater Dresden", "Category": "Recreation", "Weight": 2.0 }, "geometry": { "type": "Point", "coordinates": [ 13.7234472, 51.0488662 ] } },
{ "type": "Feature", "properties": { "osm_id": "115197588", "code": 2602, "fclass": "atm", "name": "Sparkasse", "Category": "Mobility", "Weight": 4.0 }, "geometry": { "type": "Point", "coordinates": [ 13.7426331, 51.023212 ] } },
{ "type": "Feature", "properties": { "osm_id": "197709455", "code": 2601, "fclass": "bank", "name": "Ostsächsische Sparkasse Dresden", "Category": "Mobility", "Weight": 4.0 }, "geometry": { "type": "Point", "coordinates": [ 13.718031, 51.0772934 ] } },
{ "type": "Feature", "properties": { "osm_id": "197719576", "code": 2301, "fclass": "restaurant", "name": "Zum Landstreicher", "Category": "Food & Dai", "Weight": 1.0 }, "geometry": { "type": "Point", "coordinates": [ 13.712517, 51.0776937 ] } },
{ "type": "Feature", "properties": { "osm_id": "198220985", "code": 2601, "fclass": "bank", "name": "Ostsächsische Sparkasse Dresden", "Category": "Mobility", "Weight": 4.0 }, "geometry": { "type": "Point", "coordinates": [ 13.7589041, 51.053962 ] } },
{ "type": "Feature", "properties": { "osm_id": "221831949", "code": 2004, "fclass": "post_box", "name": null, "Category": "Civic & Se", "Weight": 1.0 }, "geometry": { "type": "Point", "coordinates": [ 13.7804455, 51.0442616 ] } },
{ "type": "Feature", "properties": { "osm_id": "235237912", "code": 2031, "fclass": "recycling_glass", "name": null, "Category": "Civic & Se", "Weight": 1.0 }, "geometry": { "type": "Point", "coordinates": [ 13.7872369, 51.0414834 ] } },
{ "type": "Feature", "properties": { "osm_id": "247063903", "code": 2302, "fclass": "fast_food", "name": "Zaza Döner Haus", "Category": "Food & Dai", "Weight": 1.0 }, "geometry": { "type": "Point", "coordinates": [ 13.7630937, 51.0560712 ] } },
{ "type": "Feature", "properties": { "osm_id": "247163686", "code": 2301, "fclass": "restaurant", "name": "Lingnerterrassen", "Category": "Food & Dai", "Weight": 1.0 }, "geometry": { "type": "Point", "coordinates": [ 13.7980083, 51.0639793 ] } },
{ "type": "Feature", "properties": { "osm_id": "247163695", "code": 2301, "fclass": "restaurant", "name": "Schloss Eckberg", "Category": "Food & Dai", "Weight": 1.0 }, "geometry": { "type": "Point", "coordinates": [ 13.7995396, 51.063544 ] } },
{ "type": "Feature", "properties": { "osm_id": "247168489", "code": 2501, "fclass": "supermarket", "name": "Nahkauf", "Category": "Food & Dai", "Weight": 1.0 }, "geometry": { "type": "Point", "coordinates": [ 13.7879387, 51.0434377 ] } },
{ "type": "Feature", "properties": { "osm_id": "247700805", "code": 2004, "fclass": "post_box", "name": null, "Category": "Civic & Se", "Weight": 1.0 }, "geometry": { "type": "Point", "coordinates": [ 13.7392753, 51.0365834 ] } },
{ "type": "Feature", "properties": { "osm_id": "247849163", "code": 2031, "fclass": "recycling_glass", "name": null, "Category": "Civic & Se", "Weight": 1.0 }, "geometry": { "type": "Point", "coordinates": [ 13.7360642, 51.0350483 ] } },
{ "type": "Feature", "properties": { "osm_id": "247852377", "code": 2904, "fclass": "fountain", "name": "Marie-Gey-Brunnen", "Category": "Recreation", "Weight": 2.0 }, "geometry": { "type": "Point", "coordinates": [ 13.7335057, 51.038728 ] } },
{ "type": "Feature", "properties": { "osm_id": "247852377", "code": 2724, "fclass": "memorial", "name": "Marie-Gey-Brunnen", "Category": "Recreation", "Weight": 2.0 }, "geometry": { "type": "Point", "coordinates": [ 13.7335057, 51.038728 ] } },
{ "type": "Feature", "properties": { "osm_id": "247922136", "code": 2031, "fclass": "recycling_glass", "name": null, "Category": "Civic & Se", "Weight": 1.0 }, "geometry": { "type": "Point", "coordinates": [ 13.732499, 51.0324407 ] } },
{ "type": "Feature", "properties": { "osm_id": "247951988", "code": 2305, "fclass": "bar", "name": "Wohnzimmer", "Category": "Recreation", "Weight": 2.0 }, "geometry": { "type": "Point", "coordinates": [ 13.7525891, 51.0680042 ] } },
{ "type": "Feature", "properties": { "osm_id": "247953899", "code": 2203, "fclass": "cinema", "name": "Neues Rundkino", "Category": "Recreation", "Weight": 2.0 }, "geometry": { "type": "Point", "coordinates": [ 13.7369635, 51.0449566 ] } },
{ "type": "Feature", "properties": { "osm_id": "247954185", "code": 2401, "fclass": "hotel", "name": "IntercityHotel Dresden", "Category": "Recreation", "Weight": 2.0 }, "geometry": { "type": "Point", "coordinates": [ 13.7312795, 51.0417888 ] } },
{ "type": "Feature", "properties": { "osm_id": "248012735", "code": 2101, "fclass": "pharmacy", "name": "Lukas-Apotheke", "Category": "Health", "Weight": 5.0 }, "geometry": { "type": "Point", "coordinates": [ 13.7332978, 51.0325052 ] } },
{ "type": "Feature", "properties": { "osm_id": "248014885", "code": 2725, "fclass": "artwork", "name": "Völkerfreundschaft", "Category": "Recreation", "Weight": 2.0 }, "geometry": { "type": "Point", "coordinates": [ 13.7357428, 51.0446473 ] } },
{ "type": "Feature", "properties": { "osm_id": "248198243", "code": 2602, "fclass": "atm", "name": "Volksbank", "Category": "Mobility", "Weight": 4.0 }, "geometry": { "type": "Point", "coordinates": [ 13.7541416, 51.0627336 ] } },
{ "type": "Feature", "properties": { "osm_id": "248204401", "code": 2904, "fclass": "fountain", "name": "Mosaikbrunnen", "Category": "Recreation", "Weight": 2.0 }, "geometry": { "type": "Point", "coordinates": [ 13.7539688, 51.0405806 ] } },
{ "type": "Feature", "properties": { "osm_id": "248204401", "code": 2721, "fclass": "attraction", "name": "Mosaikbrunnen", "Category": "Recreation", "Weight": 2.0 }, "geometry": { "type": "Point", "coordinates": [ 13.7539688, 51.0405806 ] } },
{ "type": "Feature", "properties": { "osm_id": "248476383", "code": 2907, "fclass": "camera_surveillance", "name": null, "Category": "Food & Dai", "Weight": 1.0 }, "geometry": { "type": "Point", "coordinates": [ 13.7475832, 51.0444615 ] } },
{ "type": "Feature", "properties": { "osm_id": "248476386", "code": 2907, "fclass": "camera_surveillance", "name": null, "Category": "Food & Dai", "Weight": 1.0 }, "geometry": { "type": "Point", "coordinates": [ 13.7470022, 51.0443201 ] } },
{ "type": "Feature", "properties": { "osm_id": "248476504", "code": 2725, "fclass": "artwork", "name": "Ballwerfer-Skulptur", "Category": "Recreation", "Weight": 2.0 }, "geometry": { "type": "Point", "coordinates": [ 13.7476556, 51.0438916 ] } },
{ "type": "Feature", "properties": { "osm_id": "248567811", "code": 2742, "fclass": "viewpoint", "name": "Am Zwingergraben", "Category": "Recreation", "Weight": 2.0 }, "geometry": { "type": "Point", "coordinates": [ 13.7320129, 51.0537902 ] } },
{ "type": "Feature", "properties": { "osm_id": "248750685", "code": 2301, "fclass": "restaurant", "name": "Italienisches Dörfchen", "Category": "Food & Dai", "Weight": 1.0 }, "geometry": { "type": "Point", "coordinates": [ 13.7371186, 51.0543868 ] } },
{ "type": "Feature", "properties": { "osm_id": "248805882", "code": 2701, "fclass": "tourist_info", "name": "Besucherzentrum Art&Info", "Category": "Recreation", "Weight": 2.0 }, "geometry": { "type": "Point", "coordinates": [ 13.7373768, 51.0519821 ] } },
{ "type": "Feature", "properties": { "osm_id": "248809487", "code": 2724, "fclass": "memorial", "name": "Dresdner Maiaufstand", "Category": "Recreation", "Weight": 2.0 }, "geometry": { "type": "Point", "coordinates": [ 13.7372799, 51.0515574 ] } },
{ "type": "Feature", "properties": { "osm_id": "248811325", "code": 2724, "fclass": "memorial", "name": "Martin Luther", "Category": "Recreation", "Weight": 2.0 }, "geometry": { "type": "Point", "coordinates": [ 13.7410155, 51.0515503 ] } },
{ "type": "Feature", "properties": { "osm_id": "248816103", "code": 2725, "fclass": "artwork", "name": null, "Category": "Recreation", "Weight": 2.0 }, "geometry": { "type": "Point", "coordinates": [ 13.7414891, 51.0509765 ] } },
{ "type": "Feature", "properties": { "osm_id": "248962143", "code": 2303, "fclass": "cafe", "name": "Haselbauer", "Category": "Food & Dai", "Weight": 1.0 }, "geometry": { "type": "Point", "coordinates": [ 13.7372806, 51.0472133 ] } },
{ "type": "Feature", "properties": { "osm_id": "248964075", "code": 2401, "fclass": "hotel", "name": "Gewandhaus Hotel", "Category": "Recreation", "Weight": 2.0 }, "geometry": { "type": "Point", "coordinates": [ 13.7418426, 51.0485632 ] } },
{ "type": "Feature", "properties": { "osm_id": "248964077", "code": 2724, "fclass": "memorial", "name": "Trümmerfrau", "Category": "Recreation", "Weight": 2.0 }, "geometry": { "type": "Point", "coordinates": [ 13.7420725, 51.0476317 ] } },
{ "type": "Feature", "properties": { "osm_id": "248965132", "code": 2725, "fclass": "artwork", "name": "Goldener Rathausmann", "Category": "Recreation", "Weight": 2.0 }, "geometry": { "type": "Point", "coordinates": [ 13.7409623, 51.0480235 ] } },
{ "type": "Feature", "properties": { "osm_id": "248966450", "code": 2721, "fclass": "attraction", "name": "Goldene Rathauspforte", "Category": "Recreation", "Weight": 2.0 }, "geometry": { "type": "Point", "coordinates": [ 13.7415343, 51.0478279 ] } },
{ "type": "Feature", "properties": { "osm_id": "248966496", "code": 2742, "fclass": "viewpoint", "name": "Turm Kreuzkirche", "Category": "Recreation", "Weight": 2.0 }, "geometry": { "type": "Point", "coordinates": [ 13.7388828, 51.0487479 ] } },
{ "type": "Feature", "properties": { "osm_id": "249140713", "code": 2120, "fclass": "doctors", "name": "Dr. med. Antje Rahrisch", "Category": "Health", "Weight": 5.0 }, "geometry": { "type": "Point", "coordinates": [ 13.7553608, 51.0493713 ] } },
{ "type": "Feature", "properties": { "osm_id": "249140714", "code": 2301, "fclass": "restaurant", "name": "Schnizz", "Category": "Food & Dai", "Weight": 1.0 }, "geometry": { "type": "Point", "coordinates": [ 13.7554884, 51.0496246 ] } },
{ "type": "Feature", "properties": { "osm_id": "249161300", "code": 2907, "fclass": "camera_surveillance", "name": null, "Category": "Food & Dai", "Weight": 1.0 }, "geometry": { "type": "Point", "coordinates": [ 13.7224429, 51.0490349 ] } },
{ "type": "Feature", "properties": { "osm_id": "249507102", "code": 2501, "fclass": "supermarket", "name": "Netto Marken-Discount", "Category": "Food & Dai", "Weight": 1.0 }, "geometry": { "type": "Point", "coordinates": [ 13.7631154, 51.0523158 ] } },
{ "type": "Feature", "properties": { "osm_id": "249594156", "code": 2907, "fclass": "camera_surveillance", "name": null, "Category": "Food & Dai", "Weight": 1.0 }, "geometry": { "type": "Point", "coordinates": [ 13.7323489, 51.0570162 ] } },
{ "type": "Feature", "properties": { "osm_id": "249675571", "code": 2501, "fclass": "supermarket", "name": "Konsum", "Category": "Food & Dai", "Weight": 1.0 }, "geometry": { "type": "Point", "coordinates": [ 13.745206, 51.0600641 ] } },
{ "type": "Feature", "properties": { "osm_id": "249676316", "code": 2724, "fclass": "memorial", "name": "Schillerdenkmal", "Category": "Recreation", "Weight": 2.0 }, "geometry": { "type": "Point", "coordinates": [ 13.7447862, 51.0619895 ] } },
{ "type": "Feature", "properties": { "osm_id": "249747812", "code": 2301, "fclass": "restaurant", "name": "BrennNessel", "Category": "Food & Dai", "Weight": 1.0 }, "geometry": { "type": "Point", "coordinates": [ 13.7262485, 51.0544448 ] } },
{ "type": "Feature", "properties": { "osm_id": "249774957", "code": 2201, "fclass": "theatre", "name": "Comödie", "Category": "Recreation", "Weight": 2.0 }, "geometry": { "type": "Point", "coordinates": [ 13.7220385, 51.0484032 ] } },
{ "type": "Feature", "properties": { "osm_id": "249775641", "code": 2401, "fclass": "hotel", "name": "Bilderberg Bellevue Hotel Dresden", "Category": "Recreation", "Weight": 2.0 }, "geometry": { "type": "Point", "coordinates": [ 13.7389612, 51.0584948 ] } },
{ "type": "Feature", "properties": { "osm_id": "250731454", "code": 2524, "fclass": "outdoor_shop", "name": "Globetrotter", "Category": "Food & Dai", "Weight": 1.0 }, "geometry": { "type": "Point", "coordinates": [ 13.7365752, 51.0457779 ] } },
{ "type": "Feature", "properties": { "osm_id": "250892641", "code": 2302, "fclass": "fast_food", "name": "Kantine No. 2", "Category": "Food & Dai", "Weight": 1.0 }, "geometry": { "type": "Point", "coordinates": [ 13.754022, 51.06653 ] } },
{ "type": "Feature", "properties": { "osm_id": "250892760", "code": 2303, "fclass": "cafe", "name": "Café Continental", "Category": "Food & Dai", "Weight": 1.0 }, "geometry": { "type": "Point", "coordinates": [ 13.7537092, 51.0664913 ] } },
{ "type": "Feature", "properties": { "osm_id": "250892789", "code": 2305, "fclass": "bar", "name": "Pinta", "Category": "Recreation", "Weight": 2.0 }, "geometry": { "type": "Point", "coordinates": [ 13.7534673, 51.0665431 ] } },
{ "type": "Feature", "properties": { "osm_id": "250893265", "code": 2301, "fclass": "restaurant", "name": "Chay Viet", "Category": "Food & Dai", "Weight": 1.0 }, "geometry": { "type": "Point", "coordinates": [ 13.75177, 51.0671778 ] } },
{ "type": "Feature", "properties": { "osm_id": "250997374", "code": 2004, "fclass": "post_box", "name": null, "Category": "Civic & Se", "Weight": 1.0 }, "geometry": { "type": "Point", "coordinates": [ 13.726752, 51.031401 ] } },
{ "type": "Feature", "properties": { "osm_id": "251384928", "code": 2031, "fclass": "recycling_glass", "name": null, "Category": "Civic & Se", "Weight": 1.0 }, "geometry": { "type": "Point", "coordinates": [ 13.7318202, 51.027418 ] } },
{ "type": "Feature", "properties": { "osm_id": "251384929", "code": 2301, "fclass": "restaurant", "name": "Friebitz", "Category": "Food & Dai", "Weight": 1.0 }, "geometry": { "type": "Point", "coordinates": [ 13.7313818, 51.0263027 ] } },
{ "type": "Feature", "properties": { "osm_id": "251384930", "code": 2004, "fclass": "post_box", "name": null, "Category": "Civic & Se", "Weight": 1.0 }, "geometry": { "type": "Point", "coordinates": [ 13.731336, 51.0265512 ] } },
{ "type": "Feature", "properties": { "osm_id": "251385149", "code": 2305, "fclass": "bar", "name": "GAG 18", "Category": "Recreation", "Weight": 2.0 }, "geometry": { "type": "Point", "coordinates": [ 13.7313601, 51.0359891 ] } },
{ "type": "Feature", "properties": { "osm_id": "251390731", "code": 2031, "fclass": "recycling_glass", "name": null, "Category": "Civic & Se", "Weight": 1.0 }, "geometry": { "type": "Point", "coordinates": [ 13.7422447, 51.0300325 ] } },
{ "type": "Feature", "properties": { "osm_id": "251564434", "code": 2031, "fclass": "recycling_glass", "name": null, "Category": "Civic & Se", "Weight": 1.0 }, "geometry": { "type": "Point", "coordinates": [ 13.7387914, 51.0370865 ] } },
{ "type": "Feature", "properties": { "osm_id": "251737163", "code": 2602, "fclass": "atm", "name": "Deutsche Bank", "Category": "Mobility", "Weight": 4.0 }, "geometry": { "type": "Point", "coordinates": [ 13.7229596, 51.0341666 ] } },
{ "type": "Feature", "properties": { "osm_id": "251738707", "code": 2007, "fclass": "library", "name": "Bibliothek Südvorstadt „Anne Frank“", "Category": "Education", "Weight": 4.0 }, "geometry": { "type": "Point", "coordinates": [ 13.7225241, 51.030512 ] } },
{ "type": "Feature", "properties": { "osm_id": "251740119", "code": 2031, "fclass": "recycling_glass", "name": null, "Category": "Civic & Se", "Weight": 1.0 }, "geometry": { "type": "Point", "coordinates": [ 13.7317249, 51.0315917 ] } },
{ "type": "Feature", "properties": { "osm_id": "251740125", "code": 2302, "fclass": "fast_food", "name": "Rolle Kebap", "Category": "Food & Dai", "Weight": 1.0 }, "geometry": { "type": "Point", "coordinates": [ 13.735424, 51.0336877 ] } },
{ "type": "Feature", "properties": { "osm_id": "251740153", "code": 2004, "fclass": "post_box", "name": null, "Category": "Civic & Se", "Weight": 1.0 }, "geometry": { "type": "Point", "coordinates": [ 13.7336032, 51.0397577 ] } },
{ "type": "Feature", "properties": { "osm_id": "251753941", "code": 2101, "fclass": "pharmacy", "name": "Helmholtz-Apotheke", "Category": "Health", "Weight": 5.0 }, "geometry": { "type": "Point", "coordinates": [ 13.7264614, 51.0325683 ] } },
{ "type": "Feature", "properties": { "osm_id": "252104903", "code": 2302, "fclass": "fast_food", "name": "Alte Mensa", "Category": "Food & Dai", "Weight": 1.0 }, "geometry": { "type": "Point", "coordinates": [ 13.726491, 51.0269492 ] } },
{ "type": "Feature", "properties": { "osm_id": "252104904", "code": 2303, "fclass": "cafe", "name": "Zebradiele", "Category": "Food & Dai", "Weight": 1.0 }, "geometry": { "type": "Point", "coordinates": [ 13.726983, 51.0269154 ] } },
{ "type": "Feature", "properties": { "osm_id": "252412226", "code": 2301, "fclass": "restaurant", "name": "Carolaschlösschen", "Category": "Food & Dai", "Weight": 1.0 }, "geometry": { "type": "Point", "coordinates": [ 13.7636543, 51.033551 ] } },
{ "type": "Feature", "properties": { "osm_id": "252660094", "code": 2602, "fclass": "atm", "name": "Sparkasse", "Category": "Mobility", "Weight": 4.0 }, "geometry": { "type": "Point", "coordinates": [ 13.7207361, 51.0547523 ] } },
{ "type": "Feature", "properties": { "osm_id": "253041381", "code": 2004, "fclass": "post_box", "name": null, "Category": "Civic & Se", "Weight": 1.0 }, "geometry": { "type": "Point", "coordinates": [ 13.7314974, 51.0346669 ] } },
{ "type": "Feature", "properties": { "osm_id": "253185705", "code": 2201, "fclass": "theatre", "name": "Filmnächte am Elbufer", "Category": "Recreation", "Weight": 2.0 }, "geometry": { "type": "Point", "coordinates": [ 13.744527, 51.055927 ] } },
{ "type": "Feature", "properties": { "osm_id": "254163747", "code": 2004, "fclass": "post_box", "name": null, "Category": "Civic & Se", "Weight": 1.0 }, "geometry": { "type": "Point", "coordinates": [ 13.735148, 51.0439592 ] } },
{ "type": "Feature", "properties": { "osm_id": "254163748", "code": 2512, "fclass": "clothes", "name": "Hunkemöller", "Category": "Food & Dai", "Weight": 1.0 }, "geometry": { "type": "Point", "coordinates": [ 13.734574, 51.0430089 ] } },
{ "type": "Feature", "properties": { "osm_id": "254163749", "code": 2303, "fclass": "cafe", "name": "Schwenke's Cocktail & Coffee Lounge", "Category": "Food & Dai", "Weight": 1.0 }, "geometry": { "type": "Point", "coordinates": [ 13.7350066, 51.0424604 ] } },
{ "type": "Feature", "properties": { "osm_id": "254163750", "code": 2301, "fclass": "restaurant", "name": "Le Boulevard", "Category": "Food & Dai", "Weight": 1.0 }, "geometry": { "type": "Point", "coordinates": [ 13.7348456, 51.0421131 ] } },
{ "type": "Feature", "properties": { "osm_id": "255233404", "code": 2031, "fclass": "recycling_glass", "name": null, "Category": "Civic & Se", "Weight": 1.0 }, "geometry": { "type": "Point", "coordinates": [ 13.729926, 51.0333327 ] } },
{ "type": "Feature", "properties": { "osm_id": "255233405", "code": 2004, "fclass": "post_box", "name": null, "Category": "Civic & Se", "Weight": 1.0 }, "geometry": { "type": "Point", "coordinates": [ 13.7213837, 51.0345523 ] } },
{ "type": "Feature", "properties": { "osm_id": "255233408", "code": 2031, "fclass": "recycling_glass", "name": null, "Category": "Civic & Se", "Weight": 1.0 }, "geometry": { "type": "Point", "coordinates": [ 13.7216256, 51.0305893 ] } },
{ "type": "Feature", "properties": { "osm_id": "255297916", "code": 2004, "fclass": "post_box", "name": null, "Category": "Civic & Se", "Weight": 1.0 }, "geometry": { "type": "Point", "coordinates": [ 13.7952004, 51.0432232 ] } },
{ "type": "Feature", "properties": { "osm_id": "255298026", "code": 2902, "fclass": "bench", "name": null, "Category": "Recreation", "Weight": 2.0 }, "geometry": { "type": "Point", "coordinates": [ 13.7986404, 51.0468025 ] } },
{ "type": "Feature", "properties": { "osm_id": "255305811", "code": 2004, "fclass": "post_box", "name": null, "Category": "Civic & Se", "Weight": 1.0 }, "geometry": { "type": "Point", "coordinates": [ 13.7926678, 51.0539303 ] } },
{ "type": "Feature", "properties": { "osm_id": "255925960", "code": 2906, "fclass": "waste_basket", "name": null, "Category": "Recreation", "Weight": 2.0 }, "geometry": { "type": "Point", "coordinates": [ 13.702179, 51.039106 ] } },
{ "type": "Feature", "properties": { "osm_id": "256053833", "code": 2031, "fclass": "recycling_glass", "name": null, "Category": "Civic & Se", "Weight": 1.0 }, "geometry": { "type": "Point", "coordinates": [ 13.7533723, 51.0221202 ] } },
{ "type": "Feature", "properties": { "osm_id": "256407459", "code": 2405, "fclass": "hostel", "name": "Mondpalast", "Category": "Recreation", "Weight": 2.0 }, "geometry": { "type": "Point", "coordinates": [ 13.7567388, 51.0657261 ] } },
{ "type": "Feature", "properties": { "osm_id": "256874932", "code": 2519, "fclass": "optician", "name": "Optik Mißbach", "Category": "Recreation", "Weight": 2.0 }, "geometry": { "type": "Point", "coordinates": [ 13.7723546, 51.0477319 ] } },
{ "type": "Feature", "properties": { "osm_id": "256910574", "code": 2907, "fclass": "camera_surveillance", "name": null, "Category": "Food & Dai", "Weight": 1.0 }, "geometry": { "type": "Point", "coordinates": [ 13.7531575, 51.0362095 ] } },
{ "type": "Feature", "properties": { "osm_id": "257482529", "code": 2301, "fclass": "restaurant", "name": "AnTon", "Category": "Food & Dai", "Weight": 1.0 }, "geometry": { "type": "Point", "coordinates": [ 13.7494354, 51.0746909 ] } },
{ "type": "Feature", "properties": { "osm_id": "257482534", "code": 2303, "fclass": "cafe", "name": "Klubgalerie Kolja", "Category": "Food & Dai", "Weight": 1.0 }, "geometry": { "type": "Point", "coordinates": [ 13.7494554, 51.0743596 ] } },
{ "type": "Feature", "properties": { "osm_id": "257483859", "code": 2502, "fclass": "bakery", "name": "Krause Bäckerei Konditorei", "Category": "Food & Dai", "Weight": 1.0 }, "geometry": { "type": "Point", "coordinates": [ 13.7477665, 51.0723465 ] } },
{ "type": "Feature", "properties": { "osm_id": "257483860", "code": 2301, "fclass": "restaurant", "name": "Royal Punjab", "Category": "Food & Dai", "Weight": 1.0 }, "geometry": { "type": "Point", "coordinates": [ 13.7477805, 51.0720102 ] } },
{ "type": "Feature", "properties": { "osm_id": "257554514", "code": 2301, "fclass": "restaurant", "name": "Steak Royal", "Category": "Food & Dai", "Weight": 1.0 }, "geometry": { "type": "Point", "coordinates": [ 13.7406093, 51.0491285 ] } },
{ "type": "Feature", "properties": { "osm_id": "257554576", "code": 2301, "fclass": "restaurant", "name": "rauschenbach deli", "Category": "Food & Dai", "Weight": 1.0 }, "geometry": { "type": "Point", "coordinates": [ 13.7403252, 51.0488463 ] } },
{ "type": "Feature", "properties": { "osm_id": "257724014", "code": 2501, "fclass": "supermarket", "name": "Konsum", "Category": "Food & Dai", "Weight": 1.0 }, "geometry": { "type": "Point", "coordinates": [ 13.7960025, 51.0422931 ] } },
{ "type": "Feature", "properties": { "osm_id": "257753213", "code": 2601, "fclass": "bank", "name": "Sparda-Bank Berlin", "Category": "Mobility", "Weight": 4.0 }, "geometry": { "type": "Point", "coordinates": [ 13.7441515, 51.0618263 ] } },
{ "type": "Feature", "properties": { "osm_id": "258314327", "code": 2724, "fclass": "memorial", "name": null, "Category": "Recreation", "Weight": 2.0 }, "geometry": { "type": "Point", "coordinates": [ 13.7881727, 51.039024 ] } },
{ "type": "Feature", "properties": { "osm_id": "258400703", "code": 2302, "fclass": "fast_food", "name": "Slemani", "Category": "Food & Dai", "Weight": 1.0 }, "geometry": { "type": "Point", "coordinates": [ 13.7398196, 51.037051 ] } },
{ "type": "Feature", "properties": { "osm_id": "260224263", "code": 2201, "fclass": "theatre", "name": "Herkuleskeule", "Category": "Recreation", "Weight": 2.0 }, "geometry": { "type": "Point", "coordinates": [ 13.7379457, 51.0507609 ] } },
{ "type": "Feature", "properties": { "osm_id": "260301440", "code": 2004, "fclass": "post_box", "name": null, "Category": "Civic & Se", "Weight": 1.0 }, "geometry": { "type": "Point", "coordinates": [ 13.6979504, 51.0440232 ] } },
{ "type": "Feature", "properties": { "osm_id": "260301574", "code": 2601, "fclass": "bank", "name": "Deutsche Bank", "Category": "Mobility", "Weight": 4.0 }, "geometry": { "type": "Point", "coordinates": [ 13.7005644, 51.0439467 ] } },
{ "type": "Feature", "properties": { "osm_id": "260301663", "code": 2501, "fclass": "supermarket", "name": "REWE", "Category": "Food & Dai", "Weight": 1.0 }, "geometry": { "type": "Point", "coordinates": [ 13.6996233, 51.0439614 ] } },
{ "type": "Feature", "properties": { "osm_id": "260423885", "code": 2004, "fclass": "post_box", "name": null, "Category": "Civic & Se", "Weight": 1.0 }, "geometry": { "type": "Point", "coordinates": [ 13.7445416, 51.0622516 ] } },
{ "type": "Feature", "properties": { "osm_id": "262137157", "code": 2601, "fclass": "bank", "name": "Ostsächsische Sparkasse Dresden", "Category": "Mobility", "Weight": 4.0 }, "geometry": { "type": "Point", "coordinates": [ 13.7222131, 51.0335478 ] } },
{ "type": "Feature", "properties": { "osm_id": "262167155", "code": 2031, "fclass": "recycling_glass", "name": null, "Category": "Civic & Se", "Weight": 1.0 }, "geometry": { "type": "Point", "coordinates": [ 13.7293576, 51.076141 ] } },
{ "type": "Feature", "properties": { "osm_id": "262167156", "code": 2031, "fclass": "recycling_glass", "name": null, "Category": "Civic & Se", "Weight": 1.0 }, "geometry": { "type": "Point", "coordinates": [ 13.7276652, 51.0750513 ] } },
{ "type": "Feature", "properties": { "osm_id": "262414524", "code": 2907, "fclass": "camera_surveillance", "name": null, "Category": "Food & Dai", "Weight": 1.0 }, "geometry": { "type": "Point", "coordinates": [ 13.7366993, 51.0461326 ] } },
{ "type": "Feature", "properties": { "osm_id": "262414525", "code": 2907, "fclass": "camera_surveillance", "name": null, "Category": "Food & Dai", "Weight": 1.0 }, "geometry": { "type": "Point", "coordinates": [ 13.734912, 51.0424062 ] } },
{ "type": "Feature", "properties": { "osm_id": "262414526", "code": 2907, "fclass": "camera_surveillance", "name": null, "Category": "Food & Dai", "Weight": 1.0 }, "geometry": { "type": "Point", "coordinates": [ 13.7326389, 51.0406998 ] } },
{ "type": "Feature", "properties": { "osm_id": "262433888", "code": 2542, "fclass": "bicycle_shop", "name": "Fahrrad-Pietzsch", "Category": "Mobility", "Weight": 4.0 }, "geometry": { "type": "Point", "coordinates": [ 13.7055496, 51.0393119 ] } },
{ "type": "Feature", "properties": { "osm_id": "262545891", "code": 2907, "fclass": "camera_surveillance", "name": null, "Category": "Food & Dai", "Weight": 1.0 }, "geometry": { "type": "Point", "coordinates": [ 13.7421704, 51.0656938 ] } },
{ "type": "Feature", "properties": { "osm_id": "262545898", "code": 2907, "fclass": "camera_surveillance", "name": null, "Category": "Food & Dai", "Weight": 1.0 }, "geometry": { "type": "Point", "coordinates": [ 13.7411645, 51.0650516 ] } },
{ "type": "Feature", "properties": { "osm_id": "262545940", "code": 2907, "fclass": "camera_surveillance", "name": null, "Category": "Food & Dai", "Weight": 1.0 }, "geometry": { "type": "Point", "coordinates": [ 13.7311355, 51.0583857 ] } },
{ "type": "Feature", "properties": { "osm_id": "262545957", "code": 2907, "fclass": "camera_surveillance", "name": null, "Category": "Food & Dai", "Weight": 1.0 }, "geometry": { "type": "Point", "coordinates": [ 13.7332076, 51.0561862 ] } },
{ "type": "Feature", "properties": { "osm_id": "262545963", "code": 2907, "fclass": "camera_surveillance", "name": null, "Category": "Food & Dai", "Weight": 1.0 }, "geometry": { "type": "Point", "coordinates": [ 13.7336444, 51.0570582 ] } },
{ "type": "Feature", "properties": { "osm_id": "264468378", "code": 2302, "fclass": "fast_food", "name": "Mensologie", "Category": "Food & Dai", "Weight": 1.0 }, "geometry": { "type": "Point", "coordinates": [ 13.7843195, 51.052676 ] } },
{ "type": "Feature", "properties": { "osm_id": "264510804", "code": 2101, "fclass": "pharmacy", "name": "Apotheke am Ei", "Category": "Health", "Weight": 5.0 }, "geometry": { "type": "Point", "coordinates": [ 13.7220104, 51.0331572 ] } },
{ "type": "Feature", "properties": { "osm_id": "264510997", "code": 2101, "fclass": "pharmacy", "name": "Liebig-Apotheke", "Category": "Health", "Weight": 5.0 }, "geometry": { "type": "Point", "coordinates": [ 13.7217624, 51.0323392 ] } },
{ "type": "Feature", "properties": { "osm_id": "264590983", "code": 2004, "fclass": "post_box", "name": null, "Category": "Civic & Se", "Weight": 1.0 }, "geometry": { "type": "Point", "coordinates": [ 13.7132915, 51.0249385 ] } },
{ "type": "Feature", "properties": { "osm_id": "264695865", "code": 2301, "fclass": "restaurant", "name": "Ganesha", "Category": "Food & Dai", "Weight": 1.0 }, "geometry": { "type": "Point", "coordinates": [ 13.7216447, 51.0328209 ] } },
{ "type": "Feature", "properties": { "osm_id": "264696041", "code": 2301, "fclass": "restaurant", "name": "Campus Bar & Restaurant", "Category": "Food & Dai", "Weight": 1.0 }, "geometry": { "type": "Point", "coordinates": [ 13.724905, 51.0333689 ] } },
{ "type": "Feature", "properties": { "osm_id": "265070655", "code": 2004, "fclass": "post_box", "name": null, "Category": "Civic & Se", "Weight": 1.0 }, "geometry": { "type": "Point", "coordinates": [ 13.758642, 51.033497 ] } },
{ "type": "Feature", "properties": { "osm_id": "265073579", "code": 2907, "fclass": "camera_surveillance", "name": null, "Category": "Food & Dai", "Weight": 1.0 }, "geometry": { "type": "Point", "coordinates": [ 13.7581626, 51.032513 ] } },
{ "type": "Feature", "properties": { "osm_id": "265073584", "code": 2907, "fclass": "camera_surveillance", "name": null, "Category": "Food & Dai", "Weight": 1.0 }, "geometry": { "type": "Point", "coordinates": [ 13.7581078, 51.0324486 ] } },
{ "type": "Feature", "properties": { "osm_id": "265073590", "code": 2907, "fclass": "camera_surveillance", "name": null, "Category": "Food & Dai", "Weight": 1.0 }, "geometry": { "type": "Point", "coordinates": [ 13.7580402, 51.0321618 ] } },
{ "type": "Feature", "properties": { "osm_id": "265073614", "code": 2907, "fclass": "camera_surveillance", "name": null, "Category": "Food & Dai", "Weight": 1.0 }, "geometry": { "type": "Point", "coordinates": [ 13.758267, 51.032639 ] } },
{ "type": "Feature", "properties": { "osm_id": "265074009", "code": 2904, "fclass": "fountain", "name": null, "Category": "Recreation", "Weight": 2.0 }, "geometry": { "type": "Point", "coordinates": [ 13.7644475, 51.0331289 ] } },
{ "type": "Feature", "properties": { "osm_id": "265345434", "code": 2501, "fclass": "supermarket", "name": "Netto Marken-Discount", "Category": "Food & Dai", "Weight": 1.0 }, "geometry": { "type": "Point", "coordinates": [ 13.7486015, 51.0727791 ] } },
{ "type": "Feature", "properties": { "osm_id": "265489072", "code": 2305, "fclass": "bar", "name": "Blumenau", "Category": "Recreation", "Weight": 2.0 }, "geometry": { "type": "Point", "coordinates": [ 13.7557493, 51.0659654 ] } },
{ "type": "Feature", "properties": { "osm_id": "265489168", "code": 2303, "fclass": "cafe", "name": "Cafe Combo", "Category": "Food & Dai", "Weight": 1.0 }, "geometry": { "type": "Point", "coordinates": [ 13.75614, 51.065649 ] } },
{ "type": "Feature", "properties": { "osm_id": "265515442", "code": 2004, "fclass": "post_box", "name": null, "Category": "Civic & Se", "Weight": 1.0 }, "geometry": { "type": "Point", "coordinates": [ 13.7432792, 51.0230329 ] } },
{ "type": "Feature", "properties": { "osm_id": "266583896", "code": 2302, "fclass": "fast_food", "name": "Curry & Co", "Category": "Food & Dai", "Weight": 1.0 }, "geometry": { "type": "Point", "coordinates": [ 13.7557997, 51.0657731 ] } },
{ "type": "Feature", "properties": { "osm_id": "266593887", "code": 2205, "fclass": "playground", "name": "Würzburger Straße - Park", "Category": "Recreation", "Weight": 2.0 }, "geometry": { "type": "Point", "coordinates": [ 13.7151938, 51.0301 ] } },
{ "type": "Feature", "properties": { "osm_id": "266680791", "code": 2513, "fclass": "florist", "name": "Stielecht - Floristik & Wohnaccessoires", "Category": "Recreation", "Weight": 2.0 }, "geometry": { "type": "Point", "coordinates": [ 13.7065505, 51.0284217 ] } },
{ "type": "Feature", "properties": { "osm_id": "266684980", "code": 2301, "fclass": "restaurant", "name": "Pizzeria Trattoria La Contadina", "Category": "Food & Dai", "Weight": 1.0 }, "geometry": { "type": "Point", "coordinates": [ 13.701749, 51.0394002 ] } },
{ "type": "Feature", "properties": { "osm_id": "266687099", "code": 2902, "fclass": "bench", "name": null, "Category": "Recreation", "Weight": 2.0 }, "geometry": { "type": "Point", "coordinates": [ 13.7012297, 51.038406 ] } },
{ "type": "Feature", "properties": { "osm_id": "266830402", "code": 2004, "fclass": "post_box", "name": null, "Category": "Civic & Se", "Weight": 1.0 }, "geometry": { "type": "Point", "coordinates": [ 13.7501822, 51.0747835 ] } },
{ "type": "Feature", "properties": { "osm_id": "266830715", "code": 2031, "fclass": "recycling_glass", "name": null, "Category": "Civic & Se", "Weight": 1.0 }, "geometry": { "type": "Point", "coordinates": [ 13.7513544, 51.0744005 ] } },
{ "type": "Feature", "properties": { "osm_id": "266831224", "code": 2301, "fclass": "restaurant", "name": "Martinez", "Category": "Food & Dai", "Weight": 1.0 }, "geometry": { "type": "Point", "coordinates": [ 13.7491508, 51.074332 ] } },
{ "type": "Feature", "properties": { "osm_id": "266838930", "code": 2004, "fclass": "post_box", "name": null, "Category": "Civic & Se", "Weight": 1.0 }, "geometry": { "type": "Point", "coordinates": [ 13.7513686, 51.0769292 ] } },
{ "type": "Feature", "properties": { "osm_id": "266961205", "code": 2304, "fclass": "pub", "name": "Trotzdem", "Category": "Recreation", "Weight": 2.0 }, "geometry": { "type": "Point", "coordinates": [ 13.753835, 51.0693039 ] } },
{ "type": "Feature", "properties": { "osm_id": "266961344", "code": 2305, "fclass": "bar", "name": "Bar Holda", "Category": "Recreation", "Weight": 2.0 }, "geometry": { "type": "Point", "coordinates": [ 13.7564088, 51.0639842 ] } },
{ "type": "Feature", "properties": { "osm_id": "266961360", "code": 2304, "fclass": "pub", "name": "Little Creatures", "Category": "Recreation", "Weight": 2.0 }, "geometry": { "type": "Point", "coordinates": [ 13.7530193, 51.0666723 ] } },
{ "type": "Feature", "properties": { "osm_id": "266961476", "code": 2301, "fclass": "restaurant", "name": "eckstein", "Category": "Food & Dai", "Weight": 1.0 }, "geometry": { "type": "Point", "coordinates": [ 13.7516443, 51.067028 ] } },
{ "type": "Feature", "properties": { "osm_id": "266961904", "code": 2305, "fclass": "bar", "name": "Mybar 24", "Category": "Recreation", "Weight": 2.0 }, "geometry": { "type": "Point", "coordinates": [ 13.750926, 51.0663396 ] } },
{ "type": "Feature", "properties": { "osm_id": "266962027", "code": 2302, "fclass": "fast_food", "name": "Baboş Dönerpoint", "Category": "Food & Dai", "Weight": 1.0 }, "geometry": { "type": "Point", "coordinates": [ 13.7506849, 51.0660893 ] } },
{ "type": "Feature", "properties": { "osm_id": "266977420", "code": 2304, "fclass": "pub", "name": "Pawlow", "Category": "Recreation", "Weight": 2.0 }, "geometry": { "type": "Point", "coordinates": [ 13.7556036, 51.0688097 ] } },
{ "type": "Feature", "properties": { "osm_id": "266977481", "code": 2202, "fclass": "nightclub", "name": "GrooveStation", "Category": "Recreation", "Weight": 2.0 }, "geometry": { "type": "Point", "coordinates": [ 13.7496958, 51.066774 ] } },
{ "type": "Feature", "properties": { "osm_id": "266977483", "code": 2202, "fclass": "nightclub", "name": "Downtown", "Category": "Recreation", "Weight": 2.0 }, "geometry": { "type": "Point", "coordinates": [ 13.7497694, 51.0668131 ] } },
{ "type": "Feature", "properties": { "osm_id": "266977525", "code": 2305, "fclass": "bar", "name": "Mondfisch", "Category": "Recreation", "Weight": 2.0 }, "geometry": { "type": "Point", "coordinates": [ 13.7513592, 51.0671109 ] } },
{ "type": "Feature", "properties": { "osm_id": "266977833", "code": 2251, "fclass": "sports_centre", "name": "Bouldercity", "Category": "Recreation", "Weight": 2.0 }, "geometry": { "type": "Point", "coordinates": [ 13.7532088, 51.0696095 ] } },
{ "type": "Feature", "properties": { "osm_id": "266978834", "code": 2304, "fclass": "pub", "name": "Zapfanstalt", "Category": "Recreation", "Weight": 2.0 }, "geometry": { "type": "Point", "coordinates": [ 13.7556385, 51.0689366 ] } },
{ "type": "Feature", "properties": { "osm_id": "266978964", "code": 2304, "fclass": "pub", "name": "El Cubanito", "Category": "Recreation", "Weight": 2.0 }, "geometry": { "type": "Point", "coordinates": [ 13.7553363, 51.0688812 ] } },
{ "type": "Feature", "properties": { "osm_id": "266979033", "code": 2304, "fclass": "pub", "name": "Bautzner Tor", "Category": "Recreation", "Weight": 2.0 }, "geometry": { "type": "Point", "coordinates": [ 13.7517841, 51.0625604 ] } },
{ "type": "Feature", "properties": { "osm_id": "267093939", "code": 2031, "fclass": "recycling_glass", "name": null, "Category": "Civic & Se", "Weight": 1.0 }, "geometry": { "type": "Point", "coordinates": [ 13.6941387, 51.0509683 ] } },
{ "type": "Feature", "properties": { "osm_id": "267156125", "code": 2004, "fclass": "post_box", "name": null, "Category": "Civic & Se", "Weight": 1.0 }, "geometry": { "type": "Point", "coordinates": [ 13.7073835, 51.0291047 ] } },
{ "type": "Feature", "properties": { "osm_id": "267234945", "code": 2303, "fclass": "cafe", "name": "Lloyd's", "Category": "Food & Dai", "Weight": 1.0 }, "geometry": { "type": "Point", "coordinates": [ 13.755579, 51.0642286 ] } },
{ "type": "Feature", "properties": { "osm_id": "267241745", "code": 2907, "fclass": "camera_surveillance", "name": null, "Category": "Food & Dai", "Weight": 1.0 }, "geometry": { "type": "Point", "coordinates": [ 13.7316429, 51.0385759 ] } },
{ "type": "Feature", "properties": { "osm_id": "267241746", "code": 2907, "fclass": "camera_surveillance", "name": null, "Category": "Food & Dai", "Weight": 1.0 }, "geometry": { "type": "Point", "coordinates": [ 13.7316714, 51.0385899 ] } },
{ "type": "Feature", "properties": { "osm_id": "267241747", "code": 2907, "fclass": "camera_surveillance", "name": null, "Category": "Food & Dai", "Weight": 1.0 }, "geometry": { "type": "Point", "coordinates": [ 13.7319009, 51.0385529 ] } },
{ "type": "Feature", "properties": { "osm_id": "267241748", "code": 2907, "fclass": "camera_surveillance", "name": null, "Category": "Food & Dai", "Weight": 1.0 }, "geometry": { "type": "Point", "coordinates": [ 13.731928, 51.0385257 ] } },
{ "type": "Feature", "properties": { "osm_id": "267241750", "code": 2907, "fclass": "camera_surveillance", "name": null, "Category": "Food & Dai", "Weight": 1.0 }, "geometry": { "type": "Point", "coordinates": [ 13.7320118, 51.0384675 ] } },
{ "type": "Feature", "properties": { "osm_id": "267241751", "code": 2907, "fclass": "camera_surveillance", "name": null, "Category": "Food & Dai", "Weight": 1.0 }, "geometry": { "type": "Point", "coordinates": [ 13.732503, 51.0383745 ] } },
{ "type": "Feature", "properties": { "osm_id": "267241752", "code": 2907, "fclass": "camera_surveillance", "name": null, "Category": "Food & Dai", "Weight": 1.0 }, "geometry": { "type": "Point", "coordinates": [ 13.7326587, 51.0385048 ] } },
{ "type": "Feature", "properties": { "osm_id": "267241753", "code": 2907, "fclass": "camera_surveillance", "name": null, "Category": "Food & Dai", "Weight": 1.0 }, "geometry": { "type": "Point", "coordinates": [ 13.7497786, 51.0474756 ] } },
{ "type": "Feature", "properties": { "osm_id": "267241754", "code": 2907, "fclass": "camera_surveillance", "name": null, "Category": "Food & Dai", "Weight": 1.0 }, "geometry": { "type": "Point", "coordinates": [ 13.7437154, 51.0490476 ] } },
{ "type": "Feature", "properties": { "osm_id": "267241755", "code": 2907, "fclass": "camera_surveillance", "name": null, "Category": "Food & Dai", "Weight": 1.0 }, "geometry": { "type": "Point", "coordinates": [ 13.7437309, 51.0513543 ] } },
{ "type": "Feature", "properties": { "osm_id": "267241756", "code": 2907, "fclass": "camera_surveillance", "name": null, "Category": "Food & Dai", "Weight": 1.0 }, "geometry": { "type": "Point", "coordinates": [ 13.7330738, 51.0510365 ] } },
{ "type": "Feature", "properties": { "osm_id": "267241757", "code": 2907, "fclass": "camera_surveillance", "name": null, "Category": "Food & Dai", "Weight": 1.0 }, "geometry": { "type": "Point", "coordinates": [ 13.7329547, 51.0515046 ] } },
{ "type": "Feature", "properties": { "osm_id": "267241759", "code": 2907, "fclass": "camera_surveillance", "name": null, "Category": "Food & Dai", "Weight": 1.0 }, "geometry": { "type": "Point", "coordinates": [ 13.7321303, 51.0523791 ] } },
{ "type": "Feature", "properties": { "osm_id": "267241761", "code": 2907, "fclass": "camera_surveillance", "name": null, "Category": "Food & Dai", "Weight": 1.0 }, "geometry": { "type": "Point", "coordinates": [ 13.7322054, 51.0522944 ] } },
{ "type": "Feature", "properties": { "osm_id": "267241762", "code": 2907, "fclass": "camera_surveillance", "name": null, "Category": "Food & Dai", "Weight": 1.0 }, "geometry": { "type": "Point", "coordinates": [ 13.7319159, 51.0525141 ] } },
{ "type": "Feature", "properties": { "osm_id": "267241763", "code": 2907, "fclass": "camera_surveillance", "name": null, "Category": "Food & Dai", "Weight": 1.0 }, "geometry": { "type": "Point", "coordinates": [ 13.739879, 51.0660246 ] } },
{ "type": "Feature", "properties": { "osm_id": "267250875", "code": 2001, "fclass": "police", "name": "Bundespolizeiinspektion Dresden", "Category": "Civic & Se", "Weight": 1.0 }, "geometry": { "type": "Point", "coordinates": [ 13.723193, 51.0414532 ] } },
{ "type": "Feature", "properties": { "osm_id": "267629493", "code": 2302, "fclass": "fast_food", "name": "Domino's", "Category": "Food & Dai", "Weight": 1.0 }, "geometry": { "type": "Point", "coordinates": [ 13.72184, 51.0348968 ] } },
{ "type": "Feature", "properties": { "osm_id": "267665126", "code": 2004, "fclass": "post_box", "name": null, "Category": "Civic & Se", "Weight": 1.0 }, "geometry": { "type": "Point", "coordinates": [ 13.7496689, 51.0475136 ] } },
{ "type": "Feature", "properties": { "osm_id": "267949057", "code": 2725, "fclass": "artwork", "name": "Bogenschütze", "Category": "Recreation", "Weight": 2.0 }, "geometry": { "type": "Point", "coordinates": [ 13.7517507, 51.0573686 ] } },
{ "type": "Feature", "properties": { "osm_id": "267952414", "code": 2304, "fclass": "pub", "name": "Terrasse am Bischofsplatz", "Category": "Recreation", "Weight": 2.0 }, "geometry": { "type": "Point", "coordinates": [ 13.74804, 51.0719729 ] } },
{ "type": "Feature", "properties": { "osm_id": "267962310", "code": 2004, "fclass": "post_box", "name": null, "Category": "Civic & Se", "Weight": 1.0 }, "geometry": { "type": "Point", "coordinates": [ 13.7523151, 51.0616211 ] } },
{ "type": "Feature", "properties": { "osm_id": "267962860", "code": 2301, "fclass": "restaurant", "name": "Big Moon", "Category": "Food & Dai", "Weight": 1.0 }, "geometry": { "type": "Point", "coordinates": [ 13.7540345, 51.0621668 ] } },
{ "type": "Feature", "properties": { "osm_id": "267966087", "code": 2305, "fclass": "bar", "name": "Bärenzwinger", "Category": "Recreation", "Weight": 2.0 }, "geometry": { "type": "Point", "coordinates": [ 13.7451854, 51.0524493 ] } },
{ "type": "Feature", "properties": { "osm_id": "268493046", "code": 2004, "fclass": "post_box", "name": null, "Category": "Civic & Se", "Weight": 1.0 }, "geometry": { "type": "Point", "coordinates": [ 13.74337, 51.048981 ] } },
{ "type": "Feature", "properties": { "osm_id": "268493460", "code": 2004, "fclass": "post_box", "name": null, "Category": "Civic & Se", "Weight": 1.0 }, "geometry": { "type": "Point", "coordinates": [ 13.7885088, 51.0431719 ] } },
{ "type": "Feature", "properties": { "osm_id": "268593795", "code": 2004, "fclass": "post_box", "name": null, "Category": "Civic & Se", "Weight": 1.0 }, "geometry": { "type": "Point", "coordinates": [ 13.7629305, 51.0848734 ] } },
{ "type": "Feature", "properties": { "osm_id": "269446086", "code": 2031, "fclass": "recycling_glass", "name": null, "Category": "Civic & Se", "Weight": 1.0 }, "geometry": { "type": "Point", "coordinates": [ 13.7158664, 51.0339797 ] } },
{ "type": "Feature", "properties": { "osm_id": "269518113", "code": 2601, "fclass": "bank", "name": "Sparkasse", "Category": "Mobility", "Weight": 4.0 }, "geometry": { "type": "Point", "coordinates": [ 13.7084665, 51.0290949 ] } },
{ "type": "Feature", "properties": { "osm_id": "269593658", "code": 2401, "fclass": "hotel", "name": "Achat Hotel Dresden", "Category": "Recreation", "Weight": 2.0 }, "geometry": { "type": "Point", "coordinates": [ 13.7184624, 51.0398321 ] } },
{ "type": "Feature", "properties": { "osm_id": "269669300", "code": 2004, "fclass": "post_box", "name": null, "Category": "Civic & Se", "Weight": 1.0 }, "geometry": { "type": "Point", "coordinates": [ 13.7907103, 51.0478969 ] } },
{ "type": "Feature", "properties": { "osm_id": "269680881", "code": 2031, "fclass": "recycling_glass", "name": null, "Category": "Civic & Se", "Weight": 1.0 }, "geometry": { "type": "Point", "coordinates": [ 13.7832789, 51.0436332 ] } },
{ "type": "Feature", "properties": { "osm_id": "270332599", "code": 2401, "fclass": "hotel", "name": "Dormero Hotel Königshof", "Category": "Recreation", "Weight": 2.0 }, "geometry": { "type": "Point", "coordinates": [ 13.7602306, 51.0277404 ] } },
{ "type": "Feature", "properties": { "osm_id": "270511915", "code": 2004, "fclass": "post_box", "name": null, "Category": "Civic & Se", "Weight": 1.0 }, "geometry": { "type": "Point", "coordinates": [ 13.7408157, 51.0403032 ] } },
{ "type": "Feature", "properties": { "osm_id": "270582577", "code": 2304, "fclass": "pub", "name": "HD - Die Rock& Metalbar", "Category": "Recreation", "Weight": 2.0 }, "geometry": { "type": "Point", "coordinates": [ 13.7509754, 51.0670419 ] } },
{ "type": "Feature", "properties": { "osm_id": "271239138", "code": 2004, "fclass": "post_box", "name": null, "Category": "Civic & Se", "Weight": 1.0 }, "geometry": { "type": "Point", "coordinates": [ 13.7457168, 51.057758 ] } },
{ "type": "Feature", "properties": { "osm_id": "271301469", "code": 2201, "fclass": "theatre", "name": "Dresdner Brettl", "Category": "Recreation", "Weight": 2.0 }, "geometry": { "type": "Point", "coordinates": [ 13.7380935, 51.0546215 ] } },
{ "type": "Feature", "properties": { "osm_id": "271301475", "code": 2301, "fclass": "restaurant", "name": "Brasserie Bateau", "Category": "Food & Dai", "Weight": 1.0 }, "geometry": { "type": "Point", "coordinates": [ 13.7379655, 51.0546768 ] } },
{ "type": "Feature", "properties": { "osm_id": "271331312", "code": 2302, "fclass": "fast_food", "name": "Cotta Kebap Haus", "Category": "Food & Dai", "Weight": 1.0 }, "geometry": { "type": "Point", "coordinates": [ 13.6876301, 51.0568147 ] } },
{ "type": "Feature", "properties": { "osm_id": "271349762", "code": 2601, "fclass": "bank", "name": "Sparkasse", "Category": "Mobility", "Weight": 4.0 }, "geometry": { "type": "Point", "coordinates": [ 13.7425659, 51.0232655 ] } },
{ "type": "Feature", "properties": { "osm_id": "271423036", "code": 2004, "fclass": "post_box", "name": null, "Category": "Civic & Se", "Weight": 1.0 }, "geometry": { "type": "Point", "coordinates": [ 13.7426954, 51.0231629 ] } },
{ "type": "Feature", "properties": { "osm_id": "271458320", "code": 2601, "fclass": "bank", "name": "Ostsächsische Sparkasse Dresden", "Category": "Mobility", "Weight": 4.0 }, "geometry": { "type": "Point", "coordinates": [ 13.7020136, 51.0439105 ] } },
{ "type": "Feature", "properties": { "osm_id": "271785220", "code": 2305, "fclass": "bar", "name": "SonderBar", "Category": "Recreation", "Weight": 2.0 }, "geometry": { "type": "Point", "coordinates": [ 13.7131526, 51.0313114 ] } },
{ "type": "Feature", "properties": { "osm_id": "272061488", "code": 2004, "fclass": "post_box", "name": null, "Category": "Civic & Se", "Weight": 1.0 }, "geometry": { "type": "Point", "coordinates": [ 13.7530641, 51.0243095 ] } },
{ "type": "Feature", "properties": { "osm_id": "274102259", "code": 2004, "fclass": "post_box", "name": null, "Category": "Civic & Se", "Weight": 1.0 }, "geometry": { "type": "Point", "coordinates": [ 13.7069689, 51.0309652 ] } },
{ "type": "Feature", "properties": { "osm_id": "274103777", "code": 2302, "fclass": "fast_food", "name": "Dersim", "Category": "Food & Dai", "Weight": 1.0 }, "geometry": { "type": "Point", "coordinates": [ 13.7239222, 51.0305296 ] } },
{ "type": "Feature", "properties": { "osm_id": "274970363", "code": 2205, "fclass": "playground", "name": null, "Category": "Recreation", "Weight": 2.0 }, "geometry": { "type": "Point", "coordinates": [ 13.7199679, 51.0342314 ] } },
{ "type": "Feature", "properties": { "osm_id": "275724142", "code": 2004, "fclass": "post_box", "name": null, "Category": "Civic & Se", "Weight": 1.0 }, "geometry": { "type": "Point", "coordinates": [ 13.7212891, 51.0388707 ] } },
{ "type": "Feature", "properties": { "osm_id": "276148371", "code": 2004, "fclass": "post_box", "name": null, "Category": "Civic & Se", "Weight": 1.0 }, "geometry": { "type": "Point", "coordinates": [ 13.6869839, 51.0566366 ] } },
{ "type": "Feature", "properties": { "osm_id": "276232124", "code": 2031, "fclass": "recycling_glass", "name": null, "Category": "Civic & Se", "Weight": 1.0 }, "geometry": { "type": "Point", "coordinates": [ 13.7215927, 51.0866878 ] } },
{ "type": "Feature", "properties": { "osm_id": "276469327", "code": 2031, "fclass": "recycling_glass", "name": null, "Category": "Civic & Se", "Weight": 1.0 }, "geometry": { "type": "Point", "coordinates": [ 13.7273842, 51.0259289 ] } },
{ "type": "Feature", "properties": { "osm_id": "276530415", "code": 2901, "fclass": "toilet", "name": null, "Category": "Recreation", "Weight": 2.0 }, "geometry": { "type": "Point", "coordinates": [ 13.7389721, 51.053937 ] } },
{ "type": "Feature", "properties": { "osm_id": "276591438", "code": 2304, "fclass": "pub", "name": "Reck's", "Category": "Recreation", "Weight": 2.0 }, "geometry": { "type": "Point", "coordinates": [ 13.7058873, 51.0288852 ] } },
{ "type": "Feature", "properties": { "osm_id": "276744729", "code": 2004, "fclass": "post_box", "name": null, "Category": "Civic & Se", "Weight": 1.0 }, "geometry": { "type": "Point", "coordinates": [ 13.7148753, 51.0277943 ] } },
{ "type": "Feature", "properties": { "osm_id": "276815658", "code": 2031, "fclass": "recycling_glass", "name": null, "Category": "Civic & Se", "Weight": 1.0 }, "geometry": { "type": "Point", "coordinates": [ 13.6983894, 51.0773256 ] } },
{ "type": "Feature", "properties": { "osm_id": "276869833", "code": 2031, "fclass": "recycling_glass", "name": null, "Category": "Civic & Se", "Weight": 1.0 }, "geometry": { "type": "Point", "coordinates": [ 13.7193784, 51.0879742 ] } },
{ "type": "Feature", "properties": { "osm_id": "277692445", "code": 2004, "fclass": "post_box", "name": null, "Category": "Civic & Se", "Weight": 1.0 }, "geometry": { "type": "Point", "coordinates": [ 13.7213397, 51.0493465 ] } },
{ "type": "Feature", "properties": { "osm_id": "277692451", "code": 2401, "fclass": "hotel", "name": "Elbflorenz", "Category": "Recreation", "Weight": 2.0 }, "geometry": { "type": "Point", "coordinates": [ 13.7222619, 51.0478767 ] } },
{ "type": "Feature", "properties": { "osm_id": "277731655", "code": 2501, "fclass": "supermarket", "name": "Konsum", "Category": "Food & Dai", "Weight": 1.0 }, "geometry": { "type": "Point", "coordinates": [ 13.7652586, 51.0565724 ] } },
{ "type": "Feature", "properties": { "osm_id": "277733856", "code": 2031, "fclass": "recycling_glass", "name": null, "Category": "Civic & Se", "Weight": 1.0 }, "geometry": { "type": "Point", "coordinates": [ 13.7591134, 51.0252512 ] } },
{ "type": "Feature", "properties": { "osm_id": "278286026", "code": 2405, "fclass": "hostel", "name": "Louise 20", "Category": "Recreation", "Weight": 2.0 }, "geometry": { "type": "Point", "coordinates": [ 13.7499476, 51.0670462 ] } },
{ "type": "Feature", "properties": { "osm_id": "278370169", "code": 2004, "fclass": "post_box", "name": null, "Category": "Civic & Se", "Weight": 1.0 }, "geometry": { "type": "Point", "coordinates": [ 13.7337349, 51.0750763 ] } },
{ "type": "Feature", "properties": { "osm_id": "278577998", "code": 2401, "fclass": "hotel", "name": "Best Western Macrander Hotel", "Category": "Recreation", "Weight": 2.0 }, "geometry": { "type": "Point", "coordinates": [ 13.7507914, 51.0773812 ] } },
{ "type": "Feature", "properties": { "osm_id": "278577999", "code": 2601, "fclass": "bank", "name": "Sparkasse", "Category": "Mobility", "Weight": 4.0 }, "geometry": { "type": "Point", "coordinates": [ 13.7473665, 51.066412 ] } },
{ "type": "Feature", "properties": { "osm_id": "278579235", "code": 2004, "fclass": "post_box", "name": null, "Category": "Civic & Se", "Weight": 1.0 }, "geometry": { "type": "Point", "coordinates": [ 13.7478468, 51.0719771 ] } },
{ "type": "Feature", "properties": { "osm_id": "278585728", "code": 2502, "fclass": "bakery", "name": "Fladenbrotbäckerei Rodi", "Category": "Food & Dai", "Weight": 1.0 }, "geometry": { "type": "Point", "coordinates": [ 13.7454672, 51.0678304 ] } },
{ "type": "Feature", "properties": { "osm_id": "278824933", "code": 2907, "fclass": "camera_surveillance", "name": null, "Category": "Food & Dai", "Weight": 1.0 }, "geometry": { "type": "Point", "coordinates": [ 13.7358483, 51.0446966 ] } },
{ "type": "Feature", "properties": { "osm_id": "278826134", "code": 2907, "fclass": "camera_surveillance", "name": null, "Category": "Food & Dai", "Weight": 1.0 }, "geometry": { "type": "Point", "coordinates": [ 13.7045631, 51.0506591 ] } },
{ "type": "Feature", "properties": { "osm_id": "278854183", "code": 2004, "fclass": "post_box", "name": null, "Category": "Civic & Se", "Weight": 1.0 }, "geometry": { "type": "Point", "coordinates": [ 13.7009039, 51.0423182 ] } },
{ "type": "Feature", "properties": { "osm_id": "279026867", "code": 2724, "fclass": "memorial", "name": "Gefallenendenkmal 1. Weltkrieg", "Category": "Recreation", "Weight": 2.0 }, "geometry": { "type": "Point", "coordinates": [ 13.7867509, 51.0319635 ] } },
{ "type": "Feature", "properties": { "osm_id": "279588494", "code": 2301, "fclass": "restaurant", "name": "Villandry", "Category": "Food & Dai", "Weight": 1.0 }, "geometry": { "type": "Point", "coordinates": [ 13.7495538, 51.0685808 ] } },
{ "type": "Feature", "properties": { "osm_id": "279591163", "code": 2301, "fclass": "restaurant", "name": "La Viletta", "Category": "Food & Dai", "Weight": 1.0 }, "geometry": { "type": "Point", "coordinates": [ 13.7888541, 51.0494337 ] } },
{ "type": "Feature", "properties": { "osm_id": "279591880", "code": 2031, "fclass": "recycling_glass", "name": null, "Category": "Civic & Se", "Weight": 1.0 }, "geometry": { "type": "Point", "coordinates": [ 13.759277, 51.0692622 ] } },
{ "type": "Feature", "properties": { "osm_id": "279592546", "code": 2031, "fclass": "recycling_glass", "name": null, "Category": "Civic & Se", "Weight": 1.0 }, "geometry": { "type": "Point", "coordinates": [ 13.7554824, 51.0627989 ] } },
{ "type": "Feature", "properties": { "osm_id": "279990211", "code": 2031, "fclass": "recycling_glass", "name": null, "Category": "Civic & Se", "Weight": 1.0 }, "geometry": { "type": "Point", "coordinates": [ 13.7833148, 51.0474963 ] } },
{ "type": "Feature", "properties": { "osm_id": "280009682", "code": 2031, "fclass": "recycling_glass", "name": null, "Category": "Civic & Se", "Weight": 1.0 }, "geometry": { "type": "Point", "coordinates": [ 13.7624823, 51.0507167 ] } },
{ "type": "Feature", "properties": { "osm_id": "280226838", "code": 2601, "fclass": "bank", "name": "Sparda-Bank Berlin", "Category": "Mobility", "Weight": 4.0 }, "geometry": { "type": "Point", "coordinates": [ 13.7366727, 51.0467048 ] } },
{ "type": "Feature", "properties": { "osm_id": "280462694", "code": 2205, "fclass": "playground", "name": null, "Category": "Recreation", "Weight": 2.0 }, "geometry": { "type": "Point", "coordinates": [ 13.7676476, 51.0463373 ] } },
{ "type": "Feature", "properties": { "osm_id": "280543198", "code": 2907, "fclass": "camera_surveillance", "name": null, "Category": "Food & Dai", "Weight": 1.0 }, "geometry": { "type": "Point", "coordinates": [ 13.738092, 51.0465424 ] } },
{ "type": "Feature", "properties": { "osm_id": "280546299", "code": 2304, "fclass": "pub", "name": "Zur Schmiede", "Category": "Recreation", "Weight": 2.0 }, "geometry": { "type": "Point", "coordinates": [ 13.746566, 51.0733014 ] } },
{ "type": "Feature", "properties": { "osm_id": "280853486", "code": 2519, "fclass": "optician", "name": "Kinderoptik & Optik Dunkel", "Category": "Recreation", "Weight": 2.0 }, "geometry": { "type": "Point", "coordinates": [ 13.7759324, 51.0454636 ] } },
{ "type": "Feature", "properties": { "osm_id": "280854688", "code": 2302, "fclass": "fast_food", "name": "Bistro Borsberg", "Category": "Food & Dai", "Weight": 1.0 }, "geometry": { "type": "Point", "coordinates": [ 13.7775523, 51.044575 ] } },
{ "type": "Feature", "properties": { "osm_id": "280854692", "code": 2101, "fclass": "pharmacy", "name": "Knut Apotheke", "Category": "Health", "Weight": 5.0 }, "geometry": { "type": "Point", "coordinates": [ 13.7781094, 51.0444026 ] } },
{ "type": "Feature", "properties": { "osm_id": "280854693", "code": 2302, "fclass": "fast_food", "name": "Fleischerei Grohmann", "Category": "Food & Dai", "Weight": 1.0 }, "geometry": { "type": "Point", "coordinates": [ 13.7783637, 51.0443413 ] } },
{ "type": "Feature", "properties": { "osm_id": "280854693", "code": 2516, "fclass": "butcher", "name": "Fleischerei Grohmann", "Category": "Food & Dai", "Weight": 1.0 }, "geometry": { "type": "Point", "coordinates": [ 13.7783637, 51.0443413 ] } },
{ "type": "Feature", "properties": { "osm_id": "280861038", "code": 2004, "fclass": "post_box", "name": null, "Category": "Civic & Se", "Weight": 1.0 }, "geometry": { "type": "Point", "coordinates": [ 13.75751, 51.0467211 ] } },
{ "type": "Feature", "properties": { "osm_id": "280861081", "code": 2004, "fclass": "post_box", "name": null, "Category": "Civic & Se", "Weight": 1.0 }, "geometry": { "type": "Point", "coordinates": [ 13.7672469, 51.0497351 ] } },
{ "type": "Feature", "properties": { "osm_id": "281089659", "code": 2502, "fclass": "bakery", "name": "Bäckerei Krause", "Category": "Food & Dai", "Weight": 1.0 }, "geometry": { "type": "Point", "coordinates": [ 13.7748128, 51.0439028 ] } },
{ "type": "Feature", "properties": { "osm_id": "281105727", "code": 2401, "fclass": "hotel", "name": "Dorint", "Category": "Recreation", "Weight": 2.0 }, "geometry": { "type": "Point", "coordinates": [ 13.7498212, 51.0473787 ] } },
{ "type": "Feature", "properties": { "osm_id": "281105730", "code": 2101, "fclass": "pharmacy", "name": "Apotheke im World Trade Center", "Category": "Health", "Weight": 5.0 }, "geometry": { "type": "Point", "coordinates": [ 13.7215192, 51.0493609 ] } },
{ "type": "Feature", "properties": { "osm_id": "281105734", "code": 2501, "fclass": "supermarket", "name": "Netto", "Category": "Food & Dai", "Weight": 1.0 }, "geometry": { "type": "Point", "coordinates": [ 13.7217918, 51.0490753 ] } },
{ "type": "Feature", "properties": { "osm_id": "281169558", "code": 2301, "fclass": "restaurant", "name": "Brauhaus am Waldschlösschen", "Category": "Food & Dai", "Weight": 1.0 }, "geometry": { "type": "Point", "coordinates": [ 13.7780648, 51.0679023 ] } },
{ "type": "Feature", "properties": { "osm_id": "281169572", "code": 2501, "fclass": "supermarket", "name": "Konsum", "Category": "Food & Dai", "Weight": 1.0 }, "geometry": { "type": "Point", "coordinates": [ 13.7768851, 51.0679008 ] } },
{ "type": "Feature", "properties": { "osm_id": "281169827", "code": 2501, "fclass": "supermarket", "name": "Netto Marken-Discount", "Category": "Food & Dai", "Weight": 1.0 }, "geometry": { "type": "Point", "coordinates": [ 13.7874635, 51.0703775 ] } },
{ "type": "Feature", "properties": { "osm_id": "281407536", "code": 2004, "fclass": "post_box", "name": null, "Category": "Civic & Se", "Weight": 1.0 }, "geometry": { "type": "Point", "coordinates": [ 13.7573608, 51.0258064 ] } },
{ "type": "Feature", "properties": { "osm_id": "281422658", "code": 2542, "fclass": "bicycle_shop", "name": "Müller's Fahrradladen", "Category": "Mobility", "Weight": 4.0 }, "geometry": { "type": "Point", "coordinates": [ 13.7635465, 51.0270834 ] } },
{ "type": "Feature", "properties": { "osm_id": "281484448", "code": 2904, "fclass": "fountain", "name": null, "Category": "Recreation", "Weight": 2.0 }, "geometry": { "type": "Point", "coordinates": [ 13.7446225, 51.0439642 ] } },
{ "type": "Feature", "properties": { "osm_id": "281484451", "code": 2907, "fclass": "camera_surveillance", "name": null, "Category": "Food & Dai", "Weight": 1.0 }, "geometry": { "type": "Point", "coordinates": [ 13.736071, 51.0482201 ] } },
{ "type": "Feature", "properties": { "osm_id": "281484452", "code": 2907, "fclass": "camera_surveillance", "name": null, "Category": "Food & Dai", "Weight": 1.0 }, "geometry": { "type": "Point", "coordinates": [ 13.7359726, 51.0485074 ] } },
{ "type": "Feature", "properties": { "osm_id": "281484462", "code": 2907, "fclass": "camera_surveillance", "name": null, "Category": "Food & Dai", "Weight": 1.0 }, "geometry": { "type": "Point", "coordinates": [ 13.7359708, 51.0488593 ] } },
{ "type": "Feature", "properties": { "osm_id": "281484463", "code": 2907, "fclass": "camera_surveillance", "name": null, "Category": "Food & Dai", "Weight": 1.0 }, "geometry": { "type": "Point", "coordinates": [ 13.736004, 51.049127 ] } },
{ "type": "Feature", "properties": { "osm_id": "281484464", "code": 2907, "fclass": "camera_surveillance", "name": null, "Category": "Food & Dai", "Weight": 1.0 }, "geometry": { "type": "Point", "coordinates": [ 13.7362499, 51.0492403 ] } },
{ "type": "Feature", "properties": { "osm_id": "281484466", "code": 2907, "fclass": "camera_surveillance", "name": null, "Category": "Food & Dai", "Weight": 1.0 }, "geometry": { "type": "Point", "coordinates": [ 13.7350403, 51.0499676 ] } },
{ "type": "Feature", "properties": { "osm_id": "281509652", "code": 2904, "fclass": "fountain", "name": null, "Category": "Recreation", "Weight": 2.0 }, "geometry": { "type": "Point", "coordinates": [ 13.7645765, 51.0371646 ] } },
{ "type": "Feature", "properties": { "osm_id": "281538002", "code": 2907, "fclass": "camera_surveillance", "name": null, "Category": "Food & Dai", "Weight": 1.0 }, "geometry": { "type": "Point", "coordinates": [ 13.7392997, 51.0504068 ] } },
{ "type": "Feature", "properties": { "osm_id": "281538004", "code": 2907, "fclass": "camera_surveillance", "name": null, "Category": "Food & Dai", "Weight": 1.0 }, "geometry": { "type": "Point", "coordinates": [ 13.7413297, 51.0511087 ] } },
{ "type": "Feature", "properties": { "osm_id": "281538006", "code": 2907, "fclass": "camera_surveillance", "name": null, "Category": "Food & Dai", "Weight": 1.0 }, "geometry": { "type": "Point", "coordinates": [ 13.7419277, 51.0516379 ] } },
{ "type": "Feature", "properties": { "osm_id": "281538008", "code": 2907, "fclass": "camera_surveillance", "name": null, "Category": "Food & Dai", "Weight": 1.0 }, "geometry": { "type": "Point", "coordinates": [ 13.7420571, 51.051617 ] } },
{ "type": "Feature", "properties": { "osm_id": "281538014", "code": 2907, "fclass": "camera_surveillance", "name": null, "Category": "Food & Dai", "Weight": 1.0 }, "geometry": { "type": "Point", "coordinates": [ 13.7426495, 51.0520011 ] } },
{ "type": "Feature", "properties": { "osm_id": "281545615", "code": 2907, "fclass": "camera_surveillance", "name": null, "Category": "Food & Dai", "Weight": 1.0 }, "geometry": { "type": "Point", "coordinates": [ 13.7417307, 51.0524656 ] } },
{ "type": "Feature", "properties": { "osm_id": "281545618", "code": 2907, "fclass": "camera_surveillance", "name": null, "Category": "Food & Dai", "Weight": 1.0 }, "geometry": { "type": "Point", "coordinates": [ 13.7399171, 51.0527653 ] } },
{ "type": "Feature", "properties": { "osm_id": "281545621", "code": 2907, "fclass": "camera_surveillance", "name": null, "Category": "Food & Dai", "Weight": 1.0 }, "geometry": { "type": "Point", "coordinates": [ 13.7396129, 51.052457 ] } },
{ "type": "Feature", "properties": { "osm_id": "281545628", "code": 2907, "fclass": "camera_surveillance", "name": null, "Category": "Food & Dai", "Weight": 1.0 }, "geometry": { "type": "Point", "coordinates": [ 13.7406096, 51.0523459 ] } },
{ "type": "Feature", "properties": { "osm_id": "281545638", "code": 2031, "fclass": "recycling_glass", "name": null, "Category": "Civic & Se", "Weight": 1.0 }, "geometry": { "type": "Point", "coordinates": [ 13.7549559, 51.0290904 ] } },
{ "type": "Feature", "properties": { "osm_id": "281602175", "code": 2542, "fclass": "bicycle_shop", "name": "Selbsthilfewerkstatt Radschlag", "Category": "Mobility", "Weight": 4.0 }, "geometry": { "type": "Point", "coordinates": [ 13.7494446, 51.0665315 ] } },
{ "type": "Feature", "properties": { "osm_id": "281903248", "code": 2542, "fclass": "bicycle_shop", "name": "GS Velo", "Category": "Mobility", "Weight": 4.0 }, "geometry": { "type": "Point", "coordinates": [ 13.7717216, 51.0470821 ] } },
{ "type": "Feature", "properties": { "osm_id": "281903252", "code": 2542, "fclass": "bicycle_shop", "name": "Bike Center", "Category": "Mobility", "Weight": 4.0 }, "geometry": { "type": "Point", "coordinates": [ 13.7522407, 51.0610481 ] } },
{ "type": "Feature", "properties": { "osm_id": "281903254", "code": 2542, "fclass": "bicycle_shop", "name": "Bike24 Service Point Dresden", "Category": "Mobility", "Weight": 4.0 }, "geometry": { "type": "Point", "coordinates": [ 13.7018206, 51.0436305 ] } },
{ "type": "Feature", "properties": { "osm_id": "282332471", "code": 2303, "fclass": "cafe", "name": "Neumann's Tiki", "Category": "Food & Dai", "Weight": 1.0 }, "geometry": { "type": "Point", "coordinates": [ 13.7544808, 51.0676084 ] } },
{ "type": "Feature", "properties": { "osm_id": "282841426", "code": 2031, "fclass": "recycling_glass", "name": null, "Category": "Civic & Se", "Weight": 1.0 }, "geometry": { "type": "Point", "coordinates": [ 13.7585222, 51.0712612 ] } },
{ "type": "Feature", "properties": { "osm_id": "282841434", "code": 2031, "fclass": "recycling_glass", "name": null, "Category": "Civic & Se", "Weight": 1.0 }, "geometry": { "type": "Point", "coordinates": [ 13.7585781, 51.0661089 ] } },
{ "type": "Feature", "properties": { "osm_id": "282841525", "code": 2301, "fclass": "restaurant", "name": "Jaipur", "Category": "Food & Dai", "Weight": 1.0 }, "geometry": { "type": "Point", "coordinates": [ 13.7547725, 51.066215 ] } },
{ "type": "Feature", "properties": { "osm_id": "282990016", "code": 2031, "fclass": "recycling_glass", "name": null, "Category": "Civic & Se", "Weight": 1.0 }, "geometry": { "type": "Point", "coordinates": [ 13.742259, 51.07169 ] } },
{ "type": "Feature", "properties": { "osm_id": "283058434", "code": 2004, "fclass": "post_box", "name": null, "Category": "Civic & Se", "Weight": 1.0 }, "geometry": { "type": "Point", "coordinates": [ 13.7252202, 51.0770887 ] } },
{ "type": "Feature", "properties": { "osm_id": "283321682", "code": 2031, "fclass": "recycling_glass", "name": null, "Category": "Civic & Se", "Weight": 1.0 }, "geometry": { "type": "Point", "coordinates": [ 13.7328806, 51.0751066 ] } },
{ "type": "Feature", "properties": { "osm_id": "283331200", "code": 2907, "fclass": "camera_surveillance", "name": null, "Category": "Food & Dai", "Weight": 1.0 }, "geometry": { "type": "Point", "coordinates": [ 13.7281891, 51.0296862 ] } },
{ "type": "Feature", "properties": { "osm_id": "283331201", "code": 2907, "fclass": "camera_surveillance", "name": null, "Category": "Food & Dai", "Weight": 1.0 }, "geometry": { "type": "Point", "coordinates": [ 13.730486, 51.0380627 ] } },
{ "type": "Feature", "properties": { "osm_id": "283331202", "code": 2907, "fclass": "camera_surveillance", "name": null, "Category": "Food & Dai", "Weight": 1.0 }, "geometry": { "type": "Point", "coordinates": [ 13.7298071, 51.0380011 ] } },
{ "type": "Feature", "properties": { "osm_id": "283331204", "code": 2907, "fclass": "camera_surveillance", "name": null, "Category": "Food & Dai", "Weight": 1.0 }, "geometry": { "type": "Point", "coordinates": [ 13.7310168, 51.0386719 ] } },
{ "type": "Feature", "properties": { "osm_id": "283331206", "code": 2907, "fclass": "camera_surveillance", "name": null, "Category": "Food & Dai", "Weight": 1.0 }, "geometry": { "type": "Point", "coordinates": [ 13.7309466, 51.038701 ] } },
{ "type": "Feature", "properties": { "osm_id": "283331211", "code": 2907, "fclass": "camera_surveillance", "name": null, "Category": "Food & Dai", "Weight": 1.0 }, "geometry": { "type": "Point", "coordinates": [ 13.731889, 51.0390648 ] } },
{ "type": "Feature", "properties": { "osm_id": "283331214", "code": 2907, "fclass": "camera_surveillance", "name": null, "Category": "Food & Dai", "Weight": 1.0 }, "geometry": { "type": "Point", "coordinates": [ 13.731934, 51.0391309 ] } },
{ "type": "Feature", "properties": { "osm_id": "283331216", "code": 2907, "fclass": "camera_surveillance", "name": null, "Category": "Food & Dai", "Weight": 1.0 }, "geometry": { "type": "Point", "coordinates": [ 13.7388597, 51.058434 ] } },
{ "type": "Feature", "properties": { "osm_id": "283331218", "code": 2907, "fclass": "camera_surveillance", "name": null, "Category": "Food & Dai", "Weight": 1.0 }, "geometry": { "type": "Point", "coordinates": [ 13.7383768, 51.0588993 ] } },
{ "type": "Feature", "properties": { "osm_id": "283331221", "code": 2907, "fclass": "camera_surveillance", "name": null, "Category": "Food & Dai", "Weight": 1.0 }, "geometry": { "type": "Point", "coordinates": [ 13.7386595, 51.0588843 ] } },
{ "type": "Feature", "properties": { "osm_id": "283331223", "code": 2907, "fclass": "camera_surveillance", "name": null, "Category": "Food & Dai", "Weight": 1.0 }, "geometry": { "type": "Point", "coordinates": [ 13.7401025, 51.0574217 ] } },
{ "type": "Feature", "properties": { "osm_id": "283331227", "code": 2907, "fclass": "camera_surveillance", "name": null, "Category": "Food & Dai", "Weight": 1.0 }, "geometry": { "type": "Point", "coordinates": [ 13.7397649, 51.0575413 ] } },
{ "type": "Feature", "properties": { "osm_id": "283331231", "code": 2907, "fclass": "camera_surveillance", "name": null, "Category": "Food & Dai", "Weight": 1.0 }, "geometry": { "type": "Point", "coordinates": [ 13.7402494, 51.0573693 ] } },
{ "type": "Feature", "properties": { "osm_id": "283331235", "code": 2907, "fclass": "camera_surveillance", "name": null, "Category": "Food & Dai", "Weight": 1.0 }, "geometry": { "type": "Point", "coordinates": [ 13.7431063, 51.0604674 ] } },
{ "type": "Feature", "properties": { "osm_id": "283331239", "code": 2907, "fclass": "camera_surveillance", "name": null, "Category": "Food & Dai", "Weight": 1.0 }, "geometry": { "type": "Point", "coordinates": [ 13.7431257, 51.0604929 ] } },
{ "type": "Feature", "properties": { "osm_id": "283424701", "code": 2301, "fclass": "restaurant", "name": "Planwirtschaft", "Category": "Food & Dai", "Weight": 1.0 }, "geometry": { "type": "Point", "coordinates": [ 13.7500445, 51.0670003 ] } },
{ "type": "Feature", "properties": { "osm_id": "283424983", "code": 2725, "fclass": "artwork", "name": "Kunsthofpassage", "Category": "Recreation", "Weight": 2.0 }, "geometry": { "type": "Point", "coordinates": [ 13.7538676, 51.0680388 ] } },
{ "type": "Feature", "properties": { "osm_id": "286568341", "code": 2031, "fclass": "recycling_glass", "name": null, "Category": "Civic & Se", "Weight": 1.0 }, "geometry": { "type": "Point", "coordinates": [ 13.7153208, 51.026812 ] } },
{ "type": "Feature", "properties": { "osm_id": "286749520", "code": 2031, "fclass": "recycling_glass", "name": null, "Category": "Civic & Se", "Weight": 1.0 }, "geometry": { "type": "Point", "coordinates": [ 13.7313648, 51.0905395 ] } },
{ "type": "Feature", "properties": { "osm_id": "286757403", "code": 2121, "fclass": "dentist", "name": "Praxis Bornemann / Mahlo", "Category": "Health", "Weight": 5.0 }, "geometry": { "type": "Point", "coordinates": [ 13.729844, 51.0880197 ] } },
{ "type": "Feature", "properties": { "osm_id": "286760237", "code": 2004, "fclass": "post_box", "name": null, "Category": "Civic & Se", "Weight": 1.0 }, "geometry": { "type": "Point", "coordinates": [ 13.7273319, 51.0847639 ] } },
{ "type": "Feature", "properties": { "osm_id": "286761692", "code": 2101, "fclass": "pharmacy", "name": "Barbara-Apotheke", "Category": "Health", "Weight": 5.0 }, "geometry": { "type": "Point", "coordinates": [ 13.7273468, 51.0848283 ] } },
{ "type": "Feature", "properties": { "osm_id": "286943880", "code": 2601, "fclass": "bank", "name": "Sparkasse", "Category": "Mobility", "Weight": 4.0 }, "geometry": { "type": "Point", "coordinates": [ 13.7389194, 51.0476721 ] } },
{ "type": "Feature", "properties": { "osm_id": "287069074", "code": 2031, "fclass": "recycling_glass", "name": null, "Category": "Civic & Se", "Weight": 1.0 }, "geometry": { "type": "Point", "coordinates": [ 13.7656804, 51.0571933 ] } },
{ "type": "Feature", "properties": { "osm_id": "287069242", "code": 2031, "fclass": "recycling_glass", "name": null, "Category": "Civic & Se", "Weight": 1.0 }, "geometry": { "type": "Point", "coordinates": [ 13.7643304, 51.0578276 ] } },
{ "type": "Feature", "properties": { "osm_id": "287079538", "code": 2101, "fclass": "pharmacy", "name": "Güntz-Apotheke", "Category": "Health", "Weight": 5.0 }, "geometry": { "type": "Point", "coordinates": [ 13.7600739, 51.0544493 ] } },
{ "type": "Feature", "properties": { "osm_id": "287080006", "code": 2031, "fclass": "recycling_glass", "name": null, "Category": "Civic & Se", "Weight": 1.0 }, "geometry": { "type": "Point", "coordinates": [ 13.7628868, 51.0532297 ] } },
{ "type": "Feature", "properties": { "osm_id": "287080041", "code": 2031, "fclass": "recycling_glass", "name": null, "Category": "Civic & Se", "Weight": 1.0 }, "geometry": { "type": "Point", "coordinates": [ 13.7651449, 51.0531858 ] } },
{ "type": "Feature", "properties": { "osm_id": "287150841", "code": 2722, "fclass": "museum", "name": "Dresdner Kinder-Museum", "Category": "Recreation", "Weight": 2.0 }, "geometry": { "type": "Point", "coordinates": [ 13.7460153, 51.0442287 ] } },
{ "type": "Feature", "properties": { "osm_id": "287228998", "code": 2601, "fclass": "bank", "name": "Ostsächsische Sparkasse Dresden", "Category": "Mobility", "Weight": 4.0 }, "geometry": { "type": "Point", "coordinates": [ 13.7265539, 51.0822569 ] } },
{ "type": "Feature", "properties": { "osm_id": "287369636", "code": 2031, "fclass": "recycling_glass", "name": null, "Category": "Civic & Se", "Weight": 1.0 }, "geometry": { "type": "Point", "coordinates": [ 13.7819514, 51.0478274 ] } },
{ "type": "Feature", "properties": { "osm_id": "287439726", "code": 2502, "fclass": "bakery", "name": "Bäckerei Hentschel", "Category": "Food & Dai", "Weight": 1.0 }, "geometry": { "type": "Point", "coordinates": [ 13.7504256, 51.0470642 ] } },
{ "type": "Feature", "properties": { "osm_id": "287439728", "code": 2302, "fclass": "fast_food", "name": "Bierbar \"Ass\"", "Category": "Food & Dai", "Weight": 1.0 }, "geometry": { "type": "Point", "coordinates": [ 13.7499835, 51.0480751 ] } },
{ "type": "Feature", "properties": { "osm_id": "287600572", "code": 2031, "fclass": "recycling_glass", "name": null, "Category": "Civic & Se", "Weight": 1.0 }, "geometry": { "type": "Point", "coordinates": [ 13.7375082, 51.0859624 ] } },
{ "type": "Feature", "properties": { "osm_id": "287956181", "code": 2512, "fclass": "clothes", "name": "Ulla Popken", "Category": "Food & Dai", "Weight": 1.0 }, "geometry": { "type": "Point", "coordinates": [ 13.7403818, 51.0497184 ] } },
{ "type": "Feature", "properties": { "osm_id": "288004572", "code": 2004, "fclass": "post_box", "name": null, "Category": "Civic & Se", "Weight": 1.0 }, "geometry": { "type": "Point", "coordinates": [ 13.7866915, 51.0728041 ] } },
{ "type": "Feature", "properties": { "osm_id": "288006033", "code": 2301, "fclass": "restaurant", "name": "Rudolphia", "Category": "Food & Dai", "Weight": 1.0 }, "geometry": { "type": "Point", "coordinates": [ 13.7432288, 51.0793015 ] } },
{ "type": "Feature", "properties": { "osm_id": "288187163", "code": 2542, "fclass": "bicycle_shop", "name": "freaks-store", "Category": "Mobility", "Weight": 4.0 }, "geometry": { "type": "Point", "coordinates": [ 13.7585055, 51.0678052 ] } },
{ "type": "Feature", "properties": { "osm_id": "288929867", "code": 2004, "fclass": "post_box", "name": null, "Category": "Civic & Se", "Weight": 1.0 }, "geometry": { "type": "Point", "coordinates": [ 13.7702052, 51.0718553 ] } },
{ "type": "Feature", "properties": { "osm_id": "289042458", "code": 2542, "fclass": "bicycle_shop", "name": "Fahrradselbsthilfewerkstatt \"Rad i.O.\"", "Category": "Mobility", "Weight": 4.0 }, "geometry": { "type": "Point", "coordinates": [ 13.7495146, 51.0285616 ] } },
{ "type": "Feature", "properties": { "osm_id": "289056531", "code": 2004, "fclass": "post_box", "name": null, "Category": "Civic & Se", "Weight": 1.0 }, "geometry": { "type": "Point", "coordinates": [ 13.7230727, 51.0497652 ] } },
{ "type": "Feature", "properties": { "osm_id": "289091543", "code": 2303, "fclass": "cafe", "name": "Mamas Minimal", "Category": "Food & Dai", "Weight": 1.0 }, "geometry": { "type": "Point", "coordinates": [ 13.7534788, 51.0658829 ] } },
{ "type": "Feature", "properties": { "osm_id": "289091887", "code": 2302, "fclass": "fast_food", "name": "Dürüm Kebab Haus", "Category": "Food & Dai", "Weight": 1.0 }, "geometry": { "type": "Point", "coordinates": [ 13.7535781, 51.066064 ] } },
{ "type": "Feature", "properties": { "osm_id": "289131111", "code": 2101, "fclass": "pharmacy", "name": "Galenus-Apotheke", "Category": "Health", "Weight": 5.0 }, "geometry": { "type": "Point", "coordinates": [ 13.7521471, 51.0627719 ] } },
{ "type": "Feature", "properties": { "osm_id": "289392741", "code": 2302, "fclass": "fast_food", "name": "U-Boot", "Category": "Food & Dai", "Weight": 1.0 }, "geometry": { "type": "Point", "coordinates": [ 13.7292966, 51.0303048 ] } },
{ "type": "Feature", "properties": { "osm_id": "289488035", "code": 2205, "fclass": "playground", "name": "Spielplatz Schanzenstraße", "Category": "Recreation", "Weight": 2.0 }, "geometry": { "type": "Point", "coordinates": [ 13.7501782, 51.0759434 ] } },
{ "type": "Feature", "properties": { "osm_id": "289983007", "code": 2120, "fclass": "doctors", "name": "Praxisgemeinschaft Müller", "Category": "Health", "Weight": 5.0 }, "geometry": { "type": "Point", "coordinates": [ 13.7754097, 51.0509382 ] } },
{ "type": "Feature", "properties": { "osm_id": "289987590", "code": 2722, "fclass": "museum", "name": "Stadtmuseum Dresden", "Category": "Recreation", "Weight": 2.0 }, "geometry": { "type": "Point", "coordinates": [ 13.7430815, 51.0502003 ] } },
{ "type": "Feature", "properties": { "osm_id": "289991323", "code": 2721, "fclass": "attraction", "name": "Kursächsische Postmeilensäule", "Category": "Recreation", "Weight": 2.0 }, "geometry": { "type": "Point", "coordinates": [ 13.7294151, 51.0506949 ] } },
{ "type": "Feature", "properties": { "osm_id": "290387211", "code": 2907, "fclass": "camera_surveillance", "name": null, "Category": "Food & Dai", "Weight": 1.0 }, "geometry": { "type": "Point", "coordinates": [ 13.7040274, 51.0440969 ] } },
{ "type": "Feature", "properties": { "osm_id": "290809420", "code": 2031, "fclass": "recycling_glass", "name": null, "Category": "Civic & Se", "Weight": 1.0 }, "geometry": { "type": "Point", "coordinates": [ 13.7943131, 51.0492367 ] } },
{ "type": "Feature", "properties": { "osm_id": "291875753", "code": 2004, "fclass": "post_box", "name": null, "Category": "Civic & Se", "Weight": 1.0 }, "geometry": { "type": "Point", "coordinates": [ 13.7838546, 51.0339821 ] } },
{ "type": "Feature", "properties": { "osm_id": "291875755", "code": 2004, "fclass": "post_box", "name": null, "Category": "Civic & Se", "Weight": 1.0 }, "geometry": { "type": "Point", "coordinates": [ 13.78638, 51.0329792 ] } },
{ "type": "Feature", "properties": { "osm_id": "291875767", "code": 2901, "fclass": "toilet", "name": null, "Category": "Recreation", "Weight": 2.0 }, "geometry": { "type": "Point", "coordinates": [ 13.7866499, 51.033158 ] } },
{ "type": "Feature", "properties": { "osm_id": "291875797", "code": 2305, "fclass": "bar", "name": "Rauchereck Zwingli", "Category": "Recreation", "Weight": 2.0 }, "geometry": { "type": "Point", "coordinates": [ 13.7834363, 51.0336028 ] } },
{ "type": "Feature", "properties": { "osm_id": "291875800", "code": 2302, "fclass": "fast_food", "name": "Little China", "Category": "Food & Dai", "Weight": 1.0 }, "geometry": { "type": "Point", "coordinates": [ 13.7838472, 51.0340198 ] } },
{ "type": "Feature", "properties": { "osm_id": "291875805", "code": 2303, "fclass": "cafe", "name": "Bäckerei Möbius", "Category": "Food & Dai", "Weight": 1.0 }, "geometry": { "type": "Point", "coordinates": [ 13.7838704, 51.0341544 ] } },
{ "type": "Feature", "properties": { "osm_id": "291875805", "code": 2502, "fclass": "bakery", "name": "Bäckerei Möbius", "Category": "Food & Dai", "Weight": 1.0 }, "geometry": { "type": "Point", "coordinates": [ 13.7838704, 51.0341544 ] } },
{ "type": "Feature", "properties": { "osm_id": "292035471", "code": 2004, "fclass": "post_box", "name": null, "Category": "Civic & Se", "Weight": 1.0 }, "geometry": { "type": "Point", "coordinates": [ 13.7222234, 51.0475241 ] } },
{ "type": "Feature", "properties": { "osm_id": "292758425", "code": 2031, "fclass": "recycling_glass", "name": null, "Category": "Civic & Se", "Weight": 1.0 }, "geometry": { "type": "Point", "coordinates": [ 13.7011175, 51.0468176 ] } },
{ "type": "Feature", "properties": { "osm_id": "292822810", "code": 2004, "fclass": "post_box", "name": null, "Category": "Civic & Se", "Weight": 1.0 }, "geometry": { "type": "Point", "coordinates": [ 13.7439971, 51.0604403 ] } },
{ "type": "Feature", "properties": { "osm_id": "292822831", "code": 2303, "fclass": "cafe", "name": "Emils 1910", "Category": "Food & Dai", "Weight": 1.0 }, "geometry": { "type": "Point", "coordinates": [ 13.7440994, 51.060441 ] } },
{ "type": "Feature", "properties": { "osm_id": "292822925", "code": 2129, "fclass": "veterinary", "name": "Wolf & Tiger", "Category": "Health", "Weight": 5.0 }, "geometry": { "type": "Point", "coordinates": [ 13.7444473, 51.0607821 ] } },
{ "type": "Feature", "properties": { "osm_id": "292823898", "code": 2303, "fclass": "cafe", "name": "Eiscafé Venezia", "Category": "Food & Dai", "Weight": 1.0 }, "geometry": { "type": "Point", "coordinates": [ 13.7420038, 51.0582467 ] } },
{ "type": "Feature", "properties": { "osm_id": "292978660", "code": 2201, "fclass": "theatre", "name": "Zookasper", "Category": "Recreation", "Weight": 2.0 }, "geometry": { "type": "Point", "coordinates": [ 13.7537976, 51.037109 ] } },
{ "type": "Feature", "properties": { "osm_id": "292978900", "code": 2901, "fclass": "toilet", "name": null, "Category": "Recreation", "Weight": 2.0 }, "geometry": { "type": "Point", "coordinates": [ 13.7547071, 51.038446 ] } },
{ "type": "Feature", "properties": { "osm_id": "292978999", "code": 2901, "fclass": "toilet", "name": null, "Category": "Recreation", "Weight": 2.0 }, "geometry": { "type": "Point", "coordinates": [ 13.7527924, 51.0372027 ] } },
{ "type": "Feature", "properties": { "osm_id": "292979000", "code": 2901, "fclass": "toilet", "name": null, "Category": "Recreation", "Weight": 2.0 }, "geometry": { "type": "Point", "coordinates": [ 13.7522815, 51.0374361 ] } },
{ "type": "Feature", "properties": { "osm_id": "293303148", "code": 2004, "fclass": "post_box", "name": null, "Category": "Civic & Se", "Weight": 1.0 }, "geometry": { "type": "Point", "coordinates": [ 13.7450916, 51.0269216 ] } },
{ "type": "Feature", "properties": { "osm_id": "293340722", "code": 2602, "fclass": "atm", "name": null, "Category": "Mobility", "Weight": 4.0 }, "geometry": { "type": "Point", "coordinates": [ 13.7806575, 51.0444004 ] } },
{ "type": "Feature", "properties": { "osm_id": "293396266", "code": 2004, "fclass": "post_box", "name": null, "Category": "Civic & Se", "Weight": 1.0 }, "geometry": { "type": "Point", "coordinates": [ 13.7486802, 51.0325357 ] } },
{ "type": "Feature", "properties": { "osm_id": "294146947", "code": 2516, "fclass": "butcher", "name": "Bannewitzer Fleisch- und Wurstwaren", "Category": "Food & Dai", "Weight": 1.0 }, "geometry": { "type": "Point", "coordinates": [ 13.7539477, 51.0499875 ] } },
{ "type": "Feature", "properties": { "osm_id": "294146948", "code": 2302, "fclass": "fast_food", "name": "Call a Pizza", "Category": "Food & Dai", "Weight": 1.0 }, "geometry": { "type": "Point", "coordinates": [ 13.7536916, 51.0500337 ] } },
{ "type": "Feature", "properties": { "osm_id": "294146950", "code": 2501, "fclass": "supermarket", "name": "CAP-Markt", "Category": "Food & Dai", "Weight": 1.0 }, "geometry": { "type": "Point", "coordinates": [ 13.754609, 51.0499029 ] } },
{ "type": "Feature", "properties": { "osm_id": "294146953", "code": 2101, "fclass": "pharmacy", "name": "Augustus-Apotheke", "Category": "Health", "Weight": 5.0 }, "geometry": { "type": "Point", "coordinates": [ 13.7515849, 51.0515549 ] } },
{ "type": "Feature", "properties": { "osm_id": "294157034", "code": 2401, "fclass": "hotel", "name": "Windsor", "Category": "Recreation", "Weight": 2.0 }, "geometry": { "type": "Point", "coordinates": [ 13.7087025, 51.0840206 ] } },
{ "type": "Feature", "properties": { "osm_id": "294581839", "code": 2031, "fclass": "recycling_glass", "name": null, "Category": "Civic & Se", "Weight": 1.0 }, "geometry": { "type": "Point", "coordinates": [ 13.7747747, 51.0582534 ] } },
{ "type": "Feature", "properties": { "osm_id": "294582272", "code": 2004, "fclass": "post_box", "name": null, "Category": "Civic & Se", "Weight": 1.0 }, "geometry": { "type": "Point", "coordinates": [ 13.7746057, 51.058035 ] } },
{ "type": "Feature", "properties": { "osm_id": "294582443", "code": 2031, "fclass": "recycling_glass", "name": null, "Category": "Civic & Se", "Weight": 1.0 }, "geometry": { "type": "Point", "coordinates": [ 13.774339, 51.0591156 ] } },
{ "type": "Feature", "properties": { "osm_id": "294739033", "code": 2907, "fclass": "camera_surveillance", "name": null, "Category": "Food & Dai", "Weight": 1.0 }, "geometry": { "type": "Point", "coordinates": [ 13.7307026, 51.0593832 ] } },
{ "type": "Feature", "properties": { "osm_id": "295070241", "code": 2031, "fclass": "recycling_glass", "name": null, "Category": "Civic & Se", "Weight": 1.0 }, "geometry": { "type": "Point", "coordinates": [ 13.7308797, 51.0377472 ] } },
{ "type": "Feature", "properties": { "osm_id": "295070242", "code": 2033, "fclass": "recycling_clothes", "name": null, "Category": "Civic & Se", "Weight": 1.0 }, "geometry": { "type": "Point", "coordinates": [ 13.7299146, 51.0362307 ] } },
{ "type": "Feature", "properties": { "osm_id": "295070243", "code": 2031, "fclass": "recycling_glass", "name": null, "Category": "Civic & Se", "Weight": 1.0 }, "geometry": { "type": "Point", "coordinates": [ 13.7340114, 51.0355934 ] } },
{ "type": "Feature", "properties": { "osm_id": "295075045", "code": 2724, "fclass": "memorial", "name": "Friedrich-List-Denkmal", "Category": "Recreation", "Weight": 2.0 }, "geometry": { "type": "Point", "coordinates": [ 13.7341381, 51.0377043 ] } },
{ "type": "Feature", "properties": { "osm_id": "295078602", "code": 2305, "fclass": "bar", "name": "Novitatis", "Category": "Recreation", "Weight": 2.0 }, "geometry": { "type": "Point", "coordinates": [ 13.731346, 51.0371949 ] } },
{ "type": "Feature", "properties": { "osm_id": "295078604", "code": 2305, "fclass": "bar", "name": "Club 11", "Category": "Recreation", "Weight": 2.0 }, "geometry": { "type": "Point", "coordinates": [ 13.7307345, 51.0319016 ] } },
{ "type": "Feature", "properties": { "osm_id": "295140339", "code": 2031, "fclass": "recycling_glass", "name": null, "Category": "Civic & Se", "Weight": 1.0 }, "geometry": { "type": "Point", "coordinates": [ 13.7176999, 51.0356821 ] } },
{ "type": "Feature", "properties": { "osm_id": "295145621", "code": 2302, "fclass": "fast_food", "name": "Mr. Tacus", "Category": "Food & Dai", "Weight": 1.0 }, "geometry": { "type": "Point", "coordinates": [ 13.7082802, 51.0301223 ] } },
{ "type": "Feature", "properties": { "osm_id": "295177519", "code": 2907, "fclass": "camera_surveillance", "name": null, "Category": "Food & Dai", "Weight": 1.0 }, "geometry": { "type": "Point", "coordinates": [ 13.732395, 51.0637668 ] } },
{ "type": "Feature", "properties": { "osm_id": "295810816", "code": 2302, "fclass": "fast_food", "name": "Kebab Haus Am Wasa", "Category": "Food & Dai", "Weight": 1.0 }, "geometry": { "type": "Point", "coordinates": [ 13.7594563, 51.0276161 ] } },
{ "type": "Feature", "properties": { "osm_id": "295810817", "code": 2502, "fclass": "bakery", "name": "Bäckerei Möbius", "Category": "Food & Dai", "Weight": 1.0 }, "geometry": { "type": "Point", "coordinates": [ 13.7591676, 51.0278705 ] } },
{ "type": "Feature", "properties": { "osm_id": "295862402", "code": 2031, "fclass": "recycling_glass", "name": null, "Category": "Civic & Se", "Weight": 1.0 }, "geometry": { "type": "Point", "coordinates": [ 13.7190486, 51.0383079 ] } },
{ "type": "Feature", "properties": { "osm_id": "295862403", "code": 2031, "fclass": "recycling_glass", "name": null, "Category": "Civic & Se", "Weight": 1.0 }, "geometry": { "type": "Point", "coordinates": [ 13.7207283, 51.0395803 ] } },
{ "type": "Feature", "properties": { "osm_id": "295862640", "code": 2033, "fclass": "recycling_clothes", "name": null, "Category": "Civic & Se", "Weight": 1.0 }, "geometry": { "type": "Point", "coordinates": [ 13.7230639, 51.0366879 ] } },
{ "type": "Feature", "properties": { "osm_id": "295878504", "code": 2083, "fclass": "kindergarten", "name": "Regenbogen", "Category": "Education", "Weight": 4.0 }, "geometry": { "type": "Point", "coordinates": [ 13.7267507, 51.0345233 ] } },
{ "type": "Feature", "properties": { "osm_id": "295896040", "code": 2004, "fclass": "post_box", "name": "Deutsche Post", "Category": "Civic & Se", "Weight": 1.0 }, "geometry": { "type": "Point", "coordinates": [ 13.7146223, 51.0329496 ] } },
{ "type": "Feature", "properties": { "osm_id": "296042078", "code": 2601, "fclass": "bank", "name": "Postbank", "Category": "Mobility", "Weight": 4.0 }, "geometry": { "type": "Point", "coordinates": [ 13.746759, 51.0671739 ] } },
{ "type": "Feature", "properties": { "osm_id": "296174588", "code": 2031, "fclass": "recycling_glass", "name": null, "Category": "Civic & Se", "Weight": 1.0 }, "geometry": { "type": "Point", "coordinates": [ 13.8003992, 51.0506456 ] } },
{ "type": "Feature", "properties": { "osm_id": "296307313", "code": 2601, "fclass": "bank", "name": "Ostsächsische Sparkasse Dresden Zwst. Strehlen", "Category": "Mobility", "Weight": 4.0 }, "geometry": { "type": "Point", "coordinates": [ 13.7596221, 51.0272884 ] } },
{ "type": "Feature", "properties": { "osm_id": "296339694", "code": 2004, "fclass": "post_box", "name": null, "Category": "Civic & Se", "Weight": 1.0 }, "geometry": { "type": "Point", "coordinates": [ 13.7536075, 51.0502256 ] } },
{ "type": "Feature", "properties": { "osm_id": "296340903", "code": 2301, "fclass": "restaurant", "name": "e-VITRUM", "Category": "Food & Dai", "Weight": 1.0 }, "geometry": { "type": "Point", "coordinates": [ 13.7551557, 51.0447294 ] } },
{ "type": "Feature", "properties": { "osm_id": "297193970", "code": 2302, "fclass": "fast_food", "name": "Newroz", "Category": "Food & Dai", "Weight": 1.0 }, "geometry": { "type": "Point", "coordinates": [ 13.7827008, 51.0477014 ] } },
{ "type": "Feature", "properties": { "osm_id": "297194216", "code": 2031, "fclass": "recycling_glass", "name": null, "Category": "Civic & Se", "Weight": 1.0 }, "geometry": { "type": "Point", "coordinates": [ 13.7916047, 51.0446115 ] } },
{ "type": "Feature", "properties": { "osm_id": "297194267", "code": 2031, "fclass": "recycling_glass", "name": null, "Category": "Civic & Se", "Weight": 1.0 }, "geometry": { "type": "Point", "coordinates": [ 13.794005, 51.0436454 ] } },
{ "type": "Feature", "properties": { "osm_id": "297194303", "code": 2542, "fclass": "bicycle_shop", "name": "Der Dynamo", "Category": "Mobility", "Weight": 4.0 }, "geometry": { "type": "Point", "coordinates": [ 13.7894955, 51.0452403 ] } },
{ "type": "Feature", "properties": { "osm_id": "297528514", "code": 2561, "fclass": "hairdresser", "name": "Friseurstudio Knievel", "Category": "Food & Dai", "Weight": 1.0 }, "geometry": { "type": "Point", "coordinates": [ 13.7432968, 51.0729105 ] } },
{ "type": "Feature", "properties": { "osm_id": "297932711", "code": 2907, "fclass": "camera_surveillance", "name": null, "Category": "Food & Dai", "Weight": 1.0 }, "geometry": { "type": "Point", "coordinates": [ 13.7498972, 51.0673491 ] } },
{ "type": "Feature", "properties": { "osm_id": "297985885", "code": 2301, "fclass": "restaurant", "name": "Bootshaus/Verleih", "Category": "Food & Dai", "Weight": 1.0 }, "geometry": { "type": "Point", "coordinates": [ 13.7603455, 51.0343187 ] } },
{ "type": "Feature", "properties": { "osm_id": "298196641", "code": 2501, "fclass": "supermarket", "name": "Netto Marken-Discount", "Category": "Food & Dai", "Weight": 1.0 }, "geometry": { "type": "Point", "coordinates": [ 13.7478211, 51.0675553 ] } },
{ "type": "Feature", "properties": { "osm_id": "298196653", "code": 2515, "fclass": "bookshop", "name": "Buchhandlung Richters", "Category": "Recreation", "Weight": 2.0 }, "geometry": { "type": "Point", "coordinates": [ 13.752395, 51.070712 ] } },
{ "type": "Feature", "properties": { "osm_id": "298512328", "code": 2901, "fclass": "toilet", "name": null, "Category": "Recreation", "Weight": 2.0 }, "geometry": { "type": "Point", "coordinates": [ 13.7925713, 51.0693974 ] } },
{ "type": "Feature", "properties": { "osm_id": "298512352", "code": 2741, "fclass": "picnic_site", "name": null, "Category": "Recreation", "Weight": 2.0 }, "geometry": { "type": "Point", "coordinates": [ 13.7923036, 51.0692907 ] } },
{ "type": "Feature", "properties": { "osm_id": "298680584", "code": 2907, "fclass": "camera_surveillance", "name": null, "Category": "Food & Dai", "Weight": 1.0 }, "geometry": { "type": "Point", "coordinates": [ 13.7383151, 51.0457882 ] } },
{ "type": "Feature", "properties": { "osm_id": "298917278", "code": 2004, "fclass": "post_box", "name": null, "Category": "Civic & Se", "Weight": 1.0 }, "geometry": { "type": "Point", "coordinates": [ 13.7299004, 51.0875038 ] } },
{ "type": "Feature", "properties": { "osm_id": "299835551", "code": 2031, "fclass": "recycling_glass", "name": null, "Category": "Civic & Se", "Weight": 1.0 }, "geometry": { "type": "Point", "coordinates": [ 13.7226252, 51.0761871 ] } },
{ "type": "Feature", "properties": { "osm_id": "299840520", "code": 2904, "fclass": "fountain", "name": "Jüngling mit Fisch", "Category": "Recreation", "Weight": 2.0 }, "geometry": { "type": "Point", "coordinates": [ 13.7250293, 51.0269799 ] } },
{ "type": "Feature", "properties": { "osm_id": "299840520", "code": 2725, "fclass": "artwork", "name": "Jüngling mit Fisch", "Category": "Recreation", "Weight": 2.0 }, "geometry": { "type": "Point", "coordinates": [ 13.7250293, 51.0269799 ] } },
{ "type": "Feature", "properties": { "osm_id": "300848963", "code": 2301, "fclass": "restaurant", "name": "Trattoria da Gianni", "Category": "Food & Dai", "Weight": 1.0 }, "geometry": { "type": "Point", "coordinates": [ 13.7976907, 51.0475958 ] } },
{ "type": "Feature", "properties": { "osm_id": "300849973", "code": 2502, "fclass": "bakery", "name": "Bärenhecke", "Category": "Food & Dai", "Weight": 1.0 }, "geometry": { "type": "Point", "coordinates": [ 13.7953467, 51.0432112 ] } },
{ "type": "Feature", "properties": { "osm_id": "300860595", "code": 2724, "fclass": "memorial", "name": "Salvador Allende", "Category": "Recreation", "Weight": 2.0 }, "geometry": { "type": "Point", "coordinates": [ 13.7217862, 51.0297032 ] } },
{ "type": "Feature", "properties": { "osm_id": "300861605", "code": 2305, "fclass": "bar", "name": "Aquarium", "Category": "Recreation", "Weight": 2.0 }, "geometry": { "type": "Point", "coordinates": [ 13.7401122, 51.0448464 ] } },
{ "type": "Feature", "properties": { "osm_id": "301013717", "code": 2724, "fclass": "memorial", "name": "Julius-Fučík-Denkmal", "Category": "Recreation", "Weight": 2.0 }, "geometry": { "type": "Point", "coordinates": [ 13.7553203, 51.0463074 ] } },