{
"type": "FeatureCollection",
"name": "Cinema",
"crs": { "type": "name", "properties": { "name": "urn:ogc:def:crs:OGC:1.3:CRS84" } },
"xy_coordinate_resolution": 1e-15,
"features": [
{ "type": "Feature", "properties": { "osm_id": "162612699", "code": 2203, "fclass": "cinema", "name": "Kino Wurzbach", "layer": null, "path": null }, "geometry": { "type": "Point", "coordinates": [ 11.5383652, 50.4625391 ] } },
{ "type": "Feature", "properties": { "osm_id": "280676054", "code": 2203, "fclass": "cinema", "name": "PAB Kinocenter", "layer": null, "path": null }, "geometry": { "type": "Point", "coordinates": [ 10.2204056, 50.8092892 ] } },
{ "type": "Feature", "properties": { "osm_id": "292154362", "code": 2203, "fclass": "cinema", "name": "CineStar", "layer": null, "path": null }, "geometry": { "type": "Point", "coordinates": [ 11.0334108, 50.9741546 ] } },
{ "type": "Feature", "properties": { "osm_id": "292168751", "code": 2203, "fclass": "cinema", "name": "KINOKLUB am Hirschlachufer", "layer": null, "path": null }, "geometry": { "type": "Point", "coordinates": [ 11.0343043, 50.9749963 ] } },
{ "type": "Feature", "properties": { "osm_id": "344456626", "code": 2203, "fclass": "cinema", "name": "CineStar", "layer": null, "path": null }, "geometry": { "type": "Point", "coordinates": [ 11.5859802, 50.9267771 ] } },
{ "type": "Feature", "properties": { "osm_id": "378330201", "code": 2203, "fclass": "cinema", "name": "Filmpalast Central Mühlhausen", "layer": null, "path": null }, "geometry": { "type": "Point", "coordinates": [ 10.4596632, 51.210591 ] } },
{ "type": "Feature", "properties": { "osm_id": "390271758", "code": 2203, "fclass": "cinema", "name": null, "layer": null, "path": null }, "geometry": { "type": "Point", "coordinates": [ 11.2491452, 51.0196868 ] } },
{ "type": "Feature", "properties": { "osm_id": "470279848", "code": 2203, "fclass": "cinema", "name": "Kino im Badehaus Masserberg", "layer": null, "path": null }, "geometry": { "type": "Point", "coordinates": [ 10.9684847, 50.5177001 ] } },
{ "type": "Feature", "properties": { "osm_id": "474388030", "code": 2203, "fclass": "cinema", "name": "Zeltplatzkino", "layer": null, "path": null }, "geometry": { "type": "Point", "coordinates": [ 11.4229971, 51.1873215 ] } },
{ "type": "Feature", "properties": { "osm_id": "527520334", "code": 2203, "fclass": "cinema", "name": "Capitol", "layer": null, "path": null }, "geometry": { "type": "Point", "coordinates": [ 10.3211035, 50.9757962 ] } },
{ "type": "Feature", "properties": { "osm_id": "601613618", "code": 2203, "fclass": "cinema", "name": "Kammer-Lichtspiele", "layer": null, "path": null }, "geometry": { "type": "Point", "coordinates": [ 11.1698141, 50.3590214 ] } },
{ "type": "Feature", "properties": { "osm_id": "638561928", "code": 2203, "fclass": "cinema", "name": "METROPOL Kino", "layer": null, "path": null }, "geometry": { "type": "Point", "coordinates": [ 12.0843718, 50.8802503 ] } },
{ "type": "Feature", "properties": { "osm_id": "847118779", "code": 2203, "fclass": "cinema", "name": "Cinema 64", "layer": null, "path": null }, "geometry": { "type": "Point", "coordinates": [ 10.8955416, 51.3633342 ] } },
{ "type": "Feature", "properties": { "osm_id": "951470913", "code": 2203, "fclass": "cinema", "name": "Lichthaus Kino", "layer": null, "path": null }, "geometry": { "type": "Point", "coordinates": [ 11.3319659, 50.985206 ] } },
{ "type": "Feature", "properties": { "osm_id": "1634096401", "code": 2203, "fclass": "cinema", "name": "Hochschulfilmclub", "layer": null, "path": null }, "geometry": { "type": "Point", "coordinates": [ 10.9389218, 50.6818095 ] } },
{ "type": "Feature", "properties": { "osm_id": "1637645824", "code": 2203, "fclass": "cinema", "name": "Autokino im Sommer", "layer": null, "path": null }, "geometry": { "type": "Point", "coordinates": [ 11.646619, 50.6102027 ] } },
{ "type": "Feature", "properties": { "osm_id": "1771900606", "code": 2203, "fclass": "cinema", "name": "Schillerhof", "layer": null, "path": null }, "geometry": { "type": "Point", "coordinates": [ 11.5987316, 50.9312189 ] } },
{ "type": "Feature", "properties": { "osm_id": "2142270641", "code": 2203, "fclass": "cinema", "name": "Filmbar Kaltennordheim", "layer": null, "path": null }, "geometry": { "type": "Point", "coordinates": [ 10.1609343, 50.6258804 ] } },
{ "type": "Feature", "properties": { "osm_id": "2287026059", "code": 2203, "fclass": "cinema", "name": "Neues Kino im Hörsaal", "layer": null, "path": null }, "geometry": { "type": "Point", "coordinates": [ 11.8120618, 50.581772 ] } },
{ "type": "Feature", "properties": { "osm_id": "2415955844", "code": 2203, "fclass": "cinema", "name": "Kino - BurgTheater", "layer": null, "path": null }, "geometry": { "type": "Point", "coordinates": [ 10.6473246, 51.1094291 ] } },
{ "type": "Feature", "properties": { "osm_id": "3101130130", "code": 2203, "fclass": "cinema", "name": "Filmpalast Neue Zeit", "layer": null, "path": null }, "geometry": { "type": "Point", "coordinates": [ 10.7959208, 51.5023348 ] } },
{ "type": "Feature", "properties": { "osm_id": "3861159434", "code": 2203, "fclass": "cinema", "name": "Cineplex Gotha", "layer": null, "path": null }, "geometry": { "type": "Point", "coordinates": [ 10.7068275, 50.9524581 ] } },
{ "type": "Feature", "properties": { "osm_id": "3948691424", "code": 2203, "fclass": "cinema", "name": "Kino am Markt", "layer": null, "path": null }, "geometry": { "type": "Point", "coordinates": [ 11.5880078, 50.9285813 ] } },
{ "type": "Feature", "properties": { "osm_id": "4336765238", "code": 2203, "fclass": "cinema", "name": "UT99 Kinocenter", "layer": null, "path": null }, "geometry": { "type": "Point", "coordinates": [ 12.2001774, 50.656689 ] } },
{ "type": "Feature", "properties": { "osm_id": "4356305292", "code": 2203, "fclass": "cinema", "name": null, "layer": null, "path": null }, "geometry": { "type": "Point", "coordinates": [ 11.0164414, 50.9725994 ] } },
{ "type": "Feature", "properties": { "osm_id": "4485953313", "code": 2203, "fclass": "cinema", "name": "Stuki 76", "layer": null, "path": null }, "geometry": { "type": "Point", "coordinates": [ 11.1035205, 51.3657745 ] } },
{ "type": "Feature", "properties": { "osm_id": "5856727915", "code": 2203, "fclass": "cinema", "name": "Kino am Park", "layer": null, "path": null }, "geometry": { "type": "Point", "coordinates": [ 11.6404207, 50.4499383 ] } },
{ "type": "Feature", "properties": { "osm_id": "6792373451", "code": 2203, "fclass": "cinema", "name": "Clubkino", "layer": null, "path": null }, "geometry": { "type": "Point", "coordinates": [ 10.6699407, 50.6529156 ] } },
{ "type": "Feature", "properties": { "osm_id": "8258494691", "code": 2203, "fclass": "cinema", "name": "Mon Ami", "layer": null, "path": null }, "geometry": { "type": "Point", "coordinates": [ 11.325904, 50.9813088 ] } },
{ "type": "Feature", "properties": { "osm_id": "9454938991", "code": 2203, "fclass": "cinema", "name": null, "layer": null, "path": null }, "geometry": { "type": "Point", "coordinates": [ 11.3480513, 50.7192283 ] } },
{ "type": "Feature", "properties": { "osm_id": "94847920", "code": 2203, "fclass": "cinema", "name": "Kinobar Prager Frühling", "layer": "Cinema", "path": "C:\\Users\\sanojan\\Desktop\\sano Tcp\\sem5\\personal\\Projects\\Germany\\Services\\Dresden\\Cinema.geojson" }, "geometry": { "type": "Point", "coordinates": [ 12.3762061, 51.3108084 ] } },
{ "type": "Feature", "properties": { "osm_id": "198164012", "code": 2203, "fclass": "cinema", "name": "UCI Kinowelt", "layer": "Cinema", "path": "C:\\Users\\sanojan\\Desktop\\sano Tcp\\sem5\\personal\\Projects\\Germany\\Services\\Dresden\\Cinema.geojson" }, "geometry": { "type": "Point", "coordinates": [ 13.696, 51.0823246 ] } },
{ "type": "Feature", "properties": { "osm_id": "246851761", "code": 2203, "fclass": "cinema", "name": "CinemaxX", "layer": "Cinema", "path": "C:\\Users\\sanojan\\Desktop\\sano Tcp\\sem5\\personal\\Projects\\Germany\\Services\\Dresden\\Cinema.geojson" }, "geometry": { "type": "Point", "coordinates": [ 13.8043881, 51.0517555 ] } },
{ "type": "Feature", "properties": { "osm_id": "247953899", "code": 2203, "fclass": "cinema", "name": "Neues Rundkino", "layer": "Cinema", "path": "C:\\Users\\sanojan\\Desktop\\sano Tcp\\sem5\\personal\\Projects\\Germany\\Services\\Dresden\\Cinema.geojson" }, "geometry": { "type": "Point", "coordinates": [ 13.7369635, 51.0449566 ] } },
{ "type": "Feature", "properties": { "osm_id": "250581913", "code": 2203, "fclass": "cinema", "name": "Passage Kinos", "layer": "Cinema", "path": "C:\\Users\\sanojan\\Desktop\\sano Tcp\\sem5\\personal\\Projects\\Germany\\Services\\Dresden\\Cinema.geojson" }, "geometry": { "type": "Point", "coordinates": [ 12.3723805, 51.3421887 ] } },
{ "type": "Feature", "properties": { "osm_id": "250581914", "code": 2203, "fclass": "cinema", "name": "CineStar", "layer": "Cinema", "path": "C:\\Users\\sanojan\\Desktop\\sano Tcp\\sem5\\personal\\Projects\\Germany\\Services\\Dresden\\Cinema.geojson" }, "geometry": { "type": "Point", "coordinates": [ 12.3740812, 51.3374 ] } },
{ "type": "Feature", "properties": { "osm_id": "251048923", "code": 2203, "fclass": "cinema", "name": "Cineplex", "layer": "Cinema", "path": "C:\\Users\\sanojan\\Desktop\\sano Tcp\\sem5\\personal\\Projects\\Germany\\Services\\Dresden\\Cinema.geojson" }, "geometry": { "type": "Point", "coordinates": [ 12.2921967, 51.3195753 ] } },
{ "type": "Feature", "properties": { "osm_id": "254014705", "code": 2203, "fclass": "cinema", "name": "Schaubühne Lindenfels", "layer": "Cinema", "path": "C:\\Users\\sanojan\\Desktop\\sano Tcp\\sem5\\personal\\Projects\\Germany\\Services\\Dresden\\Cinema.geojson" }, "geometry": { "type": "Point", "coordinates": [ 12.3345395, 51.3319403 ] } },
{ "type": "Feature", "properties": { "osm_id": "257678767", "code": 2203, "fclass": "cinema", "name": "Filmpalast Capitol", "layer": "Cinema", "path": "C:\\Users\\sanojan\\Desktop\\sano Tcp\\sem5\\personal\\Projects\\Germany\\Services\\Dresden\\Cinema.geojson" }, "geometry": { "type": "Point", "coordinates": [ 13.3038574, 51.3053592 ] } },
{ "type": "Feature", "properties": { "osm_id": "260670657", "code": 2203, "fclass": "cinema", "name": "Palast-Theater", "layer": "Cinema", "path": "C:\\Users\\sanojan\\Desktop\\sano Tcp\\sem5\\personal\\Projects\\Germany\\Services\\Dresden\\Cinema.geojson" }, "geometry": { "type": "Point", "coordinates": [ 14.9825005, 51.1467186 ] } },
{ "type": "Feature", "properties": { "osm_id": "261105983", "code": 2203, "fclass": "cinema", "name": "Capitol", "layer": "Cinema", "path": "C:\\Users\\sanojan\\Desktop\\sano Tcp\\sem5\\personal\\Projects\\Germany\\Services\\Dresden\\Cinema.geojson" }, "geometry": { "type": "Point", "coordinates": [ 12.1365103, 50.4998305 ] } },
{ "type": "Feature", "properties": { "osm_id": "269786785", "code": 2203, "fclass": "cinema", "name": "Cineding", "layer": "Cinema", "path": "C:\\Users\\sanojan\\Desktop\\sano Tcp\\sem5\\personal\\Projects\\Germany\\Services\\Dresden\\Cinema.geojson" }, "geometry": { "type": "Point", "coordinates": [ 12.3323134, 51.3305744 ] } },
{ "type": "Feature", "properties": { "osm_id": "286960534", "code": 2203, "fclass": "cinema", "name": "Filmtheater Ebersbach", "layer": "Cinema", "path": "C:\\Users\\sanojan\\Desktop\\sano Tcp\\sem5\\personal\\Projects\\Germany\\Services\\Dresden\\Cinema.geojson" }, "geometry": { "type": "Point", "coordinates": [ 14.5793663, 51.0069901 ] } },
{ "type": "Feature", "properties": { "osm_id": "309018218", "code": 2203, "fclass": "cinema", "name": "Thalia", "layer": "Cinema", "path": "C:\\Users\\sanojan\\Desktop\\sano Tcp\\sem5\\personal\\Projects\\Germany\\Services\\Dresden\\Cinema.geojson" }, "geometry": { "type": "Point", "coordinates": [ 13.7542227, 51.066831 ] } },
{ "type": "Feature", "properties": { "osm_id": "309647233", "code": 2203, "fclass": "cinema", "name": "Filmbühne Mittweida", "layer": "Cinema", "path": "C:\\Users\\sanojan\\Desktop\\sano Tcp\\sem5\\personal\\Projects\\Germany\\Services\\Dresden\\Cinema.geojson" }, "geometry": { "type": "Point", "coordinates": [ 12.9769553, 50.9867624 ] } },
{ "type": "Feature", "properties": { "osm_id": "316778704", "code": 2203, "fclass": "cinema", "name": "Kino im Kasten", "layer": "Cinema", "path": "C:\\Users\\sanojan\\Desktop\\sano Tcp\\sem5\\personal\\Projects\\Germany\\Services\\Dresden\\Cinema.geojson" }, "geometry": { "type": "Point", "coordinates": [ 13.7539671, 51.0302059 ] } },
{ "type": "Feature", "properties": { "osm_id": "331522497", "code": 2203, "fclass": "cinema", "name": "Harmonie Lichtspiele Markneukirchen", "layer": "Cinema", "path": "C:\\Users\\sanojan\\Desktop\\sano Tcp\\sem5\\personal\\Projects\\Germany\\Services\\Dresden\\Cinema.geojson" }, "geometry": { "type": "Point", "coordinates": [ 12.3348712, 50.3110528 ] } },
{ "type": "Feature", "properties": { "osm_id": "348612086", "code": 2203, "fclass": "cinema", "name": "Filmpalast Astoria", "layer": "Cinema", "path": "C:\\Users\\sanojan\\Desktop\\sano Tcp\\sem5\\personal\\Projects\\Germany\\Services\\Dresden\\Cinema.geojson" }, "geometry": { "type": "Point", "coordinates": [ 12.4902417, 50.7203203 ] } },
{ "type": "Feature", "properties": { "osm_id": "350249056", "code": 2203, "fclass": "cinema", "name": "Clubkino Siegmar", "layer": "Cinema", "path": "C:\\Users\\sanojan\\Desktop\\sano Tcp\\sem5\\personal\\Projects\\Germany\\Services\\Dresden\\Cinema.geojson" }, "geometry": { "type": "Point", "coordinates": [ 12.8389923, 50.8152795 ] } },
{ "type": "Feature", "properties": { "osm_id": "353218816", "code": 2203, "fclass": "cinema", "name": "Filmpalast", "layer": "Cinema", "path": "C:\\Users\\sanojan\\Desktop\\sano Tcp\\sem5\\personal\\Projects\\Germany\\Services\\Dresden\\Cinema.geojson" }, "geometry": { "type": "Point", "coordinates": [ 14.806643, 50.8954348 ] } },
{ "type": "Feature", "properties": { "osm_id": "378578170", "code": 2203, "fclass": "cinema", "name": "Kino \"Bürgerhaus Groitzsch\"", "layer": "Cinema", "path": "C:\\Users\\sanojan\\Desktop\\sano Tcp\\sem5\\personal\\Projects\\Germany\\Services\\Dresden\\Cinema.geojson" }, "geometry": { "type": "Point", "coordinates": [ 12.2804574, 51.1566046 ] } },
{ "type": "Feature", "properties": { "osm_id": "385347115", "code": 2203, "fclass": "cinema", "name": "Kinopolis Freiberg", "layer": "Cinema", "path": "C:\\Users\\sanojan\\Desktop\\sano Tcp\\sem5\\personal\\Projects\\Germany\\Services\\Dresden\\Cinema.geojson" }, "geometry": { "type": "Point", "coordinates": [ 13.3176601, 50.9079245 ] } },
{ "type": "Feature", "properties": { "osm_id": "461166216", "code": 2203, "fclass": "cinema", "name": "Cinemotion Hoyerswerda", "layer": "Cinema", "path": "C:\\Users\\sanojan\\Desktop\\sano Tcp\\sem5\\personal\\Projects\\Germany\\Services\\Dresden\\Cinema.geojson" }, "geometry": { "type": "Point", "coordinates": [ 14.2452139, 51.4382013 ] } },
{ "type": "Feature", "properties": { "osm_id": "492666396", "code": 2203, "fclass": "cinema", "name": "Club Passage", "layer": "Cinema", "path": "C:\\Users\\sanojan\\Desktop\\sano Tcp\\sem5\\personal\\Projects\\Germany\\Services\\Dresden\\Cinema.geojson" }, "geometry": { "type": "Point", "coordinates": [ 13.6767426, 51.0454201 ] } },
{ "type": "Feature", "properties": { "osm_id": "523045750", "code": 2203, "fclass": "cinema", "name": "Filmpalast Pirna", "layer": "Cinema", "path": "C:\\Users\\sanojan\\Desktop\\sano Tcp\\sem5\\personal\\Projects\\Germany\\Services\\Dresden\\Cinema.geojson" }, "geometry": { "type": "Point", "coordinates": [ 13.9343973, 50.9618282 ] } },
{ "type": "Feature", "properties": { "osm_id": "543364692", "code": 2203, "fclass": "cinema", "name": "Cinémathèque in der NaTo", "layer": "Cinema", "path": "C:\\Users\\sanojan\\Desktop\\sano Tcp\\sem5\\personal\\Projects\\Germany\\Services\\Dresden\\Cinema.geojson" }, "geometry": { "type": "Point", "coordinates": [ 12.3733139, 51.3251014 ] } },
{ "type": "Feature", "properties": { "osm_id": "660507239", "code": 2203, "fclass": "cinema", "name": "Luru-Kino in der Spinnerei", "layer": "Cinema", "path": "C:\\Users\\sanojan\\Desktop\\sano Tcp\\sem5\\personal\\Projects\\Germany\\Services\\Dresden\\Cinema.geojson" }, "geometry": { "type": "Point", "coordinates": [ 12.3191048, 51.3267708 ] } },
{ "type": "Feature", "properties": { "osm_id": "804886298", "code": 2203, "fclass": "cinema", "name": "Lichtspielhaus Grimma", "layer": "Cinema", "path": "C:\\Users\\sanojan\\Desktop\\sano Tcp\\sem5\\personal\\Projects\\Germany\\Services\\Dresden\\Cinema.geojson" }, "geometry": { "type": "Point", "coordinates": [ 12.7263112, 51.2360433 ] } },
{ "type": "Feature", "properties": { "osm_id": "845023144", "code": 2203, "fclass": "cinema", "name": "Filmclub »mittendrin«", "layer": "Cinema", "path": "C:\\Users\\sanojan\\Desktop\\sano Tcp\\sem5\\personal\\Projects\\Germany\\Services\\Dresden\\Cinema.geojson" }, "geometry": { "type": "Point", "coordinates": [ 12.930151, 50.8181593 ] } },
{ "type": "Feature", "properties": { "osm_id": "1363686802", "code": 2203, "fclass": "cinema", "name": null, "layer": "Cinema", "path": "C:\\Users\\sanojan\\Desktop\\sano Tcp\\sem5\\personal\\Projects\\Germany\\Services\\Dresden\\Cinema.geojson" }, "geometry": { "type": "Point", "coordinates": [ 14.7866265, 51.3960762 ] } },
{ "type": "Feature", "properties": { "osm_id": "1367047830", "code": 2203, "fclass": "cinema", "name": "Camillo", "layer": "Cinema", "path": "C:\\Users\\sanojan\\Desktop\\sano Tcp\\sem5\\personal\\Projects\\Germany\\Services\\Dresden\\Cinema.geojson" }, "geometry": { "type": "Point", "coordinates": [ 14.99349, 51.155828 ] } },
{ "type": "Feature", "properties": { "osm_id": "1846695183", "code": 2203, "fclass": "cinema", "name": "Kunstbauerkino", "layer": "Cinema", "path": "C:\\Users\\sanojan\\Desktop\\sano Tcp\\sem5\\personal\\Projects\\Germany\\Services\\Dresden\\Cinema.geojson" }, "geometry": { "type": "Point", "coordinates": [ 14.7960359, 50.9915574 ] } },
{ "type": "Feature", "properties": { "osm_id": "1928160747", "code": 2203, "fclass": "cinema", "name": "Filmgalerie Großenhain", "layer": "Cinema", "path": "C:\\Users\\sanojan\\Desktop\\sano Tcp\\sem5\\personal\\Projects\\Germany\\Services\\Dresden\\Cinema.geojson" }, "geometry": { "type": "Point", "coordinates": [ 13.5325304, 51.2915964 ] } },
{ "type": "Feature", "properties": { "osm_id": "1997887670", "code": 2203, "fclass": "cinema", "name": "Kino Panorama", "layer": "Cinema", "path": "C:\\Users\\sanojan\\Desktop\\sano Tcp\\sem5\\personal\\Projects\\Germany\\Services\\Dresden\\Cinema.geojson" }, "geometry": { "type": "Point", "coordinates": [ 14.630275, 50.9044294 ] } },
{ "type": "Feature", "properties": { "osm_id": "2245274808", "code": 2203, "fclass": "cinema", "name": "CineStar", "layer": "Cinema", "path": "C:\\Users\\sanojan\\Desktop\\sano Tcp\\sem5\\personal\\Projects\\Germany\\Services\\Dresden\\Cinema.geojson" }, "geometry": { "type": "Point", "coordinates": [ 12.9209944, 50.8336945 ] } },
{ "type": "Feature", "properties": { "osm_id": "2401271275", "code": 2203, "fclass": "cinema", "name": "Regina Palast", "layer": "Cinema", "path": "C:\\Users\\sanojan\\Desktop\\sano Tcp\\sem5\\personal\\Projects\\Germany\\Services\\Dresden\\Cinema.geojson" }, "geometry": { "type": "Point", "coordinates": [ 12.4014855, 51.3390459 ] } },
{ "type": "Feature", "properties": { "osm_id": "2435835465", "code": 2203, "fclass": "cinema", "name": "Kino im Weltecho", "layer": "Cinema", "path": "C:\\Users\\sanojan\\Desktop\\sano Tcp\\sem5\\personal\\Projects\\Germany\\Services\\Dresden\\Cinema.geojson" }, "geometry": { "type": "Point", "coordinates": [ 12.920321, 50.8284656 ] } },
{ "type": "Feature", "properties": { "osm_id": "2507395701", "code": 2203, "fclass": "cinema", "name": "Clubkino Gelenau", "layer": "Cinema", "path": "C:\\Users\\sanojan\\Desktop\\sano Tcp\\sem5\\personal\\Projects\\Germany\\Services\\Dresden\\Cinema.geojson" }, "geometry": { "type": "Point", "coordinates": [ 12.9778914, 50.7118697 ] } },
{ "type": "Feature", "properties": { "osm_id": "3274807361", "code": 2203, "fclass": "cinema", "name": "Steinhaus-Kino", "layer": "Cinema", "path": "C:\\Users\\sanojan\\Desktop\\sano Tcp\\sem5\\personal\\Projects\\Germany\\Services\\Dresden\\Cinema.geojson" }, "geometry": { "type": "Point", "coordinates": [ 14.4320425, 51.1814387 ] } },
{ "type": "Feature", "properties": { "osm_id": "3635722668", "code": 2203, "fclass": "cinema", "name": "Grenzland-Lichtspiele", "layer": "Cinema", "path": "C:\\Users\\sanojan\\Desktop\\sano Tcp\\sem5\\personal\\Projects\\Germany\\Services\\Dresden\\Cinema.geojson" }, "geometry": { "type": "Point", "coordinates": [ 14.2148839, 51.0264174 ] } },
{ "type": "Feature", "properties": { "osm_id": "4176236170", "code": 2203, "fclass": "cinema", "name": "Ring Kino Schwarzenberg", "layer": "Cinema", "path": "C:\\Users\\sanojan\\Desktop\\sano Tcp\\sem5\\personal\\Projects\\Germany\\Services\\Dresden\\Cinema.geojson" }, "geometry": { "type": "Point", "coordinates": [ 12.7835005, 50.5462817 ] } },
{ "type": "Feature", "properties": { "osm_id": "4374456872", "code": 2203, "fclass": "cinema", "name": "Horské kino Kateřina", "layer": "Cinema", "path": "C:\\Users\\sanojan\\Desktop\\sano Tcp\\sem5\\personal\\Projects\\Germany\\Services\\Dresden\\Cinema.geojson" }, "geometry": { "type": "Point", "coordinates": [ 13.4383676, 50.6055954 ] } },
{ "type": "Feature", "properties": { "osm_id": "5706475065", "code": 2203, "fclass": "cinema", "name": "Gloria", "layer": "Cinema", "path": "C:\\Users\\sanojan\\Desktop\\sano Tcp\\sem5\\personal\\Projects\\Germany\\Services\\Dresden\\Cinema.geojson" }, "geometry": { "type": "Point", "coordinates": [ 13.002056, 50.5788191 ] } },
{ "type": "Feature", "properties": { "osm_id": "6029955243", "code": 2203, "fclass": "cinema", "name": "Oskars Illusionswelt", "layer": "Cinema", "path": "C:\\Users\\sanojan\\Desktop\\sano Tcp\\sem5\\personal\\Projects\\Germany\\Services\\Dresden\\Cinema.geojson" }, "geometry": { "type": "Point", "coordinates": [ 13.6647721, 51.0044884 ] } },
{ "type": "Feature", "properties": { "osm_id": "7549750219", "code": 2203, "fclass": "cinema", "name": "Autokino Langenhessen", "layer": "Cinema", "path": "C:\\Users\\sanojan\\Desktop\\sano Tcp\\sem5\\personal\\Projects\\Germany\\Services\\Dresden\\Cinema.geojson" }, "geometry": { "type": "Point", "coordinates": [ 12.3513319, 50.7672199 ] } },
{ "type": "Feature", "properties": { "osm_id": "7952690911", "code": 2203, "fclass": "cinema", "name": "Zentralkino", "layer": "Cinema", "path": "C:\\Users\\sanojan\\Desktop\\sano Tcp\\sem5\\personal\\Projects\\Germany\\Services\\Dresden\\Cinema.geojson" }, "geometry": { "type": "Point", "coordinates": [ 13.7214022, 51.0526152 ] } },
{ "type": "Feature", "properties": { "osm_id": "8565832569", "code": 2203, "fclass": "cinema", "name": "Autokino Halbendorf", "layer": "Cinema", "path": "C:\\Users\\sanojan\\Desktop\\sano Tcp\\sem5\\personal\\Projects\\Germany\\Services\\Dresden\\Cinema.geojson" }, "geometry": { "type": "Point", "coordinates": [ 14.5617598, 51.5428673 ] } },
{ "type": "Feature", "properties": { "osm_id": "11795451745", "code": 2203, "fclass": "cinema", "name": "Cinémathéque", "layer": "Cinema", "path": "C:\\Users\\sanojan\\Desktop\\sano Tcp\\sem5\\personal\\Projects\\Germany\\Services\\Dresden\\Cinema.geojson" }, "geometry": { "type": "Point", "coordinates": [ 12.3737792, 51.3199817 ] } },
{ "type": "Feature", "properties": { "osm_id": "12737563706", "code": 2203, "fclass": "cinema", "name": "Sommerkino auf der Feinkost", "layer": "Cinema", "path": "C:\\Users\\sanojan\\Desktop\\sano Tcp\\sem5\\personal\\Projects\\Germany\\Services\\Dresden\\Cinema.geojson" }, "geometry": { "type": "Point", "coordinates": [ 12.3731211, 51.3263286 ] } },
{ "type": "Feature", "properties": { "osm_id": "29040741", "code": 2203, "fclass": "cinema", "name": "Filmrauschpalast", "layer": "Cinema", "path": "C:/Users/sanojan/Desktop/sano Tcp/sem5/personal/Projects/Germany/Services/Service_Brandenberg/Jsons/Cinema.geojson" }, "geometry": { "type": "Point", "coordinates": [ 13.3596231, 52.5343784 ] } },
{ "type": "Feature", "properties": { "osm_id": "79615774", "code": 2203, "fclass": "cinema", "name": "CineStar", "layer": "Cinema", "path": "C:/Users/sanojan/Desktop/sano Tcp/sem5/personal/Projects/Germany/Services/Service_Brandenberg/Jsons/Cinema.geojson" }, "geometry": { "type": "Point", "coordinates": [ 13.2860048, 52.5839192 ] } },
{ "type": "Feature", "properties": { "osm_id": "101186634", "code": 2203, "fclass": "cinema", "name": "UCI Am Eastgate", "layer": "Cinema", "path": "C:/Users/sanojan/Desktop/sano Tcp/sem5/personal/Projects/Germany/Services/Service_Brandenberg/Jsons/Cinema.geojson" }, "geometry": { "type": "Point", "coordinates": [ 13.5420275, 52.5417516 ] } },
{ "type": "Feature", "properties": { "osm_id": "251559871", "code": 2203, "fclass": "cinema", "name": "Kino Intimes", "layer": "Cinema", "path": "C:/Users/sanojan/Desktop/sano Tcp/sem5/personal/Projects/Germany/Services/Service_Brandenberg/Jsons/Cinema.geojson" }, "geometry": { "type": "Point", "coordinates": [ 13.4581955, 52.5129109 ] } },
{ "type": "Feature", "properties": { "osm_id": "256754256", "code": 2203, "fclass": "cinema", "name": "Kino Babylon", "layer": "Cinema", "path": "C:/Users/sanojan/Desktop/sano Tcp/sem5/personal/Projects/Germany/Services/Service_Brandenberg/Jsons/Cinema.geojson" }, "geometry": { "type": "Point", "coordinates": [ 13.4114358, 52.5258989 ] } },
{ "type": "Feature", "properties": { "osm_id": "263393862", "code": 2203, "fclass": "cinema", "name": "UCI Potsdam | Luxe", "layer": "Cinema", "path": "C:/Users/sanojan/Desktop/sano Tcp/sem5/personal/Projects/Germany/Services/Service_Brandenberg/Jsons/Cinema.geojson" }, "geometry": { "type": "Point", "coordinates": [ 13.0654902, 52.39255 ] } },
{ "type": "Feature", "properties": { "osm_id": "263402082", "code": 2203, "fclass": "cinema", "name": "Kino im Filmmuseum Potsdam", "layer": "Cinema", "path": "C:/Users/sanojan/Desktop/sano Tcp/sem5/personal/Projects/Germany/Services/Service_Brandenberg/Jsons/Cinema.geojson" }, "geometry": { "type": "Point", "coordinates": [ 13.0575726, 52.3953347 ] } },
{ "type": "Feature", "properties": { "osm_id": "270347505", "code": 2203, "fclass": "cinema", "name": "Kino Movieland", "layer": "Cinema", "path": "C:/Users/sanojan/Desktop/sano Tcp/sem5/personal/Projects/Germany/Services/Service_Brandenberg/Jsons/Cinema.geojson" }, "geometry": { "type": "Point", "coordinates": [ 13.7538315, 52.4221808 ] } },
{ "type": "Feature", "properties": { "osm_id": "272004025", "code": 2203, "fclass": "cinema", "name": "Cineplex", "layer": "Cinema", "path": "C:/Users/sanojan/Desktop/sano Tcp/sem5/personal/Projects/Germany/Services/Service_Brandenberg/Jsons/Cinema.geojson" }, "geometry": { "type": "Point", "coordinates": [ 13.2063427, 52.5385009 ] } },
{ "type": "Feature", "properties": { "osm_id": "273477667", "code": 2203, "fclass": "cinema", "name": "Kino Spreehöfe", "layer": "Cinema", "path": "C:/Users/sanojan/Desktop/sano Tcp/sem5/personal/Projects/Germany/Services/Service_Brandenberg/Jsons/Cinema.geojson" }, "geometry": { "type": "Point", "coordinates": [ 13.5121795, 52.4620593 ] } },
{ "type": "Feature", "properties": { "osm_id": "277004600", "code": 2203, "fclass": "cinema", "name": "Cosima", "layer": "Cinema", "path": "C:/Users/sanojan/Desktop/sano Tcp/sem5/personal/Projects/Germany/Services/Service_Brandenberg/Jsons/Cinema.geojson" }, "geometry": { "type": "Point", "coordinates": [ 13.3304523, 52.4769552 ] } },
{ "type": "Feature", "properties": { "osm_id": "281887442", "code": 2203, "fclass": "cinema", "name": "Kino Toni & Tonino", "layer": "Cinema", "path": "C:/Users/sanojan/Desktop/sano Tcp/sem5/personal/Projects/Germany/Services/Service_Brandenberg/Jsons/Cinema.geojson" }, "geometry": { "type": "Point", "coordinates": [ 13.4509296, 52.5488199 ] } },
{ "type": "Feature", "properties": { "osm_id": "299288097", "code": 2203, "fclass": "cinema", "name": "Kino im Kulturhaus Spandau", "layer": "Cinema", "path": "C:/Users/sanojan/Desktop/sano Tcp/sem5/personal/Projects/Germany/Services/Service_Brandenberg/Jsons/Cinema.geojson" }, "geometry": { "type": "Point", "coordinates": [ 13.2024584, 52.5354615 ] } },
{ "type": "Feature", "properties": { "osm_id": "301209610", "code": 2203, "fclass": "cinema", "name": "Kino-Café-Bar Dahme", "layer": "Cinema", "path": "C:/Users/sanojan/Desktop/sano Tcp/sem5/personal/Projects/Germany/Services/Service_Brandenberg/Jsons/Cinema.geojson" }, "geometry": { "type": "Point", "coordinates": [ 13.4286457, 51.8684419 ] } },
{ "type": "Feature", "properties": { "osm_id": "306592727", "code": 2203, "fclass": "cinema", "name": "Neue Kammerspiele", "layer": "Cinema", "path": "C:/Users/sanojan/Desktop/sano Tcp/sem5/personal/Projects/Germany/Services/Service_Brandenberg/Jsons/Cinema.geojson" }, "geometry": { "type": "Point", "coordinates": [ 13.2263724, 52.4176037 ] } },
{ "type": "Feature", "properties": { "osm_id": "312618622", "code": 2203, "fclass": "cinema", "name": "Kant Kino", "layer": "Cinema", "path": "C:/Users/sanojan/Desktop/sano Tcp/sem5/personal/Projects/Germany/Services/Service_Brandenberg/Jsons/Cinema.geojson" }, "geometry": { "type": "Point", "coordinates": [ 13.3084282, 52.5067663 ] } },
{ "type": "Feature", "properties": { "osm_id": "313628115", "code": 2203, "fclass": "cinema", "name": "Haveltor-Kino Rathenow", "layer": "Cinema", "path": "C:/Users/sanojan/Desktop/sano Tcp/sem5/personal/Projects/Germany/Services/Service_Brandenberg/Jsons/Cinema.geojson" }, "geometry": { "type": "Point", "coordinates": [ 12.3291121, 52.6086501 ] } },
{ "type": "Feature", "properties": { "osm_id": "313942258", "code": 2203, "fclass": "cinema", "name": "CineStar", "layer": "Cinema", "path": "C:/Users/sanojan/Desktop/sano Tcp/sem5/personal/Projects/Germany/Services/Service_Brandenberg/Jsons/Cinema.geojson" }, "geometry": { "type": "Point", "coordinates": [ 13.6041151, 52.5377975 ] } },
{ "type": "Feature", "properties": { "osm_id": "331345531", "code": 2203, "fclass": "cinema", "name": "Sputnik Kino", "layer": "Cinema", "path": "C:/Users/sanojan/Desktop/sano Tcp/sem5/personal/Projects/Germany/Services/Service_Brandenberg/Jsons/Cinema.geojson" }, "geometry": { "type": "Point", "coordinates": [ 13.4101466, 52.4899914 ] } },
{ "type": "Feature", "properties": { "osm_id": "333351711", "code": 2203, "fclass": "cinema", "name": "Cineplex", "layer": "Cinema", "path": "C:/Users/sanojan/Desktop/sano Tcp/sem5/personal/Projects/Germany/Services/Service_Brandenberg/Jsons/Cinema.geojson" }, "geometry": { "type": "Point", "coordinates": [ 13.4316965, 52.4819661 ] } },
{ "type": "Feature", "properties": { "osm_id": "339825650", "code": 2203, "fclass": "cinema", "name": "Lichtblick", "layer": "Cinema", "path": "C:/Users/sanojan/Desktop/sano Tcp/sem5/personal/Projects/Germany/Services/Service_Brandenberg/Jsons/Cinema.geojson" }, "geometry": { "type": "Point", "coordinates": [ 13.4077602, 52.5364987 ] } },
{ "type": "Feature", "properties": { "osm_id": "343650200", "code": 2203, "fclass": "cinema", "name": "Hackesche Höfe Kino", "layer": "Cinema", "path": "C:/Users/sanojan/Desktop/sano Tcp/sem5/personal/Projects/Germany/Services/Service_Brandenberg/Jsons/Cinema.geojson" }, "geometry": { "type": "Point", "coordinates": [ 13.4019071, 52.5240668 ] } },
{ "type": "Feature", "properties": { "osm_id": "343650283", "code": 2203, "fclass": "cinema", "name": "Kino Central", "layer": "Cinema", "path": "C:/Users/sanojan/Desktop/sano Tcp/sem5/personal/Projects/Germany/Services/Service_Brandenberg/Jsons/Cinema.geojson" }, "geometry": { "type": "Point", "coordinates": [ 13.4018422, 52.5245664 ] } },
{ "type": "Feature", "properties": { "osm_id": "350460866", "code": 2203, "fclass": "cinema", "name": "fsk - Kino am Oranienplatz", "layer": "Cinema", "path": "C:/Users/sanojan/Desktop/sano Tcp/sem5/personal/Projects/Germany/Services/Service_Brandenberg/Jsons/Cinema.geojson" }, "geometry": { "type": "Point", "coordinates": [ 13.4145507, 52.5015261 ] } },
{ "type": "Feature", "properties": { "osm_id": "350460874", "code": 2203, "fclass": "cinema", "name": "Babylon Kreuzberg", "layer": "Cinema", "path": "C:/Users/sanojan/Desktop/sano Tcp/sem5/personal/Projects/Germany/Services/Service_Brandenberg/Jsons/Cinema.geojson" }, "geometry": { "type": "Point", "coordinates": [ 13.4169229, 52.5006568 ] } },
{ "type": "Feature", "properties": { "osm_id": "352907002", "code": 2203, "fclass": "cinema", "name": "Xenon", "layer": "Cinema", "path": "C:/Users/sanojan/Desktop/sano Tcp/sem5/personal/Projects/Germany/Services/Service_Brandenberg/Jsons/Cinema.geojson" }, "geometry": { "type": "Point", "coordinates": [ 13.3593976, 52.4863303 ] } },
{ "type": "Feature", "properties": { "osm_id": "355946428", "code": 2203, "fclass": "cinema", "name": "Yorck", "layer": "Cinema", "path": "C:/Users/sanojan/Desktop/sano Tcp/sem5/personal/Projects/Germany/Services/Service_Brandenberg/Jsons/Cinema.geojson" }, "geometry": { "type": "Point", "coordinates": [ 13.3853593, 52.4930489 ] } },
{ "type": "Feature", "properties": { "osm_id": "356940111", "code": 2203, "fclass": "cinema", "name": "Union Filmtheater", "layer": "Cinema", "path": "C:/Users/sanojan/Desktop/sano Tcp/sem5/personal/Projects/Germany/Services/Service_Brandenberg/Jsons/Cinema.geojson" }, "geometry": { "type": "Point", "coordinates": [ 13.1709403, 52.0861325 ] } },
{ "type": "Feature", "properties": { "osm_id": "388325296", "code": 2203, "fclass": "cinema", "name": "Blauer Stern", "layer": "Cinema", "path": "C:/Users/sanojan/Desktop/sano Tcp/sem5/personal/Projects/Germany/Services/Service_Brandenberg/Jsons/Cinema.geojson" }, "geometry": { "type": "Point", "coordinates": [ 13.401489, 52.5803587 ] } },
{ "type": "Feature", "properties": { "osm_id": "391462594", "code": 2203, "fclass": "cinema", "name": "UCI Kinowelt", "layer": "Cinema", "path": "C:/Users/sanojan/Desktop/sano Tcp/sem5/personal/Projects/Germany/Services/Service_Brandenberg/Jsons/Cinema.geojson" }, "geometry": { "type": "Point", "coordinates": [ 13.4554457, 52.4295254 ] } },
{ "type": "Feature", "properties": { "osm_id": "428058885", "code": 2203, "fclass": "cinema", "name": "CineStar", "layer": "Cinema", "path": "C:/Users/sanojan/Desktop/sano Tcp/sem5/personal/Projects/Germany/Services/Service_Brandenberg/Jsons/Cinema.geojson" }, "geometry": { "type": "Point", "coordinates": [ 13.6036696, 52.314279 ] } },
{ "type": "Feature", "properties": { "osm_id": "428546460", "code": 2203, "fclass": "cinema", "name": "Capitol - Das Kulturkino", "layer": "Cinema", "path": "C:/Users/sanojan/Desktop/sano Tcp/sem5/personal/Projects/Germany/Services/Service_Brandenberg/Jsons/Cinema.geojson" }, "geometry": { "type": "Point", "coordinates": [ 13.6299064, 52.2967404 ] } },
{ "type": "Feature", "properties": { "osm_id": "437291301", "code": 2203, "fclass": "cinema", "name": "Cinestar Cubix am Alexanderplatz", "layer": "Cinema", "path": "C:/Users/sanojan/Desktop/sano Tcp/sem5/personal/Projects/Germany/Services/Service_Brandenberg/Jsons/Cinema.geojson" }, "geometry": { "type": "Point", "coordinates": [ 13.412091, 52.5202139 ] } },
{ "type": "Feature", "properties": { "osm_id": "445183276", "code": 2203, "fclass": "cinema", "name": "Parklichtspiele Buckow", "layer": "Cinema", "path": "C:/Users/sanojan/Desktop/sano Tcp/sem5/personal/Projects/Germany/Services/Service_Brandenberg/Jsons/Cinema.geojson" }, "geometry": { "type": "Point", "coordinates": [ 14.0730829, 52.5686261 ] } },
{ "type": "Feature", "properties": { "osm_id": "447078290", "code": 2203, "fclass": "cinema", "name": "Brotfabrik", "layer": "Cinema", "path": "C:/Users/sanojan/Desktop/sano Tcp/sem5/personal/Projects/Germany/Services/Service_Brandenberg/Jsons/Cinema.geojson" }, "geometry": { "type": "Point", "coordinates": [ 13.4305846, 52.5525596 ] } },
{ "type": "Feature", "properties": { "osm_id": "448811295", "code": 2203, "fclass": "cinema", "name": "Moviemento", "layer": "Cinema", "path": "C:/Users/sanojan/Desktop/sano Tcp/sem5/personal/Projects/Germany/Services/Service_Brandenberg/Jsons/Cinema.geojson" }, "geometry": { "type": "Point", "coordinates": [ 13.4234006, 52.4903342 ] } },
{ "type": "Feature", "properties": { "osm_id": "450094788", "code": 2203, "fclass": "cinema", "name": "Filmpalast Bernau", "layer": "Cinema", "path": "C:/Users/sanojan/Desktop/sano Tcp/sem5/personal/Projects/Germany/Services/Service_Brandenberg/Jsons/Cinema.geojson" }, "geometry": { "type": "Point", "coordinates": [ 13.5959286, 52.6762466 ] } },
{ "type": "Feature", "properties": { "osm_id": "474801031", "code": 2203, "fclass": "cinema", "name": "Passage", "layer": "Cinema", "path": "C:/Users/sanojan/Desktop/sano Tcp/sem5/personal/Projects/Germany/Services/Service_Brandenberg/Jsons/Cinema.geojson" }, "geometry": { "type": "Point", "coordinates": [ 13.439406, 52.4774811 ] } },
{ "type": "Feature", "properties": { "osm_id": "494156434", "code": 2203, "fclass": "cinema", "name": "Tilsiter Lichtspiele", "layer": "Cinema", "path": "C:/Users/sanojan/Desktop/sano Tcp/sem5/personal/Projects/Germany/Services/Service_Brandenberg/Jsons/Cinema.geojson" }, "geometry": { "type": "Point", "coordinates": [ 13.447355, 52.5207515 ] } },
{ "type": "Feature", "properties": { "osm_id": "518009866", "code": 2203, "fclass": "cinema", "name": "Kammerspiele", "layer": "Cinema", "path": "C:/Users/sanojan/Desktop/sano Tcp/sem5/personal/Projects/Germany/Services/Service_Brandenberg/Jsons/Cinema.geojson" }, "geometry": { "type": "Point", "coordinates": [ 12.8660659, 52.0954322 ] } },
{ "type": "Feature", "properties": { "osm_id": "539643865", "code": 2203, "fclass": "cinema", "name": "Union Filmtheater", "layer": "Cinema", "path": "C:/Users/sanojan/Desktop/sano Tcp/sem5/personal/Projects/Germany/Services/Service_Brandenberg/Jsons/Cinema.geojson" }, "geometry": { "type": "Point", "coordinates": [ 13.8594944, 53.315294 ] } },
{ "type": "Feature", "properties": { "osm_id": "552717153", "code": 2203, "fclass": "cinema", "name": "Spreekino", "layer": "Cinema", "path": "C:/Users/sanojan/Desktop/sano Tcp/sem5/personal/Projects/Germany/Services/Service_Brandenberg/Jsons/Cinema.geojson" }, "geometry": { "type": "Point", "coordinates": [ 14.3798884, 51.5717002 ] } },
{ "type": "Feature", "properties": { "osm_id": "609911082", "code": 2203, "fclass": "cinema", "name": "ACUDkino", "layer": "Cinema", "path": "C:/Users/sanojan/Desktop/sano Tcp/sem5/personal/Projects/Germany/Services/Service_Brandenberg/Jsons/Cinema.geojson" }, "geometry": { "type": "Point", "coordinates": [ 13.4008151, 52.5336588 ] } },
{ "type": "Feature", "properties": { "osm_id": "638313755", "code": 2203, "fclass": "cinema", "name": "Casablanca", "layer": "Cinema", "path": "C:/Users/sanojan/Desktop/sano Tcp/sem5/personal/Projects/Germany/Services/Service_Brandenberg/Jsons/Cinema.geojson" }, "geometry": { "type": "Point", "coordinates": [ 13.547897, 52.435842 ] } },
{ "type": "Feature", "properties": { "osm_id": "652134352", "code": 2203, "fclass": "cinema", "name": "CineMotion Brandenburg", "layer": "Cinema", "path": "C:/Users/sanojan/Desktop/sano Tcp/sem5/personal/Projects/Germany/Services/Service_Brandenberg/Jsons/Cinema.geojson" }, "geometry": { "type": "Point", "coordinates": [ 12.560011, 52.4073846 ] } },
{ "type": "Feature", "properties": { "osm_id": "655286254", "code": 2203, "fclass": "cinema", "name": "CineStar", "layer": "Cinema", "path": "C:/Users/sanojan/Desktop/sano Tcp/sem5/personal/Projects/Germany/Services/Service_Brandenberg/Jsons/Cinema.geojson" }, "geometry": { "type": "Point", "coordinates": [ 14.5536281, 52.343506 ] } },
{ "type": "Feature", "properties": { "osm_id": "660899079", "code": 2203, "fclass": "cinema", "name": "Freiluftkino Kreuzberg", "layer": "Cinema", "path": "C:/Users/sanojan/Desktop/sano Tcp/sem5/personal/Projects/Germany/Services/Service_Brandenberg/Jsons/Cinema.geojson" }, "geometry": { "type": "Point", "coordinates": [ 13.4234804, 52.5040614 ] } },
{ "type": "Feature", "properties": { "osm_id": "662864720", "code": 2203, "fclass": "cinema", "name": "Rollberg Kino", "layer": "Cinema", "path": "C:/Users/sanojan/Desktop/sano Tcp/sem5/personal/Projects/Germany/Services/Service_Brandenberg/Jsons/Cinema.geojson" }, "geometry": { "type": "Point", "coordinates": [ 13.4280286, 52.4787966 ] } },
{ "type": "Feature", "properties": { "osm_id": "675243681", "code": 2203, "fclass": "cinema", "name": "CinemaxX", "layer": "Cinema", "path": "C:/Users/sanojan/Desktop/sano Tcp/sem5/personal/Projects/Germany/Services/Service_Brandenberg/Jsons/Cinema.geojson" }, "geometry": { "type": "Point", "coordinates": [ 13.3737448, 52.5086444 ] } },
{ "type": "Feature", "properties": { "osm_id": "792057385", "code": 2203, "fclass": "cinema", "name": "Die Kiste", "layer": "Cinema", "path": "C:/Users/sanojan/Desktop/sano Tcp/sem5/personal/Projects/Germany/Services/Service_Brandenberg/Jsons/Cinema.geojson" }, "geometry": { "type": "Point", "coordinates": [ 13.6094676, 52.5361682 ] } },
{ "type": "Feature", "properties": { "osm_id": "837792482", "code": 2203, "fclass": "cinema", "name": "Neues Off", "layer": "Cinema", "path": "C:/Users/sanojan/Desktop/sano Tcp/sem5/personal/Projects/Germany/Services/Service_Brandenberg/Jsons/Cinema.geojson" }, "geometry": { "type": "Point", "coordinates": [ 13.4244236, 52.4834225 ] } },
{ "type": "Feature", "properties": { "osm_id": "864147641", "code": 2203, "fclass": "cinema", "name": "Movie Magic Eberswalde", "layer": "Cinema", "path": "C:/Users/sanojan/Desktop/sano Tcp/sem5/personal/Projects/Germany/Services/Service_Brandenberg/Jsons/Cinema.geojson" }, "geometry": { "type": "Point", "coordinates": [ 13.78685, 52.8363809 ] } },
{ "type": "Feature", "properties": { "osm_id": "979081268", "code": 2203, "fclass": "cinema", "name": "Titania-Palast", "layer": "Cinema", "path": "C:/Users/sanojan/Desktop/sano Tcp/sem5/personal/Projects/Germany/Services/Service_Brandenberg/Jsons/Cinema.geojson" }, "geometry": { "type": "Point", "coordinates": [ 13.3266521, 52.4641482 ] } },
{ "type": "Feature", "properties": { "osm_id": "1139709054", "code": 2203, "fclass": "cinema", "name": "FilmforUM Schwedt", "layer": "Cinema", "path": "C:/Users/sanojan/Desktop/sano Tcp/sem5/personal/Projects/Germany/Services/Service_Brandenberg/Jsons/Cinema.geojson" }, "geometry": { "type": "Point", "coordinates": [ 14.2655444, 53.0688379 ] } },
{ "type": "Feature", "properties": { "osm_id": "1197273317", "code": 2203, "fclass": "cinema", "name": "OpenAirKino Spandau", "layer": "Cinema", "path": "C:/Users/sanojan/Desktop/sano Tcp/sem5/personal/Projects/Germany/Services/Service_Brandenberg/Jsons/Cinema.geojson" }, "geometry": { "type": "Point", "coordinates": [ 13.2015024, 52.5364431 ] } },
{ "type": "Feature", "properties": { "osm_id": "1336816758", "code": 2203, "fclass": "cinema", "name": "Sweet Secrets", "layer": "Cinema", "path": "C:/Users/sanojan/Desktop/sano Tcp/sem5/personal/Projects/Germany/Services/Service_Brandenberg/Jsons/Cinema.geojson" }, "geometry": { "type": "Point", "coordinates": [ 13.2028074, 52.5383336 ] } },
{ "type": "Feature", "properties": { "osm_id": "1345927481", "code": 2203, "fclass": "cinema", "name": "Schukurama", "layer": "Cinema", "path": "C:/Users/sanojan/Desktop/sano Tcp/sem5/personal/Projects/Germany/Services/Service_Brandenberg/Jsons/Cinema.geojson" }, "geometry": { "type": "Point", "coordinates": [ 14.2490098, 52.1757368 ] } },
{ "type": "Feature", "properties": { "osm_id": "1569218585", "code": 2203, "fclass": "cinema", "name": "Kino Sex Shop", "layer": "Cinema", "path": "C:/Users/sanojan/Desktop/sano Tcp/sem5/personal/Projects/Germany/Services/Service_Brandenberg/Jsons/Cinema.geojson" }, "geometry": { "type": "Point", "coordinates": [ 13.4275386, 52.4896169 ] } },
{ "type": "Feature", "properties": { "osm_id": "1585582168", "code": 2203, "fclass": "cinema", "name": "UNION Filmtheater Neuruppin", "layer": "Cinema", "path": "C:/Users/sanojan/Desktop/sano Tcp/sem5/personal/Projects/Germany/Services/Service_Brandenberg/Jsons/Cinema.geojson" }, "geometry": { "type": "Point", "coordinates": [ 12.7865206, 52.9186699 ] } },
{ "type": "Feature", "properties": { "osm_id": "1645455754", "code": 2203, "fclass": "cinema", "name": null, "layer": "Cinema", "path": "C:/Users/sanojan/Desktop/sano Tcp/sem5/personal/Projects/Germany/Services/Service_Brandenberg/Jsons/Cinema.geojson" }, "geometry": { "type": "Point", "coordinates": [ 14.5031458, 52.275537 ] } },
{ "type": "Feature", "properties": { "osm_id": "1787511231", "code": 2203, "fclass": "cinema", "name": "b-ware! ladenkino", "layer": "Cinema", "path": "C:/Users/sanojan/Desktop/sano Tcp/sem5/personal/Projects/Germany/Services/Service_Brandenberg/Jsons/Cinema.geojson" }, "geometry": { "type": "Point", "coordinates": [ 13.4616485, 52.5118751 ] } },
{ "type": "Feature", "properties": { "osm_id": "1863569258", "code": 2203, "fclass": "cinema", "name": "Filmtheater am Friedrichshain", "layer": "Cinema", "path": "C:/Users/sanojan/Desktop/sano Tcp/sem5/personal/Projects/Germany/Services/Service_Brandenberg/Jsons/Cinema.geojson" }, "geometry": { "type": "Point", "coordinates": [ 13.4303168, 52.5290424 ] } },
{ "type": "Feature", "properties": { "osm_id": "1934149453", "code": 2203, "fclass": "cinema", "name": "filmkunst 66", "layer": "Cinema", "path": "C:/Users/sanojan/Desktop/sano Tcp/sem5/personal/Projects/Germany/Services/Service_Brandenberg/Jsons/Cinema.geojson" }, "geometry": { "type": "Point", "coordinates": [ 13.3196567, 52.5044255 ] } },
{ "type": "Feature", "properties": { "osm_id": "1965270875", "code": 2203, "fclass": "cinema", "name": "BE-KAS Sexothek & Kino", "layer": "Cinema", "path": "C:/Users/sanojan/Desktop/sano Tcp/sem5/personal/Projects/Germany/Services/Service_Brandenberg/Jsons/Cinema.geojson" }, "geometry": { "type": "Point", "coordinates": [ 13.4295458, 52.4837967 ] } },
{ "type": "Feature", "properties": { "osm_id": "2098070464", "code": 2203, "fclass": "cinema", "name": "Kino", "layer": "Cinema", "path": "C:/Users/sanojan/Desktop/sano Tcp/sem5/personal/Projects/Germany/Services/Service_Brandenberg/Jsons/Cinema.geojson" }, "geometry": { "type": "Point", "coordinates": [ 12.1722323, 53.152988 ] } },
{ "type": "Feature", "properties": { "osm_id": "2160083741", "code": 2203, "fclass": "cinema", "name": "Delphi LUX", "layer": "Cinema", "path": "C:/Users/sanojan/Desktop/sano Tcp/sem5/personal/Projects/Germany/Services/Service_Brandenberg/Jsons/Cinema.geojson" }, "geometry": { "type": "Point", "coordinates": [ 13.3305818, 52.5060698 ] } },
{ "type": "Feature", "properties": { "osm_id": "2306218311", "code": 2203, "fclass": "cinema", "name": "Obenkino", "layer": "Cinema", "path": "C:/Users/sanojan/Desktop/sano Tcp/sem5/personal/Projects/Germany/Services/Service_Brandenberg/Jsons/Cinema.geojson" }, "geometry": { "type": "Point", "coordinates": [ 14.3337139, 51.7542533 ] } },
{ "type": "Feature", "properties": { "osm_id": "2445454963", "code": 2203, "fclass": "cinema", "name": "Eva Lichtspiele", "layer": "Cinema", "path": "C:/Users/sanojan/Desktop/sano Tcp/sem5/personal/Projects/Germany/Services/Service_Brandenberg/Jsons/Cinema.geojson" }, "geometry": { "type": "Point", "coordinates": [ 13.3200059, 52.484682 ] } },
{ "type": "Feature", "properties": { "osm_id": "2453072986", "code": 2203, "fclass": "cinema", "name": "Spreewald Lichtspiele", "layer": "Cinema", "path": "C:/Users/sanojan/Desktop/sano Tcp/sem5/personal/Projects/Germany/Services/Service_Brandenberg/Jsons/Cinema.geojson" }, "geometry": { "type": "Point", "coordinates": [ 13.8946605, 51.9422579 ] } },
{ "type": "Feature", "properties": { "osm_id": "2458223837", "code": 2203, "fclass": "cinema", "name": "Kino Krokodil", "layer": "Cinema", "path": "C:/Users/sanojan/Desktop/sano Tcp/sem5/personal/Projects/Germany/Services/Service_Brandenberg/Jsons/Cinema.geojson" }, "geometry": { "type": "Point", "coordinates": [ 13.4195677, 52.5524434 ] } },
{ "type": "Feature", "properties": { "osm_id": "2476268052", "code": 2203, "fclass": "cinema", "name": "Bundesplatz Studio", "layer": "Cinema", "path": "C:/Users/sanojan/Desktop/sano Tcp/sem5/personal/Projects/Germany/Services/Service_Brandenberg/Jsons/Cinema.geojson" }, "geometry": { "type": "Point", "coordinates": [ 13.3293579, 52.4789837 ] } },
{ "type": "Feature", "properties": { "osm_id": "2479053617", "code": 2203, "fclass": "cinema", "name": "Cinema Paris", "layer": "Cinema", "path": "C:/Users/sanojan/Desktop/sano Tcp/sem5/personal/Projects/Germany/Services/Service_Brandenberg/Jsons/Cinema.geojson" }, "geometry": { "type": "Point", "coordinates": [ 13.3249378, 52.5020922 ] } },
{ "type": "Feature", "properties": { "osm_id": "2830345735", "code": 2203, "fclass": "cinema", "name": "Erdbeer-Bus mit Kino", "layer": "Cinema", "path": "C:/Users/sanojan/Desktop/sano Tcp/sem5/personal/Projects/Germany/Services/Service_Brandenberg/Jsons/Cinema.geojson" }, "geometry": { "type": "Point", "coordinates": [ 12.9970838, 52.5327232 ] } },
{ "type": "Feature", "properties": { "osm_id": "3675973920", "code": 2203, "fclass": "cinema", "name": "Astor Film Lounge", "layer": "Cinema", "path": "C:/Users/sanojan/Desktop/sano Tcp/sem5/personal/Projects/Germany/Services/Service_Brandenberg/Jsons/Cinema.geojson" }, "geometry": { "type": "Point", "coordinates": [ 13.3300216, 52.5032512 ] } },
{ "type": "Feature", "properties": { "osm_id": "3817115996", "code": 2203, "fclass": "cinema", "name": "City Kino Wedding im Centre Français", "layer": "Cinema", "path": "C:/Users/sanojan/Desktop/sano Tcp/sem5/personal/Projects/Germany/Services/Service_Brandenberg/Jsons/Cinema.geojson" }, "geometry": { "type": "Point", "coordinates": [ 13.3395608, 52.5585816 ] } },
{ "type": "Feature", "properties": { "osm_id": "3858621942", "code": 2203, "fclass": "cinema", "name": null, "layer": "Cinema", "path": "C:/Users/sanojan/Desktop/sano Tcp/sem5/personal/Projects/Germany/Services/Service_Brandenberg/Jsons/Cinema.geojson" }, "geometry": { "type": "Point", "coordinates": [ 13.1641545, 53.1905756 ] } },
{ "type": "Feature", "properties": { "osm_id": "4007032909", "code": 2203, "fclass": "cinema", "name": "Schneiders Filmclub", "layer": "Cinema", "path": "C:/Users/sanojan/Desktop/sano Tcp/sem5/personal/Projects/Germany/Services/Service_Brandenberg/Jsons/Cinema.geojson" }, "geometry": { "type": "Point", "coordinates": [ 13.3849408, 52.5411004 ] } },
{ "type": "Feature", "properties": { "osm_id": "4437521827", "code": 2203, "fclass": "cinema", "name": "Fontane Kino", "layer": "Cinema", "path": "C:/Users/sanojan/Desktop/sano Tcp/sem5/personal/Projects/Germany/Services/Service_Brandenberg/Jsons/Cinema.geojson" }, "geometry": { "type": "Point", "coordinates": [ 12.5559984, 52.411961 ] } },
{ "type": "Feature", "properties": { "osm_id": "4723897691", "code": 2203, "fclass": "cinema", "name": "Wolf Kino", "layer": "Cinema", "path": "C:/Users/sanojan/Desktop/sano Tcp/sem5/personal/Projects/Germany/Services/Service_Brandenberg/Jsons/Cinema.geojson" }, "geometry": { "type": "Point", "coordinates": [ 13.44178, 52.4827454 ] } },
{ "type": "Feature", "properties": { "osm_id": "4894834027", "code": 2203, "fclass": "cinema", "name": "umsonst&draussen", "layer": "Cinema", "path": "C:/Users/sanojan/Desktop/sano Tcp/sem5/personal/Projects/Germany/Services/Service_Brandenberg/Jsons/Cinema.geojson" }, "geometry": { "type": "Point", "coordinates": [ 13.3600061, 52.5344522 ] } },
{ "type": "Feature", "properties": { "osm_id": "5153435222", "code": 2203, "fclass": "cinema", "name": "Il Kino", "layer": "Cinema", "path": "C:/Users/sanojan/Desktop/sano Tcp/sem5/personal/Projects/Germany/Services/Service_Brandenberg/Jsons/Cinema.geojson" }, "geometry": { "type": "Point", "coordinates": [ 13.4330413, 52.4916642 ] } },
{ "type": "Feature", "properties": { "osm_id": "5389518870", "code": 2203, "fclass": "cinema", "name": "Connection Shop und Kino", "layer": "Cinema", "path": "C:/Users/sanojan/Desktop/sano Tcp/sem5/personal/Projects/Germany/Services/Service_Brandenberg/Jsons/Cinema.geojson" }, "geometry": { "type": "Point", "coordinates": [ 13.3427073, 52.4989962 ] } },
{ "type": "Feature", "properties": { "osm_id": "6013914958", "code": 2203, "fclass": "cinema", "name": "Lindenkino", "layer": "Cinema", "path": "C:/Users/sanojan/Desktop/sano Tcp/sem5/personal/Projects/Germany/Services/Service_Brandenberg/Jsons/Cinema.geojson" }, "geometry": { "type": "Point", "coordinates": [ 12.461417, 52.8899348 ] } },
{ "type": "Feature", "properties": { "osm_id": "6019055660", "code": 2203, "fclass": "cinema", "name": "Freiluftkino im Nachbarschaftsgarten Scholle34", "layer": "Cinema", "path": "C:/Users/sanojan/Desktop/sano Tcp/sem5/personal/Projects/Germany/Services/Service_Brandenberg/Jsons/Cinema.geojson" }, "geometry": { "type": "Point", "coordinates": [ 13.0276283, 52.3938695 ] } },
{ "type": "Feature", "properties": { "osm_id": "6058229939", "code": 2203, "fclass": "cinema", "name": "UCI Luxe East Side Gallery", "layer": "Cinema", "path": "C:/Users/sanojan/Desktop/sano Tcp/sem5/personal/Projects/Germany/Services/Service_Brandenberg/Jsons/Cinema.geojson" }, "geometry": { "type": "Point", "coordinates": [ 13.4418072, 52.5052642 ] } },
{ "type": "Feature", "properties": { "osm_id": "6582271201", "code": 2203, "fclass": "cinema", "name": "Zeughauskino", "layer": "Cinema", "path": "C:/Users/sanojan/Desktop/sano Tcp/sem5/personal/Projects/Germany/Services/Service_Brandenberg/Jsons/Cinema.geojson" }, "geometry": { "type": "Point", "coordinates": [ 13.3975301, 52.5184355 ] } },
{ "type": "Feature", "properties": { "osm_id": "6697621223", "code": 2203, "fclass": "cinema", "name": "Videokino Peliculoso", "layer": "Cinema", "path": "C:/Users/sanojan/Desktop/sano Tcp/sem5/personal/Projects/Germany/Services/Service_Brandenberg/Jsons/Cinema.geojson" }, "geometry": { "type": "Point", "coordinates": [ 13.425995, 52.5077791 ] } },
{ "type": "Feature", "properties": { "osm_id": "6777718398", "code": 2203, "fclass": "cinema", "name": "Cinema Bad Saarow", "layer": "Cinema", "path": "C:/Users/sanojan/Desktop/sano Tcp/sem5/personal/Projects/Germany/Services/Service_Brandenberg/Jsons/Cinema.geojson" }, "geometry": { "type": "Point", "coordinates": [ 14.062602, 52.2927261 ] } },
{ "type": "Feature", "properties": { "osm_id": "6936623601", "code": 2203, "fclass": "cinema", "name": "Dorfkino Lögow", "layer": "Cinema", "path": "C:/Users/sanojan/Desktop/sano Tcp/sem5/personal/Projects/Germany/Services/Service_Brandenberg/Jsons/Cinema.geojson" }, "geometry": { "type": "Point", "coordinates": [ 12.5914316, 52.9098628 ] } },
{ "type": "Feature", "properties": { "osm_id": "7141376790", "code": 2203, "fclass": "cinema", "name": "Kino in der Königstadt", "layer": "Cinema", "path": "C:/Users/sanojan/Desktop/sano Tcp/sem5/personal/Projects/Germany/Services/Service_Brandenberg/Jsons/Cinema.geojson" }, "geometry": { "type": "Point", "coordinates": [ 13.413028, 52.5294934 ] } },
{ "type": "Feature", "properties": { "osm_id": "7710353352", "code": 2203, "fclass": "cinema", "name": "Hofkino", "layer": "Cinema", "path": "C:/Users/sanojan/Desktop/sano Tcp/sem5/personal/Projects/Germany/Services/Service_Brandenberg/Jsons/Cinema.geojson" }, "geometry": { "type": "Point", "coordinates": [ 13.4405751, 52.5127376 ] } },
{ "type": "Feature", "properties": { "osm_id": "7947855087", "code": 2203, "fclass": "cinema", "name": "Klick Kino", "layer": "Cinema", "path": "C:/Users/sanojan/Desktop/sano Tcp/sem5/personal/Projects/Germany/Services/Service_Brandenberg/Jsons/Cinema.geojson" }, "geometry": { "type": "Point", "coordinates": [ 13.2993996, 52.5054322 ] } },
{ "type": "Feature", "properties": { "osm_id": "8012457520", "code": 2203, "fclass": "cinema", "name": "fx center babelsberg", "layer": "Cinema", "path": "C:/Users/sanojan/Desktop/sano Tcp/sem5/personal/Projects/Germany/Services/Service_Brandenberg/Jsons/Cinema.geojson" }, "geometry": { "type": "Point", "coordinates": [ 13.1215876, 52.3881304 ] } },
{ "type": "Feature", "properties": { "osm_id": "8895591036", "code": 2203, "fclass": "cinema", "name": "Wandelhof", "layer": "Cinema", "path": "C:/Users/sanojan/Desktop/sano Tcp/sem5/personal/Projects/Germany/Services/Service_Brandenberg/Jsons/Cinema.geojson" }, "geometry": { "type": "Point", "coordinates": [ 13.8476103, 51.4811467 ] } },
{ "type": "Feature", "properties": { "osm_id": "9079726511", "code": 2203, "fclass": "cinema", "name": "Zinema", "layer": "Cinema", "path": "C:/Users/sanojan/Desktop/sano Tcp/sem5/personal/Projects/Germany/Services/Service_Brandenberg/Jsons/Cinema.geojson" }, "geometry": { "type": "Point", "coordinates": [ 13.3958605, 52.529586 ] } },
{ "type": "Feature", "properties": { "osm_id": "9858868570", "code": 2203, "fclass": "cinema", "name": "Sommerkino Kulturforum", "layer": "Cinema", "path": "C:/Users/sanojan/Desktop/sano Tcp/sem5/personal/Projects/Germany/Services/Service_Brandenberg/Jsons/Cinema.geojson" }, "geometry": { "type": "Point", "coordinates": [ 13.3671829, 52.5087879 ] } },
{ "type": "Feature", "properties": { "osm_id": "9938090502", "code": 2203, "fclass": "cinema", "name": "Freiluftkino Insel", "layer": "Cinema", "path": "C:/Users/sanojan/Desktop/sano Tcp/sem5/personal/Projects/Germany/Services/Service_Brandenberg/Jsons/Cinema.geojson" }, "geometry": { "type": "Point", "coordinates": [ 13.4106619, 52.464792 ] } },
{ "type": "Feature", "properties": { "osm_id": "10287958985", "code": 2203, "fclass": "cinema", "name": "Sinema Transtopia", "layer": "Cinema", "path": "C:/Users/sanojan/Desktop/sano Tcp/sem5/personal/Projects/Germany/Services/Service_Brandenberg/Jsons/Cinema.geojson" }, "geometry": { "type": "Point", "coordinates": [ 13.3672393, 52.5437951 ] } },
{ "type": "Feature", "properties": { "osm_id": "11200668007", "code": 2203, "fclass": "cinema", "name": "Colosseum Filmtheater Berlin", "layer": "Cinema", "path": "C:/Users/sanojan/Desktop/sano Tcp/sem5/personal/Projects/Germany/Services/Service_Brandenberg/Jsons/Cinema.geojson" }, "geometry": { "type": "Point", "coordinates": [ 13.4130423, 52.5478942 ] } },
{ "type": "Feature", "properties": { "osm_id": "11300467992", "code": 2203, "fclass": "cinema", "name": "Neues Lichtspielhaus Beelitz", "layer": "Cinema", "path": "C:/Users/sanojan/Desktop/sano Tcp/sem5/personal/Projects/Germany/Services/Service_Brandenberg/Jsons/Cinema.geojson" }, "geometry": { "type": "Point", "coordinates": [ 12.9735298, 52.2361336 ] } },
{ "type": "Feature", "properties": { "osm_id": "12620520303", "code": 2203, "fclass": "cinema", "name": "Charlies Campus Filmclub (Unikino TU Berlin)", "layer": "Cinema", "path": "C:/Users/sanojan/Desktop/sano Tcp/sem5/personal/Projects/Germany/Services/Service_Brandenberg/Jsons/Cinema.geojson" }, "geometry": { "type": "Point", "coordinates": [ 13.3262548, 52.5134702 ] } },
{ "type": "Feature", "properties": { "osm_id": "13101175108", "code": 2203, "fclass": "cinema", "name": "Freiluftkino Neue Zukunft", "layer": "Cinema", "path": "C:/Users/sanojan/Desktop/sano Tcp/sem5/personal/Projects/Germany/Services/Service_Brandenberg/Jsons/Cinema.geojson" }, "geometry": { "type": "Point", "coordinates": [ 13.4661487, 52.4979656 ] } },
{ "type": "Feature", "properties": { "osm_id": "13251686513", "code": 2203, "fclass": "cinema", "name": "Durchsfenster", "layer": "Cinema", "path": "C:/Users/sanojan/Desktop/sano Tcp/sem5/personal/Projects/Germany/Services/Service_Brandenberg/Jsons/Cinema.geojson" }, "geometry": { "type": "Point", "coordinates": [ 13.459945, 52.512987 ] } },
{ "type": "Feature", "properties": { "osm_id": "13299066101", "code": 2203, "fclass": "cinema", "name": "Unterfilm Clubkino", "layer": "Cinema", "path": "C:/Users/sanojan/Desktop/sano Tcp/sem5/personal/Projects/Germany/Services/Service_Brandenberg/Jsons/Cinema.geojson" }, "geometry": { "type": "Point", "coordinates": [ 13.4134103, 52.530577 ] } },
{ "type": "Feature", "properties": { "osm_id": "13304600501", "code": 2203, "fclass": "cinema", "name": "Deutsche Kinemathek – Museum für Film und Fernsehen", "layer": "Cinema", "path": "C:/Users/sanojan/Desktop/sano Tcp/sem5/personal/Projects/Germany/Services/Service_Brandenberg/Jsons/Cinema.geojson" }, "geometry": { "type": "Point", "coordinates": [ 13.3871269, 52.5086058 ] } }
]
}
