{
"type": "FeatureCollection",
"name": "College",
"crs": { "type": "name", "properties": { "name": "urn:ogc:def:crs:OGC:1.3:CRS84" } },
"xy_coordinate_resolution": 1e-15,
"features": [
{ "type": "Feature", "properties": { "osm_id": "312080129", "code": 2084, "fclass": "college", "name": "Akademie für Sozial- und Gesundheitsberufe", "layer": "College", "path": "C:/Users/sanojan/Desktop/sano Tcp/sem5/personal/Projects/Germany/Services/Service_Brandenberg/Jsons/College.geojson" }, "geometry": { "type": "Point", "coordinates": [ 12.9293312, 52.2554253 ] } },
{ "type": "Feature", "properties": { "osm_id": "333705588", "code": 2084, "fclass": "college", "name": "Strittmatter-Gymnasium", "layer": "College", "path": "C:/Users/sanojan/Desktop/sano Tcp/sem5/personal/Projects/Germany/Services/Service_Brandenberg/Jsons/College.geojson" }, "geometry": { "type": "Point", "coordinates": [ 13.153532, 53.0010191 ] } },
{ "type": "Feature", "properties": { "osm_id": "429251594", "code": 2084, "fclass": "college", "name": "Volkshochschule Dahme-Spreewald", "layer": "College", "path": "C:/Users/sanojan/Desktop/sano Tcp/sem5/personal/Projects/Germany/Services/Service_Brandenberg/Jsons/College.geojson" }, "geometry": { "type": "Point", "coordinates": [ 13.6259192, 52.3017709 ] } },
{ "type": "Feature", "properties": { "osm_id": "502567533", "code": 2084, "fclass": "college", "name": "Otto-Suhr-Volkshochschule", "layer": "College", "path": "C:/Users/sanojan/Desktop/sano Tcp/sem5/personal/Projects/Germany/Services/Service_Brandenberg/Jsons/College.geojson" }, "geometry": { "type": "Point", "coordinates": [ 13.4267486, 52.4797318 ] } },
{ "type": "Feature", "properties": { "osm_id": "537161358", "code": 2084, "fclass": "college", "name": "Die Managementschule Berlin", "layer": "College", "path": "C:/Users/sanojan/Desktop/sano Tcp/sem5/personal/Projects/Germany/Services/Service_Brandenberg/Jsons/College.geojson" }, "geometry": { "type": "Point", "coordinates": [ 13.4480863, 52.5051161 ] } },
{ "type": "Feature", "properties": { "osm_id": "542892914", "code": 2084, "fclass": "college", "name": "Hochschule für Musik Hanns Eisler Berlin", "layer": "College", "path": "C:/Users/sanojan/Desktop/sano Tcp/sem5/personal/Projects/Germany/Services/Service_Brandenberg/Jsons/College.geojson" }, "geometry": { "type": "Point", "coordinates": [ 13.3908638, 52.5135064 ] } },
{ "type": "Feature", "properties": { "osm_id": "567958126", "code": 2084, "fclass": "college", "name": "Volkshochschule", "layer": "College", "path": "C:/Users/sanojan/Desktop/sano Tcp/sem5/personal/Projects/Germany/Services/Service_Brandenberg/Jsons/College.geojson" }, "geometry": { "type": "Point", "coordinates": [ 14.6284518, 52.15378 ] } },
{ "type": "Feature", "properties": { "osm_id": "666064497", "code": 2084, "fclass": "college", "name": "Volkshochschule Berlin Mitte", "layer": "College", "path": "C:/Users/sanojan/Desktop/sano Tcp/sem5/personal/Projects/Germany/Services/Service_Brandenberg/Jsons/College.geojson" }, "geometry": { "type": "Point", "coordinates": [ 13.3960922, 52.5282109 ] } },
{ "type": "Feature", "properties": { "osm_id": "1235571322", "code": 2084, "fclass": "college", "name": "Berliner Feuerwehr- und Rettungsdienst-Akademie", "layer": "College", "path": "C:/Users/sanojan/Desktop/sano Tcp/sem5/personal/Projects/Germany/Services/Service_Brandenberg/Jsons/College.geojson" }, "geometry": { "type": "Point", "coordinates": [ 13.2471101, 52.6170961 ] } },
{ "type": "Feature", "properties": { "osm_id": "1238434948", "code": 2084, "fclass": "college", "name": "Volkshochschule Friedrichshain-Kreuzberg", "layer": "College", "path": "C:/Users/sanojan/Desktop/sano Tcp/sem5/personal/Projects/Germany/Services/Service_Brandenberg/Jsons/College.geojson" }, "geometry": { "type": "Point", "coordinates": [ 13.4618088, 52.5152928 ] } },
{ "type": "Feature", "properties": { "osm_id": "1244882918", "code": 2084, "fclass": "college", "name": "SAE Institute", "layer": "College", "path": "C:/Users/sanojan/Desktop/sano Tcp/sem5/personal/Projects/Germany/Services/Service_Brandenberg/Jsons/College.geojson" }, "geometry": { "type": "Point", "coordinates": [ 13.4456901, 52.5001131 ] } },
{ "type": "Feature", "properties": { "osm_id": "1410227560", "code": 2084, "fclass": "college", "name": "Volkshochschule", "layer": "College", "path": "C:/Users/sanojan/Desktop/sano Tcp/sem5/personal/Projects/Germany/Services/Service_Brandenberg/Jsons/College.geojson" }, "geometry": { "type": "Point", "coordinates": [ 14.2480904, 52.173099 ] } },
{ "type": "Feature", "properties": { "osm_id": "1410427030", "code": 2084, "fclass": "college", "name": "Volkshochschule Steglitz-Zehlendorf", "layer": "College", "path": "C:/Users/sanojan/Desktop/sano Tcp/sem5/personal/Projects/Germany/Services/Service_Brandenberg/Jsons/College.geojson" }, "geometry": { "type": "Point", "coordinates": [ 13.3162445, 52.4292173 ] } },
{ "type": "Feature", "properties": { "osm_id": "1449396941", "code": 2084, "fclass": "college", "name": "Brillat-Savarin-Schule", "layer": "College", "path": "C:/Users/sanojan/Desktop/sano Tcp/sem5/personal/Projects/Germany/Services/Service_Brandenberg/Jsons/College.geojson" }, "geometry": { "type": "Point", "coordinates": [ 13.4936144, 52.564673 ] } },
{ "type": "Feature", "properties": { "osm_id": "1449396954", "code": 2084, "fclass": "college", "name": "Oskar-Schindler-Oberschule", "layer": "College", "path": "C:/Users/sanojan/Desktop/sano Tcp/sem5/personal/Projects/Germany/Services/Service_Brandenberg/Jsons/College.geojson" }, "geometry": { "type": "Point", "coordinates": [ 13.4947069, 52.5642905 ] } },
{ "type": "Feature", "properties": { "osm_id": "1612986531", "code": 2084, "fclass": "college", "name": "BEST-Sabel-MEDICUM-Berufsfachschule für Logopädie", "layer": "College", "path": "C:/Users/sanojan/Desktop/sano Tcp/sem5/personal/Projects/Germany/Services/Service_Brandenberg/Jsons/College.geojson" }, "geometry": { "type": "Point", "coordinates": [ 13.6251285, 52.4462618 ] } },
{ "type": "Feature", "properties": { "osm_id": "1800491026", "code": 2084, "fclass": "college", "name": "TÜV Rheinland Akademie Beeskow", "layer": "College", "path": "C:/Users/sanojan/Desktop/sano Tcp/sem5/personal/Projects/Germany/Services/Service_Brandenberg/Jsons/College.geojson" }, "geometry": { "type": "Point", "coordinates": [ 14.2505857, 52.1632395 ] } },
{ "type": "Feature", "properties": { "osm_id": "1825200731", "code": 2084, "fclass": "college", "name": "Lette-Akademie", "layer": "College", "path": "C:/Users/sanojan/Desktop/sano Tcp/sem5/personal/Projects/Germany/Services/Service_Brandenberg/Jsons/College.geojson" }, "geometry": { "type": "Point", "coordinates": [ 13.3402818, 52.4965481 ] } },
{ "type": "Feature", "properties": { "osm_id": "1961679961", "code": 2084, "fclass": "college", "name": "Hochschule für Wirtschaft, Technik und Kultur", "layer": "College", "path": "C:/Users/sanojan/Desktop/sano Tcp/sem5/personal/Projects/Germany/Services/Service_Brandenberg/Jsons/College.geojson" }, "geometry": { "type": "Point", "coordinates": [ 13.3890462, 52.5113887 ] } },
{ "type": "Feature", "properties": { "osm_id": "1967502280", "code": 2084, "fclass": "college", "name": "WORKS Gemeinnütziges Bildungswerk", "layer": "College", "path": "C:/Users/sanojan/Desktop/sano Tcp/sem5/personal/Projects/Germany/Services/Service_Brandenberg/Jsons/College.geojson" }, "geometry": { "type": "Point", "coordinates": [ 13.3220788, 52.4860906 ] } },
{ "type": "Feature", "properties": { "osm_id": "2035095456", "code": 2084, "fclass": "college", "name": "Peter-A.-Silbermann-Schule", "layer": "College", "path": "C:/Users/sanojan/Desktop/sano Tcp/sem5/personal/Projects/Germany/Services/Service_Brandenberg/Jsons/College.geojson" }, "geometry": { "type": "Point", "coordinates": [ 13.3194296, 52.4843424 ] } },
{ "type": "Feature", "properties": { "osm_id": "2483543323", "code": 2084, "fclass": "college", "name": "Schauspielschule Charlottenburg", "layer": "College", "path": "C:/Users/sanojan/Desktop/sano Tcp/sem5/personal/Projects/Germany/Services/Service_Brandenberg/Jsons/College.geojson" }, "geometry": { "type": "Point", "coordinates": [ 13.3094391, 52.5172873 ] } },
{ "type": "Feature", "properties": { "osm_id": "2537196472", "code": 2084, "fclass": "college", "name": "Musikschule Kling-Klang", "layer": "College", "path": "C:/Users/sanojan/Desktop/sano Tcp/sem5/personal/Projects/Germany/Services/Service_Brandenberg/Jsons/College.geojson" }, "geometry": { "type": "Point", "coordinates": [ 13.524798, 52.5663684 ] } },
{ "type": "Feature", "properties": { "osm_id": "2545210659", "code": 2084, "fclass": "college", "name": "Volkshochschule Tempelhof-Schöneberg", "layer": "College", "path": "C:/Users/sanojan/Desktop/sano Tcp/sem5/personal/Projects/Germany/Services/Service_Brandenberg/Jsons/College.geojson" }, "geometry": { "type": "Point", "coordinates": [ 13.3498081, 52.4922983 ] } },
{ "type": "Feature", "properties": { "osm_id": "2564109008", "code": 2084, "fclass": "college", "name": "Europäisches Bibel Trainings Centrum (EBTC)", "layer": "College", "path": "C:/Users/sanojan/Desktop/sano Tcp/sem5/personal/Projects/Germany/Services/Service_Brandenberg/Jsons/College.geojson" }, "geometry": { "type": "Point", "coordinates": [ 13.5954433, 52.5413903 ] } },
{ "type": "Feature", "properties": { "osm_id": "2706945193", "code": 2084, "fclass": "college", "name": "PhotoWerkBerlin", "layer": "College", "path": "C:/Users/sanojan/Desktop/sano Tcp/sem5/personal/Projects/Germany/Services/Service_Brandenberg/Jsons/College.geojson" }, "geometry": { "type": "Point", "coordinates": [ 13.4262064, 52.4926416 ] } },
{ "type": "Feature", "properties": { "osm_id": "2967257333", "code": 2084, "fclass": "college", "name": "Volkshochschule", "layer": "College", "path": "C:/Users/sanojan/Desktop/sano Tcp/sem5/personal/Projects/Germany/Services/Service_Brandenberg/Jsons/College.geojson" }, "geometry": { "type": "Point", "coordinates": [ 13.3329003, 52.4831653 ] } },
{ "type": "Feature", "properties": { "osm_id": "2967258933", "code": 2084, "fclass": "college", "name": "Volkshochschule", "layer": "College", "path": "C:/Users/sanojan/Desktop/sano Tcp/sem5/personal/Projects/Germany/Services/Service_Brandenberg/Jsons/College.geojson" }, "geometry": { "type": "Point", "coordinates": [ 13.3117872, 52.4894214 ] } },
{ "type": "Feature", "properties": { "osm_id": "3012320214", "code": 2084, "fclass": "college", "name": "SAG Spektrum Akademie der Gesundheitsberufe", "layer": "College", "path": "C:/Users/sanojan/Desktop/sano Tcp/sem5/personal/Projects/Germany/Services/Service_Brandenberg/Jsons/College.geojson" }, "geometry": { "type": "Point", "coordinates": [ 13.441711, 52.5576023 ] } },
{ "type": "Feature", "properties": { "osm_id": "3020041484", "code": 2084, "fclass": "college", "name": "Akademie Havelhöhe (Schulungsraum)", "layer": "College", "path": "C:/Users/sanojan/Desktop/sano Tcp/sem5/personal/Projects/Germany/Services/Service_Brandenberg/Jsons/College.geojson" }, "geometry": { "type": "Point", "coordinates": [ 13.1635718, 52.4635591 ] } },
{ "type": "Feature", "properties": { "osm_id": "3020042187", "code": 2084, "fclass": "college", "name": "Akademie Havelhöhe (Sekretariat)", "layer": "College", "path": "C:/Users/sanojan/Desktop/sano Tcp/sem5/personal/Projects/Germany/Services/Service_Brandenberg/Jsons/College.geojson" }, "geometry": { "type": "Point", "coordinates": [ 13.1628811, 52.4636906 ] } },
{ "type": "Feature", "properties": { "osm_id": "3043032454", "code": 2084, "fclass": "college", "name": "Games Academy", "layer": "College", "path": "C:/Users/sanojan/Desktop/sano Tcp/sem5/personal/Projects/Germany/Services/Service_Brandenberg/Jsons/College.geojson" }, "geometry": { "type": "Point", "coordinates": [ 13.3251306, 52.5181697 ] } },
{ "type": "Feature", "properties": { "osm_id": "3072161547", "code": 2084, "fclass": "college", "name": "Architektenraum", "layer": "College", "path": "C:/Users/sanojan/Desktop/sano Tcp/sem5/personal/Projects/Germany/Services/Service_Brandenberg/Jsons/College.geojson" }, "geometry": { "type": "Point", "coordinates": [ 13.1632105, 52.4636993 ] } },
{ "type": "Feature", "properties": { "osm_id": "3116612440", "code": 2084, "fclass": "college", "name": "Volkshochschule Teltow-Fläming", "layer": "College", "path": "C:/Users/sanojan/Desktop/sano Tcp/sem5/personal/Projects/Germany/Services/Service_Brandenberg/Jsons/College.geojson" }, "geometry": { "type": "Point", "coordinates": [ 13.1609314, 52.0925435 ] } },
{ "type": "Feature", "properties": { "osm_id": "3116612441", "code": 2084, "fclass": "college", "name": "Volkshochschule Teltow-Fläming Atelier", "layer": "College", "path": "C:/Users/sanojan/Desktop/sano Tcp/sem5/personal/Projects/Germany/Services/Service_Brandenberg/Jsons/College.geojson" }, "geometry": { "type": "Point", "coordinates": [ 13.1606015, 52.0921958 ] } },
{ "type": "Feature", "properties": { "osm_id": "3325820454", "code": 2084, "fclass": "college", "name": "Design Akademie Berlin", "layer": "College", "path": "C:/Users/sanojan/Desktop/sano Tcp/sem5/personal/Projects/Germany/Services/Service_Brandenberg/Jsons/College.geojson" }, "geometry": { "type": "Point", "coordinates": [ 13.4099887, 52.5036565 ] } },
{ "type": "Feature", "properties": { "osm_id": "3526918032", "code": 2084, "fclass": "college", "name": "Landesrettungsschule Brandenburg e.V. Bad Saarow", "layer": "College", "path": "C:/Users/sanojan/Desktop/sano Tcp/sem5/personal/Projects/Germany/Services/Service_Brandenberg/Jsons/College.geojson" }, "geometry": { "type": "Point", "coordinates": [ 14.0639549, 52.2828803 ] } },
{ "type": "Feature", "properties": { "osm_id": "3526918033", "code": 2084, "fclass": "college", "name": "Schule für Gesundheits- und Krankenpflege", "layer": "College", "path": "C:/Users/sanojan/Desktop/sano Tcp/sem5/personal/Projects/Germany/Services/Service_Brandenberg/Jsons/College.geojson" }, "geometry": { "type": "Point", "coordinates": [ 14.0640318, 52.2828421 ] } },
{ "type": "Feature", "properties": { "osm_id": "3951740659", "code": 2084, "fclass": "college", "name": "Volkshochschule Cottbus", "layer": "College", "path": "C:/Users/sanojan/Desktop/sano Tcp/sem5/personal/Projects/Germany/Services/Service_Brandenberg/Jsons/College.geojson" }, "geometry": { "type": "Point", "coordinates": [ 14.3270163, 51.7608897 ] } },
{ "type": "Feature", "properties": { "osm_id": "4031848644", "code": 2084, "fclass": "college", "name": "Akkon-Hochschule für Humanwissenschaften", "layer": "College", "path": "C:/Users/sanojan/Desktop/sano Tcp/sem5/personal/Projects/Germany/Services/Service_Brandenberg/Jsons/College.geojson" }, "geometry": { "type": "Point", "coordinates": [ 13.3944489, 52.4556482 ] } },
{ "type": "Feature", "properties": { "osm_id": "4423268013", "code": 2084, "fclass": "college", "name": "BAU International Berlin", "layer": "College", "path": "C:/Users/sanojan/Desktop/sano Tcp/sem5/personal/Projects/Germany/Services/Service_Brandenberg/Jsons/College.geojson" }, "geometry": { "type": "Point", "coordinates": [ 13.4142276, 52.5076469 ] } },
{ "type": "Feature", "properties": { "osm_id": "4482914835", "code": 2084, "fclass": "college", "name": "Gründerzentrum Hochschule für Wirtschaft und Recht", "layer": "College", "path": "C:/Users/sanojan/Desktop/sano Tcp/sem5/personal/Projects/Germany/Services/Service_Brandenberg/Jsons/College.geojson" }, "geometry": { "type": "Point", "coordinates": [ 13.3359592, 52.4846486 ] } },
{ "type": "Feature", "properties": { "osm_id": "5159718854", "code": 2084, "fclass": "college", "name": "Volkshochschule Havelland", "layer": "College", "path": "C:/Users/sanojan/Desktop/sano Tcp/sem5/personal/Projects/Germany/Services/Service_Brandenberg/Jsons/College.geojson" }, "geometry": { "type": "Point", "coordinates": [ 13.0937263, 52.5593084 ] } },
{ "type": "Feature", "properties": { "osm_id": "5181153022", "code": 2084, "fclass": "college", "name": "DE:HIVE Institut", "layer": "College", "path": "C:/Users/sanojan/Desktop/sano Tcp/sem5/personal/Projects/Germany/Services/Service_Brandenberg/Jsons/College.geojson" }, "geometry": { "type": "Point", "coordinates": [ 13.5325176, 52.4576434 ] } },
{ "type": "Feature", "properties": { "osm_id": "5230081492", "code": 2084, "fclass": "college", "name": "Louise-Schroeder-Schule", "layer": "College", "path": "C:/Users/sanojan/Desktop/sano Tcp/sem5/personal/Projects/Germany/Services/Service_Brandenberg/Jsons/College.geojson" }, "geometry": { "type": "Point", "coordinates": [ 13.3052848, 52.4116082 ] } },
{ "type": "Feature", "properties": { "osm_id": "5679359448", "code": 2084, "fclass": "college", "name": "ETI Schauspielschule", "layer": "College", "path": "C:/Users/sanojan/Desktop/sano Tcp/sem5/personal/Projects/Germany/Services/Service_Brandenberg/Jsons/College.geojson" }, "geometry": { "type": "Point", "coordinates": [ 13.4200068, 52.5126955 ] } },
{ "type": "Feature", "properties": { "osm_id": "5941270187", "code": 2084, "fclass": "college", "name": "Sprachsalon", "layer": "College", "path": "C:/Users/sanojan/Desktop/sano Tcp/sem5/personal/Projects/Germany/Services/Service_Brandenberg/Jsons/College.geojson" }, "geometry": { "type": "Point", "coordinates": [ 13.4381592, 52.4884287 ] } },
{ "type": "Feature", "properties": { "osm_id": "6270798437", "code": 2084, "fclass": "college", "name": "GPB College Pankow", "layer": "College", "path": "C:/Users/sanojan/Desktop/sano Tcp/sem5/personal/Projects/Germany/Services/Service_Brandenberg/Jsons/College.geojson" }, "geometry": { "type": "Point", "coordinates": [ 13.4546102, 52.5357074 ] } },
{ "type": "Feature", "properties": { "osm_id": "6308361075", "code": 2084, "fclass": "college", "name": "Testpunkt", "layer": "College", "path": "C:/Users/sanojan/Desktop/sano Tcp/sem5/personal/Projects/Germany/Services/Service_Brandenberg/Jsons/College.geojson" }, "geometry": { "type": "Point", "coordinates": [ 11.3616069, 53.072569 ] } },
{ "type": "Feature", "properties": { "osm_id": "6404550085", "code": 2084, "fclass": "college", "name": "Lichtenberg Kolleg", "layer": "College", "path": "C:/Users/sanojan/Desktop/sano Tcp/sem5/personal/Projects/Germany/Services/Service_Brandenberg/Jsons/College.geojson" }, "geometry": { "type": "Point", "coordinates": [ 13.3392416, 52.4643795 ] } },
{ "type": "Feature", "properties": { "osm_id": "6419849078", "code": 2084, "fclass": "college", "name": "Volkshochschule Reinickendorf", "layer": "College", "path": "C:/Users/sanojan/Desktop/sano Tcp/sem5/personal/Projects/Germany/Services/Service_Brandenberg/Jsons/College.geojson" }, "geometry": { "type": "Point", "coordinates": [ 13.2867596, 52.5844356 ] } },
{ "type": "Feature", "properties": { "osm_id": "6501193717", "code": 2084, "fclass": "college", "name": "Campus Berufsbildung", "layer": "College", "path": "C:/Users/sanojan/Desktop/sano Tcp/sem5/personal/Projects/Germany/Services/Service_Brandenberg/Jsons/College.geojson" }, "geometry": { "type": "Point", "coordinates": [ 13.3060426, 52.5095855 ] } },
{ "type": "Feature", "properties": { "osm_id": "6549447488", "code": 2084, "fclass": "college", "name": "Media University", "layer": "College", "path": "C:/Users/sanojan/Desktop/sano Tcp/sem5/personal/Projects/Germany/Services/Service_Brandenberg/Jsons/College.geojson" }, "geometry": { "type": "Point", "coordinates": [ 13.3847622, 52.5384962 ] } },
{ "type": "Feature", "properties": { "osm_id": "6705252512", "code": 2084, "fclass": "college", "name": "Medizinischen Schule Uckermark", "layer": "College", "path": "C:/Users/sanojan/Desktop/sano Tcp/sem5/personal/Projects/Germany/Services/Service_Brandenberg/Jsons/College.geojson" }, "geometry": { "type": "Point", "coordinates": [ 13.8696071, 53.3365947 ] } },
{ "type": "Feature", "properties": { "osm_id": "7261624677", "code": 2084, "fclass": "college", "name": "Medizinische Hochschule Brandenburg", "layer": "College", "path": "C:/Users/sanojan/Desktop/sano Tcp/sem5/personal/Projects/Germany/Services/Service_Brandenberg/Jsons/College.geojson" }, "geometry": { "type": "Point", "coordinates": [ 12.8054911, 52.9244267 ] } },
{ "type": "Feature", "properties": { "osm_id": "7613183870", "code": 2084, "fclass": "college", "name": "Legasthenie-Zentrum Nord", "layer": "College", "path": "C:/Users/sanojan/Desktop/sano Tcp/sem5/personal/Projects/Germany/Services/Service_Brandenberg/Jsons/College.geojson" }, "geometry": { "type": "Point", "coordinates": [ 13.3471739, 52.5558543 ] } },
{ "type": "Feature", "properties": { "osm_id": "7766342879", "code": 2084, "fclass": "college", "name": "Volkshochschule Neukölln - Lernhaus", "layer": "College", "path": "C:/Users/sanojan/Desktop/sano Tcp/sem5/personal/Projects/Germany/Services/Service_Brandenberg/Jsons/College.geojson" }, "geometry": { "type": "Point", "coordinates": [ 13.4275868, 52.4776017 ] } },
{ "type": "Feature", "properties": { "osm_id": "7798570857", "code": 2084, "fclass": "college", "name": "Jüdische Volkshochschule", "layer": "College", "path": "C:/Users/sanojan/Desktop/sano Tcp/sem5/personal/Projects/Germany/Services/Service_Brandenberg/Jsons/College.geojson" }, "geometry": { "type": "Point", "coordinates": [ 13.3283713, 52.504255 ] } },
{ "type": "Feature", "properties": { "osm_id": "8007705264", "code": 2084, "fclass": "college", "name": "Berliner Feuerwehr- und Rettungsdienst-Akademie", "layer": "College", "path": "C:/Users/sanojan/Desktop/sano Tcp/sem5/personal/Projects/Germany/Services/Service_Brandenberg/Jsons/College.geojson" }, "geometry": { "type": "Point", "coordinates": [ 13.2936685, 52.5800902 ] } },
{ "type": "Feature", "properties": { "osm_id": "8330236508", "code": 2084, "fclass": "college", "name": "Heilpraktikerschule Naturheilpraxis", "layer": "College", "path": "C:/Users/sanojan/Desktop/sano Tcp/sem5/personal/Projects/Germany/Services/Service_Brandenberg/Jsons/College.geojson" }, "geometry": { "type": "Point", "coordinates": [ 13.3238968, 52.4710563 ] } },
{ "type": "Feature", "properties": { "osm_id": "8422865842", "code": 2084, "fclass": "college", "name": "Hofmeisterschule", "layer": "College", "path": "C:/Users/sanojan/Desktop/sano Tcp/sem5/personal/Projects/Germany/Services/Service_Brandenberg/Jsons/College.geojson" }, "geometry": { "type": "Point", "coordinates": [ 13.3323694, 52.4876922 ] } },
{ "type": "Feature", "properties": { "osm_id": "8516373951", "code": 2084, "fclass": "college", "name": "Harri-Reinert-Volkshochschule Spandau", "layer": "College", "path": "C:/Users/sanojan/Desktop/sano Tcp/sem5/personal/Projects/Germany/Services/Service_Brandenberg/Jsons/College.geojson" }, "geometry": { "type": "Point", "coordinates": [ 13.2018534, 52.5364627 ] } },
{ "type": "Feature", "properties": { "osm_id": "8653527756", "code": 2084, "fclass": "college", "name": "Berliner Bildungscampus für Gesundheitsberufe", "layer": "College", "path": "C:/Users/sanojan/Desktop/sano Tcp/sem5/personal/Projects/Germany/Services/Service_Brandenberg/Jsons/College.geojson" }, "geometry": { "type": "Point", "coordinates": [ 13.4615689, 52.4371767 ] } },
{ "type": "Feature", "properties": { "osm_id": "8911758951", "code": 2084, "fclass": "college", "name": "Volkshochschule", "layer": "College", "path": "C:/Users/sanojan/Desktop/sano Tcp/sem5/personal/Projects/Germany/Services/Service_Brandenberg/Jsons/College.geojson" }, "geometry": { "type": "Point", "coordinates": [ 12.5333284, 52.4313892 ] } },
{ "type": "Feature", "properties": { "osm_id": "9012959292", "code": 2084, "fclass": "college", "name": "ABB Ausbildungszentrum Berlin", "layer": "College", "path": "C:/Users/sanojan/Desktop/sano Tcp/sem5/personal/Projects/Germany/Services/Service_Brandenberg/Jsons/College.geojson" }, "geometry": { "type": "Point", "coordinates": [ 13.3547155, 52.5890804 ] } },
{ "type": "Feature", "properties": { "osm_id": "9581775328", "code": 2084, "fclass": "college", "name": "FOM-Hochschulzentrum Berlin", "layer": "College", "path": "C:/Users/sanojan/Desktop/sano Tcp/sem5/personal/Projects/Germany/Services/Service_Brandenberg/Jsons/College.geojson" }, "geometry": { "type": "Point", "coordinates": [ 13.3160686, 52.5119607 ] } },
{ "type": "Feature", "properties": { "osm_id": "9720094220", "code": 2084, "fclass": "college", "name": "Schule für Eurythmische Art und Kunst", "layer": "College", "path": "C:/Users/sanojan/Desktop/sano Tcp/sem5/personal/Projects/Germany/Services/Service_Brandenberg/Jsons/College.geojson" }, "geometry": { "type": "Point", "coordinates": [ 13.2381094, 52.4405717 ] } },
{ "type": "Feature", "properties": { "osm_id": "9768144868", "code": 2084, "fclass": "college", "name": "Volkshochschule Reinickendorf", "layer": "College", "path": "C:/Users/sanojan/Desktop/sano Tcp/sem5/personal/Projects/Germany/Services/Service_Brandenberg/Jsons/College.geojson" }, "geometry": { "type": "Point", "coordinates": [ 13.3599422, 52.5659109 ] } },
{ "type": "Feature", "properties": { "osm_id": "10119234347", "code": 2084, "fclass": "college", "name": "THW Ausbildungszentrum Brandenburg/Havel - Liegenschaft Upstallstraße", "layer": "College", "path": "C:/Users/sanojan/Desktop/sano Tcp/sem5/personal/Projects/Germany/Services/Service_Brandenberg/Jsons/College.geojson" }, "geometry": { "type": "Point", "coordinates": [ 12.540702, 52.4321907 ] } },
{ "type": "Feature", "properties": { "osm_id": "10610628415", "code": 2084, "fclass": "college", "name": "GPB Berlin", "layer": "College", "path": "C:/Users/sanojan/Desktop/sano Tcp/sem5/personal/Projects/Germany/Services/Service_Brandenberg/Jsons/College.geojson" }, "geometry": { "type": "Point", "coordinates": [ 13.4428189, 52.4642498 ] } },
{ "type": "Feature", "properties": { "osm_id": "10618664418", "code": 2084, "fclass": "college", "name": "Volkshochschule Berlin-Neukölln", "layer": "College", "path": "C:/Users/sanojan/Desktop/sano Tcp/sem5/personal/Projects/Germany/Services/Service_Brandenberg/Jsons/College.geojson" }, "geometry": { "type": "Point", "coordinates": [ 13.5069365, 52.4051459 ] } },
{ "type": "Feature", "properties": { "osm_id": "10671322645", "code": 2084, "fclass": "college", "name": "fjs - freie journalisten schule", "layer": "College", "path": "C:/Users/sanojan/Desktop/sano Tcp/sem5/personal/Projects/Germany/Services/Service_Brandenberg/Jsons/College.geojson" }, "geometry": { "type": "Point", "coordinates": [ 13.323479, 52.4593632 ] } },
{ "type": "Feature", "properties": { "osm_id": "10891963352", "code": 2084, "fclass": "college", "name": "Margarete-Steffin-Volkshochschule Berlin-Lichtenberg", "layer": "College", "path": "C:/Users/sanojan/Desktop/sano Tcp/sem5/personal/Projects/Germany/Services/Service_Brandenberg/Jsons/College.geojson" }, "geometry": { "type": "Point", "coordinates": [ 13.4779119, 52.5280563 ] } },
{ "type": "Feature", "properties": { "osm_id": "11048360138", "code": 2084, "fclass": "college", "name": "42 Berlin", "layer": "College", "path": "C:/Users/sanojan/Desktop/sano Tcp/sem5/personal/Projects/Germany/Services/Service_Brandenberg/Jsons/College.geojson" }, "geometry": { "type": "Point", "coordinates": [ 13.4500839, 52.4842705 ] } },
{ "type": "Feature", "properties": { "osm_id": "11321578448", "code": 2084, "fclass": "college", "name": "Theologisches Studienzentrum Berlin", "layer": "College", "path": "C:/Users/sanojan/Desktop/sano Tcp/sem5/personal/Projects/Germany/Services/Service_Brandenberg/Jsons/College.geojson" }, "geometry": { "type": "Point", "coordinates": [ 13.3628471, 52.5262801 ] } },
{ "type": "Feature", "properties": { "osm_id": "11362586269", "code": 2084, "fclass": "college", "name": "MSB Medical School Berlin", "layer": "College", "path": "C:/Users/sanojan/Desktop/sano Tcp/sem5/personal/Projects/Germany/Services/Service_Brandenberg/Jsons/College.geojson" }, "geometry": { "type": "Point", "coordinates": [ 13.376698, 52.5578885 ] } },
{ "type": "Feature", "properties": { "osm_id": "11487065372", "code": 2084, "fclass": "college", "name": "GPB College Mitte", "layer": "College", "path": "C:/Users/sanojan/Desktop/sano Tcp/sem5/personal/Projects/Germany/Services/Service_Brandenberg/Jsons/College.geojson" }, "geometry": { "type": "Point", "coordinates": [ 13.4018131, 52.5103786 ] } },
{ "type": "Feature", "properties": { "osm_id": "11497038725", "code": 2084, "fclass": "college", "name": "Heilpraktikschule in Selbstverwaltung", "layer": "College", "path": "C:/Users/sanojan/Desktop/sano Tcp/sem5/personal/Projects/Germany/Services/Service_Brandenberg/Jsons/College.geojson" }, "geometry": { "type": "Point", "coordinates": [ 13.4236643, 52.5035525 ] } },
{ "type": "Feature", "properties": { "osm_id": "11584154972", "code": 2084, "fclass": "college", "name": "Akademie 2. Lebenshälfte", "layer": "College", "path": "C:/Users/sanojan/Desktop/sano Tcp/sem5/personal/Projects/Germany/Services/Service_Brandenberg/Jsons/College.geojson" }, "geometry": { "type": "Point", "coordinates": [ 13.2403991, 52.3976257 ] } },
{ "type": "Feature", "properties": { "osm_id": "12007327267", "code": 2084, "fclass": "college", "name": "D&B Dienstleistung und Bildung", "layer": "College", "path": "C:/Users/sanojan/Desktop/sano Tcp/sem5/personal/Projects/Germany/Services/Service_Brandenberg/Jsons/College.geojson" }, "geometry": { "type": "Point", "coordinates": [ 13.3169988, 52.5665211 ] } },
{ "type": "Feature", "properties": { "osm_id": "12246158701", "code": 2084, "fclass": "college", "name": "Quadriga Hochschule Berlin GmbH", "layer": "College", "path": "C:/Users/sanojan/Desktop/sano Tcp/sem5/personal/Projects/Germany/Services/Service_Brandenberg/Jsons/College.geojson" }, "geometry": { "type": "Point", "coordinates": [ 13.3973647, 52.5151359 ] } },
{ "type": "Feature", "properties": { "osm_id": "12265600300", "code": 2084, "fclass": "college", "name": "Kolleg Schöneberg der VHS Tempelhof-Schöneberg", "layer": "College", "path": "C:/Users/sanojan/Desktop/sano Tcp/sem5/personal/Projects/Germany/Services/Service_Brandenberg/Jsons/College.geojson" }, "geometry": { "type": "Point", "coordinates": [ 13.3412313, 52.5033628 ] } },
{ "type": "Feature", "properties": { "osm_id": "12373570053", "code": 2084, "fclass": "college", "name": "Filmschauspielschule Berlin", "layer": "College", "path": "C:/Users/sanojan/Desktop/sano Tcp/sem5/personal/Projects/Germany/Services/Service_Brandenberg/Jsons/College.geojson" }, "geometry": { "type": "Point", "coordinates": [ 13.3038747, 52.4775659 ] } },
{ "type": "Feature", "properties": { "osm_id": "12677407058", "code": 2084, "fclass": "college", "name": "Eventus - Fachschule für Sozialpädagogik", "layer": "College", "path": "C:/Users/sanojan/Desktop/sano Tcp/sem5/personal/Projects/Germany/Services/Service_Brandenberg/Jsons/College.geojson" }, "geometry": { "type": "Point", "coordinates": [ 13.3096927, 52.6047242 ] } },
{ "type": "Feature", "properties": { "osm_id": "12776958557", "code": 2084, "fclass": "college", "name": "BBA Immobilienakademie", "layer": "College", "path": "C:/Users/sanojan/Desktop/sano Tcp/sem5/personal/Projects/Germany/Services/Service_Brandenberg/Jsons/College.geojson" }, "geometry": { "type": "Point", "coordinates": [ 13.3366471, 52.4731126 ] } },
{ "type": "Feature", "properties": { "osm_id": "13137812165", "code": 2084, "fclass": "college", "name": "Infopoint Studienberatung I Infopoint student counselling", "layer": "College", "path": "C:/Users/sanojan/Desktop/sano Tcp/sem5/personal/Projects/Germany/Services/Service_Brandenberg/Jsons/College.geojson" }, "geometry": { "type": "Point", "coordinates": [ 13.6309359, 52.3198846 ] } },
{ "type": "Feature", "properties": { "osm_id": "13291530863", "code": 2084, "fclass": "college", "name": "Zentrum Pop", "layer": "College", "path": "C:/Users/sanojan/Desktop/sano Tcp/sem5/personal/Projects/Germany/Services/Service_Brandenberg/Jsons/College.geojson" }, "geometry": { "type": "Point", "coordinates": [ 13.105215, 52.3856051 ] } },
{ "type": "Feature", "properties": { "osm_id": "271729550", "code": 2084, "fclass": "college", "name": "Berufliches Schulzentrum für Bau- und Oberflächentechnik", "layer": "College", "path": "C:\\Users\\sanojan\\Desktop\\sano Tcp\\sem5\\personal\\Projects\\Germany\\Services\\Dresden\\College.geojson" }, "geometry": { "type": "Point", "coordinates": [ 12.4686249, 50.7228587 ] } },
{ "type": "Feature", "properties": { "osm_id": "330712300", "code": 2084, "fclass": "college", "name": "Volkshochschule Sächsische Schweiz", "layer": "College", "path": "C:\\Users\\sanojan\\Desktop\\sano Tcp\\sem5\\personal\\Projects\\Germany\\Services\\Dresden\\College.geojson" }, "geometry": { "type": "Point", "coordinates": [ 13.9408155, 50.9551752 ] } },
{ "type": "Feature", "properties": { "osm_id": "378364796", "code": 2084, "fclass": "college", "name": "Westsächsische Hochschule (FH)", "layer": "College", "path": "C:\\Users\\sanojan\\Desktop\\sano Tcp\\sem5\\personal\\Projects\\Germany\\Services\\Dresden\\College.geojson" }, "geometry": { "type": "Point", "coordinates": [ 12.290229, 50.6239315 ] } },
{ "type": "Feature", "properties": { "osm_id": "414142988", "code": 2084, "fclass": "college", "name": "Volkshochschule Chemnitz", "layer": "College", "path": "C:\\Users\\sanojan\\Desktop\\sano Tcp\\sem5\\personal\\Projects\\Germany\\Services\\Dresden\\College.geojson" }, "geometry": { "type": "Point", "coordinates": [ 12.9234331, 50.8308155 ] } },
{ "type": "Feature", "properties": { "osm_id": "1026963588", "code": 2084, "fclass": "college", "name": "Linguama", "layer": "College", "path": "C:\\Users\\sanojan\\Desktop\\sano Tcp\\sem5\\personal\\Projects\\Germany\\Services\\Dresden\\College.geojson" }, "geometry": { "type": "Point", "coordinates": [ 12.096283, 50.4938218 ] } },
{ "type": "Feature", "properties": { "osm_id": "1028689268", "code": 2084, "fclass": "college", "name": "Meisterschule Orthopädie - Schuhtechnik Siebenlehn", "layer": "College", "path": "C:\\Users\\sanojan\\Desktop\\sano Tcp\\sem5\\personal\\Projects\\Germany\\Services\\Dresden\\College.geojson" }, "geometry": { "type": "Point", "coordinates": [ 13.3072001, 51.031541 ] } },
{ "type": "Feature", "properties": { "osm_id": "1436732318", "code": 2084, "fclass": "college", "name": "Institut für Leichtbau und Kunststofftechnik (ILK)", "layer": "College", "path": "C:\\Users\\sanojan\\Desktop\\sano Tcp\\sem5\\personal\\Projects\\Germany\\Services\\Dresden\\College.geojson" }, "geometry": { "type": "Point", "coordinates": [ 13.7591257, 51.0513891 ] } },
{ "type": "Feature", "properties": { "osm_id": "1515486215", "code": 2084, "fclass": "college", "name": "SAE Institute", "layer": "College", "path": "C:\\Users\\sanojan\\Desktop\\sano Tcp\\sem5\\personal\\Projects\\Germany\\Services\\Dresden\\College.geojson" }, "geometry": { "type": "Point", "coordinates": [ 12.3719374, 51.3400842 ] } },
{ "type": "Feature", "properties": { "osm_id": "2723640757", "code": 2084, "fclass": "college", "name": "Volkshochschule", "layer": "College", "path": "C:\\Users\\sanojan\\Desktop\\sano Tcp\\sem5\\personal\\Projects\\Germany\\Services\\Dresden\\College.geojson" }, "geometry": { "type": "Point", "coordinates": [ 13.6795667, 51.0990514 ] } },
{ "type": "Feature", "properties": { "osm_id": "3708839973", "code": 2084, "fclass": "college", "name": "Abendoberschule", "layer": "College", "path": "C:\\Users\\sanojan\\Desktop\\sano Tcp\\sem5\\personal\\Projects\\Germany\\Services\\Dresden\\College.geojson" }, "geometry": { "type": "Point", "coordinates": [ 13.7832068, 51.0376677 ] } },
{ "type": "Feature", "properties": { "osm_id": "3874483960", "code": 2084, "fclass": "college", "name": "Haus 01 - Carl-Georg-Weitzel Bau (Hauptgebäude)", "layer": "College", "path": "C:\\Users\\sanojan\\Desktop\\sano Tcp\\sem5\\personal\\Projects\\Germany\\Services\\Dresden\\College.geojson" }, "geometry": { "type": "Point", "coordinates": [ 12.972824, 50.98738 ] } },
{ "type": "Feature", "properties": { "osm_id": "3874489257", "code": 2084, "fclass": "college", "name": "Haus 02 - Alfred-Udo-Holzt Bau", "layer": "College", "path": "C:\\Users\\sanojan\\Desktop\\sano Tcp\\sem5\\personal\\Projects\\Germany\\Services\\Dresden\\College.geojson" }, "geometry": { "type": "Point", "coordinates": [ 12.972444, 50.987411 ] } },
{ "type": "Feature", "properties": { "osm_id": "4077738813", "code": 2084, "fclass": "college", "name": "Volkshochschule", "layer": "College", "path": "C:\\Users\\sanojan\\Desktop\\sano Tcp\\sem5\\personal\\Projects\\Germany\\Services\\Dresden\\College.geojson" }, "geometry": { "type": "Point", "coordinates": [ 14.2140612, 51.0201623 ] } },
{ "type": "Feature", "properties": { "osm_id": "4482223756", "code": 2084, "fclass": "college", "name": "Volkshochschule", "layer": "College", "path": "C:\\Users\\sanojan\\Desktop\\sano Tcp\\sem5\\personal\\Projects\\Germany\\Services\\Dresden\\College.geojson" }, "geometry": { "type": "Point", "coordinates": [ 13.6499724, 50.9999477 ] } },
{ "type": "Feature", "properties": { "osm_id": "5169219537", "code": 2084, "fclass": "college", "name": "Fachoberschule Sabel Freital gAG", "layer": "College", "path": "C:\\Users\\sanojan\\Desktop\\sano Tcp\\sem5\\personal\\Projects\\Germany\\Services\\Dresden\\College.geojson" }, "geometry": { "type": "Point", "coordinates": [ 13.6330887, 50.9820383 ] } },
{ "type": "Feature", "properties": { "osm_id": "5169219550", "code": 2084, "fclass": "college", "name": "Fachoberschule Sabel Freital gAG", "layer": "College", "path": "C:\\Users\\sanojan\\Desktop\\sano Tcp\\sem5\\personal\\Projects\\Germany\\Services\\Dresden\\College.geojson" }, "geometry": { "type": "Point", "coordinates": [ 13.6334592, 50.9817861 ] } },
{ "type": "Feature", "properties": { "osm_id": "5385176992", "code": 2084, "fclass": "college", "name": "Hörsaal 39-041", "layer": "College", "path": "C:\\Users\\sanojan\\Desktop\\sano Tcp\\sem5\\personal\\Projects\\Germany\\Services\\Dresden\\College.geojson" }, "geometry": { "type": "Point", "coordinates": [ 12.9702024, 50.9853974 ] } },
{ "type": "Feature", "properties": { "osm_id": "5658904944", "code": 2084, "fclass": "college", "name": "Bildungsakademie Sachsen - Schulteil Görlitz", "layer": "College", "path": "C:\\Users\\sanojan\\Desktop\\sano Tcp\\sem5\\personal\\Projects\\Germany\\Services\\Dresden\\College.geojson" }, "geometry": { "type": "Point", "coordinates": [ 14.9644657, 51.1524951 ] } },
{ "type": "Feature", "properties": { "osm_id": "6238682621", "code": 2084, "fclass": "college", "name": "Volkshochschule Dreiländereck", "layer": "College", "path": "C:\\Users\\sanojan\\Desktop\\sano Tcp\\sem5\\personal\\Projects\\Germany\\Services\\Dresden\\College.geojson" }, "geometry": { "type": "Point", "coordinates": [ 14.635335, 51.5096261 ] } },
{ "type": "Feature", "properties": { "osm_id": "6281070173", "code": 2084, "fclass": "college", "name": "Sächsische Akademie der Künste", "layer": "College", "path": "C:\\Users\\sanojan\\Desktop\\sano Tcp\\sem5\\personal\\Projects\\Germany\\Services\\Dresden\\College.geojson" }, "geometry": { "type": "Point", "coordinates": [ 13.7396161, 51.0608754 ] } },
{ "type": "Feature", "properties": { "osm_id": "6358128306", "code": 2084, "fclass": "college", "name": "Internationale Berufsakademie (iba) Leipzig", "layer": "College", "path": "C:\\Users\\sanojan\\Desktop\\sano Tcp\\sem5\\personal\\Projects\\Germany\\Services\\Dresden\\College.geojson" }, "geometry": { "type": "Point", "coordinates": [ 12.3746157, 51.341293 ] } },
{ "type": "Feature", "properties": { "osm_id": "6951903890", "code": 2084, "fclass": "college", "name": "Loeser", "layer": "College", "path": "C:\\Users\\sanojan\\Desktop\\sano Tcp\\sem5\\personal\\Projects\\Germany\\Services\\Dresden\\College.geojson" }, "geometry": { "type": "Point", "coordinates": [ 13.7437664, 51.023841 ] } },
{ "type": "Feature", "properties": { "osm_id": "6951903899", "code": 2084, "fclass": "college", "name": "Fortbildungsakademie der Wirtschaft", "layer": "College", "path": "C:\\Users\\sanojan\\Desktop\\sano Tcp\\sem5\\personal\\Projects\\Germany\\Services\\Dresden\\College.geojson" }, "geometry": { "type": "Point", "coordinates": [ 13.7434248, 51.0241304 ] } },
{ "type": "Feature", "properties": { "osm_id": "7037855452", "code": 2084, "fclass": "college", "name": "Akademie Deutsche POP Leipzig", "layer": "College", "path": "C:\\Users\\sanojan\\Desktop\\sano Tcp\\sem5\\personal\\Projects\\Germany\\Services\\Dresden\\College.geojson" }, "geometry": { "type": "Point", "coordinates": [ 12.3732211, 51.3302355 ] } },
{ "type": "Feature", "properties": { "osm_id": "7061252216", "code": 2084, "fclass": "college", "name": "Fortbildungs- und Tagungszentrum Meißen", "layer": "College", "path": "C:\\Users\\sanojan\\Desktop\\sano Tcp\\sem5\\personal\\Projects\\Germany\\Services\\Dresden\\College.geojson" }, "geometry": { "type": "Point", "coordinates": [ 13.4813139, 51.1484032 ] } },
{ "type": "Feature", "properties": { "osm_id": "7222062261", "code": 2084, "fclass": "college", "name": "Volkshochschule Mittelsachsen", "layer": "College", "path": "C:\\Users\\sanojan\\Desktop\\sano Tcp\\sem5\\personal\\Projects\\Germany\\Services\\Dresden\\College.geojson" }, "geometry": { "type": "Point", "coordinates": [ 13.3405385, 50.9164577 ] } },
{ "type": "Feature", "properties": { "osm_id": "7320009093", "code": 2084, "fclass": "college", "name": "IB Bildungszentrum Dresden Außenstelle", "layer": "College", "path": "C:\\Users\\sanojan\\Desktop\\sano Tcp\\sem5\\personal\\Projects\\Germany\\Services\\Dresden\\College.geojson" }, "geometry": { "type": "Point", "coordinates": [ 14.214214, 51.0201328 ] } },
{ "type": "Feature", "properties": { "osm_id": "8487531256", "code": 2084, "fclass": "college", "name": "Volkshochschule Plauen", "layer": "College", "path": "C:\\Users\\sanojan\\Desktop\\sano Tcp\\sem5\\personal\\Projects\\Germany\\Services\\Dresden\\College.geojson" }, "geometry": { "type": "Point", "coordinates": [ 12.1458482, 50.4937144 ] } },
{ "type": "Feature", "properties": { "osm_id": "8852350767", "code": 2084, "fclass": "college", "name": "Hochschule für Musik und Theater Felix Mendelssohn Bartholdy Haus Dittrichring", "layer": "College", "path": "C:\\Users\\sanojan\\Desktop\\sano Tcp\\sem5\\personal\\Projects\\Germany\\Services\\Dresden\\College.geojson" }, "geometry": { "type": "Point", "coordinates": [ 12.3692553, 51.3412897 ] } },
{ "type": "Feature", "properties": { "osm_id": "12959165223", "code": 2084, "fclass": "college", "name": "Haus 48: Media-Tech-Space", "layer": "College", "path": "C:\\Users\\sanojan\\Desktop\\sano Tcp\\sem5\\personal\\Projects\\Germany\\Services\\Dresden\\College.geojson" }, "geometry": { "type": "Point", "coordinates": [ 12.3862139, 51.3426957 ] } },
{ "type": "Feature", "properties": { "osm_id": "13016985355", "code": 2084, "fclass": "college", "name": "Bildungszentrum Pirna", "layer": "College", "path": "C:\\Users\\sanojan\\Desktop\\sano Tcp\\sem5\\personal\\Projects\\Germany\\Services\\Dresden\\College.geojson" }, "geometry": { "type": "Point", "coordinates": [ 13.9081279, 50.9586002 ] } },
{ "type": "Feature", "properties": { "osm_id": "13033744444", "code": 2084, "fclass": "college", "name": "it Trainingshaus", "layer": "College", "path": "C:\\Users\\sanojan\\Desktop\\sano Tcp\\sem5\\personal\\Projects\\Germany\\Services\\Dresden\\College.geojson" }, "geometry": { "type": "Point", "coordinates": [ 13.7782106, 51.0683461 ] } },
{ "type": "Feature", "properties": { "osm_id": "13321386698", "code": 2084, "fclass": "college", "name": "VHS", "layer": "College", "path": "C:\\Users\\sanojan\\Desktop\\sano Tcp\\sem5\\personal\\Projects\\Germany\\Services\\Dresden\\College.geojson" }, "geometry": { "type": "Point", "coordinates": [ 12.5204442, 50.7319438 ] } },
{ "type": "Feature", "properties": { "osm_id": "281896883", "code": 2084, "fclass": "college", "name": "VWA Gera", "layer": null, "path": null }, "geometry": { "type": "Point", "coordinates": [ 12.0770134, 50.8950939 ] } },
{ "type": "Feature", "properties": { "osm_id": "360697976", "code": 2084, "fclass": "college", "name": "Volkshochschule", "layer": null, "path": null }, "geometry": { "type": "Point", "coordinates": [ 10.4153055, 50.5703246 ] } },
{ "type": "Feature", "properties": { "osm_id": "362758006", "code": 2084, "fclass": "college", "name": "Volkshochschule Altenburger Land, Geschäftsstelle Altenburg", "layer": null, "path": null }, "geometry": { "type": "Point", "coordinates": [ 12.4241965, 50.9845314 ] } },
{ "type": "Feature", "properties": { "osm_id": "1554517060", "code": 2084, "fclass": "college", "name": "Katholisches Priesterseminar", "layer": null, "path": null }, "geometry": { "type": "Point", "coordinates": [ 11.0211886, 50.9746094 ] } },
{ "type": "Feature", "properties": { "osm_id": "1798096302", "code": 2084, "fclass": "college", "name": "Volkshochschule", "layer": null, "path": null }, "geometry": { "type": "Point", "coordinates": [ 11.5965989, 50.6911413 ] } },
{ "type": "Feature", "properties": { "osm_id": "2013107154", "code": 2084, "fclass": "college", "name": "Volkshochschule Arnstadt-Ilmenau", "layer": null, "path": null }, "geometry": { "type": "Point", "coordinates": [ 10.9483846, 50.8409723 ] } },
{ "type": "Feature", "properties": { "osm_id": "2999158886", "code": 2084, "fclass": "college", "name": "IU Internationale Hochschule", "layer": null, "path": null }, "geometry": { "type": "Point", "coordinates": [ 11.0327517, 50.9835203 ] } },
{ "type": "Feature", "properties": { "osm_id": "3022488888", "code": 2084, "fclass": "college", "name": "Volkshochschule Altenburger Land, Geschäftsstelle Schmölln", "layer": null, "path": null }, "geometry": { "type": "Point", "coordinates": [ 12.3562818, 50.8971478 ] } },
{ "type": "Feature", "properties": { "osm_id": "3595932038", "code": 2084, "fclass": "college", "name": "Volkshochschule Schmalkalden", "layer": null, "path": null }, "geometry": { "type": "Point", "coordinates": [ 10.4453565, 50.7202943 ] } },
{ "type": "Feature", "properties": { "osm_id": "3913057158", "code": 2084, "fclass": "college", "name": "vhs-Außenstelle Zella-Mehlis", "layer": null, "path": null }, "geometry": { "type": "Point", "coordinates": [ 10.6644744, 50.6523169 ] } },
{ "type": "Feature", "properties": { "osm_id": "4018002311", "code": 2084, "fclass": "college", "name": "Volkshochschule Weimar", "layer": null, "path": null }, "geometry": { "type": "Point", "coordinates": [ 11.3290452, 50.9821469 ] } },
{ "type": "Feature", "properties": { "osm_id": "6412277841", "code": 2084, "fclass": "college", "name": "Volkshochschule Jena Unterrichtsort", "layer": null, "path": null }, "geometry": { "type": "Point", "coordinates": [ 11.5895231, 50.9266441 ] } },
{ "type": "Feature", "properties": { "osm_id": "6847826182", "code": 2084, "fclass": "college", "name": "Studierendenrat der EAH Jena", "layer": null, "path": null }, "geometry": { "type": "Point", "coordinates": [ 11.570062, 50.9194286 ] } },
{ "type": "Feature", "properties": { "osm_id": "8283563951", "code": 2084, "fclass": "college", "name": "Arnstädter Bildungswerk e.V.", "layer": null, "path": null }, "geometry": { "type": "Point", "coordinates": [ 10.9673555, 50.8701417 ] } },
{ "type": "Feature", "properties": { "osm_id": "8458114354", "code": 2084, "fclass": "college", "name": "Volkshochschule Jena", "layer": null, "path": null }, "geometry": { "type": "Point", "coordinates": [ 11.5859911, 50.9256912 ] } },
{ "type": "Feature", "properties": { "osm_id": "8493313314", "code": 2084, "fclass": "college", "name": "Volkshochschule", "layer": null, "path": null }, "geometry": { "type": "Point", "coordinates": [ 11.3359371, 50.8675131 ] } },
{ "type": "Feature", "properties": { "osm_id": "9700021412", "code": 2084, "fclass": "college", "name": "Volkshochschule Wartburgkreis - Aussenstelle Dermbach", "layer": null, "path": null }, "geometry": { "type": "Point", "coordinates": [ 10.1190019, 50.7144209 ] } },
{ "type": "Feature", "properties": { "osm_id": "9829140044", "code": 2084, "fclass": "college", "name": "AWT - Akademie für Wirtschaft und Technologie", "layer": null, "path": null }, "geometry": { "type": "Point", "coordinates": [ 10.4578304, 51.2073123 ] } },
{ "type": "Feature", "properties": { "osm_id": "10154681412", "code": 2084, "fclass": "college", "name": "Fachhochschule Polizei", "layer": null, "path": null }, "geometry": { "type": "Point", "coordinates": [ 10.4230857, 50.5849754 ] } },
{ "type": "Feature", "properties": { "osm_id": "10196742774", "code": 2084, "fclass": "college", "name": "HANDWERK & BILDUNG", "layer": null, "path": null }, "geometry": { "type": "Point", "coordinates": [ 10.8628315, 51.3793751 ] } },
{ "type": "Feature", "properties": { "osm_id": "12140293855", "code": 2084, "fclass": "college", "name": "Fachschule für Bau, Wirtschaft und Verkehr", "layer": null, "path": null }, "geometry": { "type": "Point", "coordinates": [ 10.7109147, 50.9472455 ] } },
{ "type": "Feature", "properties": { "osm_id": "12587544031", "code": 2084, "fclass": "college", "name": "Hugo-Aufderbeck-Seminar", "layer": null, "path": null }, "geometry": { "type": "Point", "coordinates": [ 11.0257155, 50.9712136 ] } },
{ "type": "Feature", "properties": { "osm_id": "12597622730", "code": 2084, "fclass": "college", "name": "Kreisvolkshochschule des Landkreises  Greiz", "layer": null, "path": null }, "geometry": { "type": "Point", "coordinates": [ 12.2034365, 50.6538038 ] } }
]
}
