{
"type": "FeatureCollection",
"name": "cafe",
"crs": { "type": "name", "properties": { "name": "urn:ogc:def:crs:OGC:1.3:CRS84" } },
"features": [
{ "type": "Feature", "properties": { "osm_id": "30012754", "code": 2303, "fclass": "cafe", "name": "Eiscafe Eisberg" }, "geometry": { "type": "Point", "coordinates": [ 13.3960965, 52.5388551 ] } },
{ "type": "Feature", "properties": { "osm_id": "32630484", "code": 2303, "fclass": "cafe", "name": "Haus Pehlitzwerder" }, "geometry": { "type": "Point", "coordinates": [ 14.0004959, 52.9118653 ] } },
{ "type": "Feature", "properties": { "osm_id": "35528080", "code": 2303, "fclass": "cafe", "name": "Coffee Star" }, "geometry": { "type": "Point", "coordinates": [ 13.3563426, 52.5476798 ] } },
{ "type": "Feature", "properties": { "osm_id": "66917199", "code": 2303, "fclass": "cafe", "name": "Starbucks" }, "geometry": { "type": "Point", "coordinates": [ 13.3887381, 52.5194029 ] } },
{ "type": "Feature", "properties": { "osm_id": "66917229", "code": 2303, "fclass": "cafe", "name": "Starbucks" }, "geometry": { "type": "Point", "coordinates": [ 13.3797732, 52.5167295 ] } },
{ "type": "Feature", "properties": { "osm_id": "69226202", "code": 2303, "fclass": "cafe", "name": "Brammibal's Donuts" }, "geometry": { "type": "Point", "coordinates": [ 13.3737316, 52.507931 ] } },
{ "type": "Feature", "properties": { "osm_id": "75645699", "code": 2303, "fclass": "cafe", "name": "Espresso House" }, "geometry": { "type": "Point", "coordinates": [ 13.3764297, 52.5105871 ] } },
{ "type": "Feature", "properties": { "osm_id": "81362508", "code": 2303, "fclass": "cafe", "name": "Café & Reisebüro - Eishandwerk" }, "geometry": { "type": "Point", "coordinates": [ 13.2708507, 52.5089075 ] } },
{ "type": "Feature", "properties": { "osm_id": "84644791", "code": 2303, "fclass": "cafe", "name": "Espresso House" }, "geometry": { "type": "Point", "coordinates": [ 13.3770044, 52.5082693 ] } },
{ "type": "Feature", "properties": { "osm_id": "87036259", "code": 2303, "fclass": "cafe", "name": "Espresso House" }, "geometry": { "type": "Point", "coordinates": [ 13.3831456, 52.5307598 ] } },
{ "type": "Feature", "properties": { "osm_id": "87040343", "code": 2303, "fclass": "cafe", "name": "Starbucks" }, "geometry": { "type": "Point", "coordinates": [ 13.3900182, 52.5110724 ] } },
{ "type": "Feature", "properties": { "osm_id": "87040348", "code": 2303, "fclass": "cafe", "name": "Einstein Kaffee" }, "geometry": { "type": "Point", "coordinates": [ 13.3894708, 52.5113571 ] } },
{ "type": "Feature", "properties": { "osm_id": "89274938", "code": 2303, "fclass": "cafe", "name": "Segafredo" }, "geometry": { "type": "Point", "coordinates": [ 13.4102122, 52.5194912 ] } },
{ "type": "Feature", "properties": { "osm_id": "115544715", "code": 2303, "fclass": "cafe", "name": "Caffè Kamee" }, "geometry": { "type": "Point", "coordinates": [ 13.530639, 52.4296874 ] } },
{ "type": "Feature", "properties": { "osm_id": "193509019", "code": 2303, "fclass": "cafe", "name": "Markt Café" }, "geometry": { "type": "Point", "coordinates": [ 14.005064, 51.5193062 ] } },
{ "type": "Feature", "properties": { "osm_id": "203592976", "code": 2303, "fclass": "cafe", "name": "Café Kibar Wunderbar" }, "geometry": { "type": "Point", "coordinates": [ 13.5553974, 52.5189237 ] } },
{ "type": "Feature", "properties": { "osm_id": "208510718", "code": 2303, "fclass": "cafe", "name": "The Leaf" }, "geometry": { "type": "Point", "coordinates": [ 13.3644914, 52.5640793 ] } },
{ "type": "Feature", "properties": { "osm_id": "249299067", "code": 2303, "fclass": "cafe", "name": "SowohlAlsAuch" }, "geometry": { "type": "Point", "coordinates": [ 13.4204986, 52.5382237 ] } },
{ "type": "Feature", "properties": { "osm_id": "253999353", "code": 2303, "fclass": "cafe", "name": "DoubleEye" }, "geometry": { "type": "Point", "coordinates": [ 13.3540483, 52.4879922 ] } },
{ "type": "Feature", "properties": { "osm_id": "263420460", "code": 2303, "fclass": "cafe", "name": "Café Heider" }, "geometry": { "type": "Point", "coordinates": [ 13.0581256, 52.4030885 ] } },
{ "type": "Feature", "properties": { "osm_id": "264750183", "code": 2303, "fclass": "cafe", "name": "Hermanns Mensa" }, "geometry": { "type": "Point", "coordinates": [ 13.0346118, 52.3830264 ] } },
{ "type": "Feature", "properties": { "osm_id": "267511086", "code": 2303, "fclass": "cafe", "name": "Krauses" }, "geometry": { "type": "Point", "coordinates": [ 13.9486795, 51.7467538 ] } },
{ "type": "Feature", "properties": { "osm_id": "267974983", "code": 2303, "fclass": "cafe", "name": "Drebkauer Kräuter- & Beerenhof" }, "geometry": { "type": "Point", "coordinates": [ 14.2154749, 51.6586785 ] } },
{ "type": "Feature", "properties": { "osm_id": "268760098", "code": 2303, "fclass": "cafe", "name": "Café Meta" }, "geometry": { "type": "Point", "coordinates": [ 13.4061087, 52.545836 ] } },
{ "type": "Feature", "properties": { "osm_id": "268915525", "code": 2303, "fclass": "cafe", "name": "Kuno 15" }, "geometry": { "type": "Point", "coordinates": [ 13.291085, 52.5038271 ] } },
{ "type": "Feature", "properties": { "osm_id": "269713585", "code": 2303, "fclass": "cafe", "name": "Bistro in der Akademie der Künste" }, "geometry": { "type": "Point", "coordinates": [ 13.3464153, 52.5183945 ] } },
{ "type": "Feature", "properties": { "osm_id": "270814693", "code": 2303, "fclass": "cafe", "name": "Totto Land" }, "geometry": { "type": "Point", "coordinates": [ 13.2172579, 52.4272121 ] } },
{ "type": "Feature", "properties": { "osm_id": "271668412", "code": 2303, "fclass": "cafe", "name": "Mokka & Juice House" }, "geometry": { "type": "Point", "coordinates": [ 13.3609478, 52.4882026 ] } },
{ "type": "Feature", "properties": { "osm_id": "272593724", "code": 2303, "fclass": "cafe", "name": "eßkultur" }, "geometry": { "type": "Point", "coordinates": [ 13.2925424, 52.456348 ] } },
{ "type": "Feature", "properties": { "osm_id": "272811519", "code": 2303, "fclass": "cafe", "name": "Bizim Kiez" }, "geometry": { "type": "Point", "coordinates": [ 13.4435002, 52.4980559 ] } },
{ "type": "Feature", "properties": { "osm_id": "275564580", "code": 2303, "fclass": "cafe", "name": "Espresso House" }, "geometry": { "type": "Point", "coordinates": [ 13.3869997, 52.525912 ] } },
{ "type": "Feature", "properties": { "osm_id": "277646554", "code": 2303, "fclass": "cafe", "name": "Café Schmoo" }, "geometry": { "type": "Point", "coordinates": [ 13.2242105, 52.0607361 ] } },
{ "type": "Feature", "properties": { "osm_id": "277836777", "code": 2303, "fclass": "cafe", "name": "Kiez-Bäckerei" }, "geometry": { "type": "Point", "coordinates": [ 13.4677356, 52.4686515 ] } },
{ "type": "Feature", "properties": { "osm_id": "278125487", "code": 2303, "fclass": "cafe", "name": "Uebereck" }, "geometry": { "type": "Point", "coordinates": [ 13.4663979, 52.5054349 ] } },
{ "type": "Feature", "properties": { "osm_id": "278295436", "code": 2303, "fclass": "cafe", "name": "Barcomi's Café & Kaffeerösterei" }, "geometry": { "type": "Point", "coordinates": [ 13.3935082, 52.4890118 ] } },
{ "type": "Feature", "properties": { "osm_id": "278874829", "code": 2303, "fclass": "cafe", "name": "Milchgesicht" }, "geometry": { "type": "Point", "coordinates": [ 13.4630543, 52.5146574 ] } },
{ "type": "Feature", "properties": { "osm_id": "279203034", "code": 2303, "fclass": "cafe", "name": "Die Förste" }, "geometry": { "type": "Point", "coordinates": [ 13.0807796, 51.9915568 ] } },
{ "type": "Feature", "properties": { "osm_id": "281334742", "code": 2303, "fclass": "cafe", "name": "Konditorei & Eiscafé Engel" }, "geometry": { "type": "Point", "coordinates": [ 13.5567171, 52.5467698 ] } },
{ "type": "Feature", "properties": { "osm_id": "281513616", "code": 2303, "fclass": "cafe", "name": "Cafe Finovo" }, "geometry": { "type": "Point", "coordinates": [ 13.3675144, 52.4910478 ] } },
{ "type": "Feature", "properties": { "osm_id": "282420126", "code": 2303, "fclass": "cafe", "name": "Caramello" }, "geometry": { "type": "Point", "coordinates": [ 13.457186, 52.5097761 ] } },
{ "type": "Feature", "properties": { "osm_id": "282421717", "code": 2303, "fclass": "cafe", "name": "Intimes" }, "geometry": { "type": "Point", "coordinates": [ 13.4582338, 52.5128318 ] } },
{ "type": "Feature", "properties": { "osm_id": "282430727", "code": 2303, "fclass": "cafe", "name": "Café Tasso" }, "geometry": { "type": "Point", "coordinates": [ 13.4570212, 52.5160258 ] } },
{ "type": "Feature", "properties": { "osm_id": "282718717", "code": 2303, "fclass": "cafe", "name": "Kaffeehaus Birkenwerder" }, "geometry": { "type": "Point", "coordinates": [ 13.2860184, 52.6883067 ] } },
{ "type": "Feature", "properties": { "osm_id": "282739852", "code": 2303, "fclass": "cafe", "name": "Brunchella" }, "geometry": { "type": "Point", "coordinates": [ 13.4631774, 52.5166158 ] } },
{ "type": "Feature", "properties": { "osm_id": "283547098", "code": 2303, "fclass": "cafe", "name": "Birnbaum's Eiscafé" }, "geometry": { "type": "Point", "coordinates": [ 13.3074409, 51.8901373 ] } },
{ "type": "Feature", "properties": { "osm_id": "286428319", "code": 2303, "fclass": "cafe", "name": "Café Lutetia" }, "geometry": { "type": "Point", "coordinates": [ 13.2019954, 52.5370841 ] } },
{ "type": "Feature", "properties": { "osm_id": "288221894", "code": 2303, "fclass": "cafe", "name": "Haus im Park" }, "geometry": { "type": "Point", "coordinates": [ 13.0443846, 52.4184871 ] } },
{ "type": "Feature", "properties": { "osm_id": "289414441", "code": 2303, "fclass": "cafe", "name": "Das kleine Eiswerk" }, "geometry": { "type": "Point", "coordinates": [ 13.6015579, 52.4820047 ] } },
{ "type": "Feature", "properties": { "osm_id": "291535997", "code": 2303, "fclass": "cafe", "name": "Pars" }, "geometry": { "type": "Point", "coordinates": [ 13.3213947, 52.5074506 ] } },
{ "type": "Feature", "properties": { "osm_id": "292203637", "code": 2303, "fclass": "cafe", "name": "Loena" }, "geometry": { "type": "Point", "coordinates": [ 13.3230488, 52.4978961 ] } },
{ "type": "Feature", "properties": { "osm_id": "292203638", "code": 2303, "fclass": "cafe", "name": "Sweet2go" }, "geometry": { "type": "Point", "coordinates": [ 13.3228653, 52.4979575 ] } },
{ "type": "Feature", "properties": { "osm_id": "292928876", "code": 2303, "fclass": "cafe", "name": "Eiscafe Leibnitz" }, "geometry": { "type": "Point", "coordinates": [ 13.5501711, 51.611505 ] } },
{ "type": "Feature", "properties": { "osm_id": "297219420", "code": 2303, "fclass": "cafe", "name": "Spreewald-Café" }, "geometry": { "type": "Point", "coordinates": [ 13.8956804, 51.9406361 ] } },
{ "type": "Feature", "properties": { "osm_id": "300088768", "code": 2303, "fclass": "cafe", "name": "Rosalienhof" }, "geometry": { "type": "Point", "coordinates": [ 13.3459615, 53.2674695 ] } },
{ "type": "Feature", "properties": { "osm_id": "300658414", "code": 2303, "fclass": "cafe", "name": "Sommercafé Kladow" }, "geometry": { "type": "Point", "coordinates": [ 13.1306758, 52.4445732 ] } },
{ "type": "Feature", "properties": { "osm_id": "305259644", "code": 2303, "fclass": "cafe", "name": "The Coffee Shop" }, "geometry": { "type": "Point", "coordinates": [ 13.3983179, 52.5152592 ] } },
{ "type": "Feature", "properties": { "osm_id": "305260598", "code": 2303, "fclass": "cafe", "name": "Café im Alten Museum" }, "geometry": { "type": "Point", "coordinates": [ 13.3985266, 52.5191167 ] } },
{ "type": "Feature", "properties": { "osm_id": "307398125", "code": 2303, "fclass": "cafe", "name": "Eiscafé Da Capo" }, "geometry": { "type": "Point", "coordinates": [ 14.3332985, 51.7605386 ] } },
{ "type": "Feature", "properties": { "osm_id": "307402887", "code": 2303, "fclass": "cafe", "name": "Coffeelatte" }, "geometry": { "type": "Point", "coordinates": [ 14.334238, 51.7609543 ] } },
{ "type": "Feature", "properties": { "osm_id": "307404978", "code": 2303, "fclass": "cafe", "name": "Conditorei & Cafe Lauterbach" }, "geometry": { "type": "Point", "coordinates": [ 14.3336433, 51.7595891 ] } },
{ "type": "Feature", "properties": { "osm_id": "307717829", "code": 2303, "fclass": "cafe", "name": "Tales Untold" }, "geometry": { "type": "Point", "coordinates": [ 13.4479958, 52.5123446 ] } },
{ "type": "Feature", "properties": { "osm_id": "308410291", "code": 2303, "fclass": "cafe", "name": "Tudo" }, "geometry": { "type": "Point", "coordinates": [ 13.4096608, 52.5213767 ] } },
{ "type": "Feature", "properties": { "osm_id": "308523030", "code": 2303, "fclass": "cafe", "name": "Kiez Kaffee Kraft" }, "geometry": { "type": "Point", "coordinates": [ 13.4040715, 52.5511873 ] } },
{ "type": "Feature", "properties": { "osm_id": "309627391", "code": 2303, "fclass": "cafe", "name": "Overcomer Bubble Tea" }, "geometry": { "type": "Point", "coordinates": [ 13.2825941, 52.4513354 ] } },
{ "type": "Feature", "properties": { "osm_id": "310267637", "code": 2303, "fclass": "cafe", "name": "Schönes Café" }, "geometry": { "type": "Point", "coordinates": [ 13.418062, 52.4923642 ] } },
{ "type": "Feature", "properties": { "osm_id": "310269864", "code": 2303, "fclass": "cafe", "name": "Narr-Bar" }, "geometry": { "type": "Point", "coordinates": [ 13.4203993, 52.4931596 ] } },
{ "type": "Feature", "properties": { "osm_id": "312327902", "code": 2303, "fclass": "cafe", "name": "Bagels & Coffee" }, "geometry": { "type": "Point", "coordinates": [ 13.0575672, 52.4018067 ] } },
{ "type": "Feature", "properties": { "osm_id": "312334121", "code": 2303, "fclass": "cafe", "name": "Café zum Kanzler Eck" }, "geometry": { "type": "Point", "coordinates": [ 13.0604316, 52.3894499 ] } },
{ "type": "Feature", "properties": { "osm_id": "312695604", "code": 2303, "fclass": "cafe", "name": "Konditorei Schaller" }, "geometry": { "type": "Point", "coordinates": [ 13.2155408, 51.4341146 ] } },
{ "type": "Feature", "properties": { "osm_id": "312697036", "code": 2303, "fclass": "cafe", "name": "Café Bilderbuch" }, "geometry": { "type": "Point", "coordinates": [ 13.3551643, 52.4866549 ] } },
{ "type": "Feature", "properties": { "osm_id": "312701526", "code": 2303, "fclass": "cafe", "name": "Cafe Alte Schule" }, "geometry": { "type": "Point", "coordinates": [ 12.7538549, 52.6263051 ] } },
{ "type": "Feature", "properties": { "osm_id": "312814976", "code": 2303, "fclass": "cafe", "name": "Fahlands Filmbistro" }, "geometry": { "type": "Point", "coordinates": [ 13.0575622, 52.4006728 ] } },
{ "type": "Feature", "properties": { "osm_id": "313144186", "code": 2303, "fclass": "cafe", "name": "Metropol" }, "geometry": { "type": "Point", "coordinates": [ 13.4455523, 52.5254302 ] } },
{ "type": "Feature", "properties": { "osm_id": "313374101", "code": 2303, "fclass": "cafe", "name": "Weilands Backstube" }, "geometry": { "type": "Point", "coordinates": [ 14.3266543, 51.749199 ] } },
{ "type": "Feature", "properties": { "osm_id": "313544112", "code": 2303, "fclass": "cafe", "name": "Schiller Theatercafé" }, "geometry": { "type": "Point", "coordinates": [ 14.3242896, 51.7569732 ] } },
{ "type": "Feature", "properties": { "osm_id": "314401620", "code": 2303, "fclass": "cafe", "name": "Ja Dilo" }, "geometry": { "type": "Point", "coordinates": [ 13.4509232, 52.5223054 ] } },
{ "type": "Feature", "properties": { "osm_id": "314752483", "code": 2303, "fclass": "cafe", "name": "caffe e cioccolata" }, "geometry": { "type": "Point", "coordinates": [ 13.3986537, 52.5351623 ] } },
{ "type": "Feature", "properties": { "osm_id": "315549929", "code": 2303, "fclass": "cafe", "name": "La Lúcuma" }, "geometry": { "type": "Point", "coordinates": [ 13.402935, 52.536814 ] } },
{ "type": "Feature", "properties": { "osm_id": "315738178", "code": 2303, "fclass": "cafe", "name": "Cup Arkona" }, "geometry": { "type": "Point", "coordinates": [ 13.4007116, 52.5373544 ] } },
{ "type": "Feature", "properties": { "osm_id": "316883775", "code": 2303, "fclass": "cafe", "name": "Cafe Fräulein Dietrich" }, "geometry": { "type": "Point", "coordinates": [ 13.4040229, 52.5373736 ] } },
{ "type": "Feature", "properties": { "osm_id": "317179404", "code": 2303, "fclass": "cafe", "name": "Fedora" }, "geometry": { "type": "Point", "coordinates": [ 13.3580798, 52.5472409 ] } },
{ "type": "Feature", "properties": { "osm_id": "317293220", "code": 2303, "fclass": "cafe", "name": "Café Markt 1" }, "geometry": { "type": "Point", "coordinates": [ 13.0799023, 51.9918739 ] } },
{ "type": "Feature", "properties": { "osm_id": "317550357", "code": 2303, "fclass": "cafe", "name": "Gerdan's Café" }, "geometry": { "type": "Point", "coordinates": [ 13.5319872, 52.4310052 ] } },
{ "type": "Feature", "properties": { "osm_id": "319181468", "code": 2303, "fclass": "cafe", "name": "Espresso House" }, "geometry": { "type": "Point", "coordinates": [ 13.4132889, 52.5498572 ] } },
{ "type": "Feature", "properties": { "osm_id": "323226411", "code": 2303, "fclass": "cafe", "name": "Café Viktoria" }, "geometry": { "type": "Point", "coordinates": [ 13.307115, 52.4562032 ] } },
{ "type": "Feature", "properties": { "osm_id": "324792576", "code": 2303, "fclass": "cafe", "name": "Eiscafe Europa" }, "geometry": { "type": "Point", "coordinates": [ 13.3629671, 52.4133405 ] } },
{ "type": "Feature", "properties": { "osm_id": "327459244", "code": 2303, "fclass": "cafe", "name": "McCafé" }, "geometry": { "type": "Point", "coordinates": [ 14.5508029, 52.3474199 ] } },
{ "type": "Feature", "properties": { "osm_id": "329969468", "code": 2303, "fclass": "cafe", "name": "Lotus Cafe" }, "geometry": { "type": "Point", "coordinates": [ 13.4238976, 52.5175686 ] } },
{ "type": "Feature", "properties": { "osm_id": "330002955", "code": 2303, "fclass": "cafe", "name": "Gränz Kaffee" }, "geometry": { "type": "Point", "coordinates": [ 14.5527843, 52.3444087 ] } },
{ "type": "Feature", "properties": { "osm_id": "330004361", "code": 2303, "fclass": "cafe", "name": "Cafè Diana" }, "geometry": { "type": "Point", "coordinates": [ 14.553433, 52.3440358 ] } },
{ "type": "Feature", "properties": { "osm_id": "330264334", "code": 2303, "fclass": "cafe", "name": "St. Oberholz" }, "geometry": { "type": "Point", "coordinates": [ 13.4017825, 52.5295304 ] } },
{ "type": "Feature", "properties": { "osm_id": "331078826", "code": 2303, "fclass": "cafe", "name": "Eiscafé Bellini" }, "geometry": { "type": "Point", "coordinates": [ 14.5516808, 52.3435585 ] } },
{ "type": "Feature", "properties": { "osm_id": "331174305", "code": 2303, "fclass": "cafe", "name": "Café Dreißig" }, "geometry": { "type": "Point", "coordinates": [ 14.5513919, 52.3447796 ] } },
{ "type": "Feature", "properties": { "osm_id": "332242745", "code": 2303, "fclass": "cafe", "name": "Cafe Seeblick" }, "geometry": { "type": "Point", "coordinates": [ 13.5835136, 52.2092369 ] } },
{ "type": "Feature", "properties": { "osm_id": "332246851", "code": 2303, "fclass": "cafe", "name": "Eiscafe Wronowski" }, "geometry": { "type": "Point", "coordinates": [ 13.6094246, 52.1360911 ] } },
{ "type": "Feature", "properties": { "osm_id": "332625327", "code": 2303, "fclass": "cafe", "name": "Zimt & Zucker" }, "geometry": { "type": "Point", "coordinates": [ 13.384282, 52.5206164 ] } },
{ "type": "Feature", "properties": { "osm_id": "333136478", "code": 2303, "fclass": "cafe", "name": "Café Albrecht" }, "geometry": { "type": "Point", "coordinates": [ 13.3837544, 52.5230929 ] } },
{ "type": "Feature", "properties": { "osm_id": "333136721", "code": 2303, "fclass": "cafe", "name": "Espresso Ambulanz" }, "geometry": { "type": "Point", "coordinates": [ 13.3880152, 52.5260119 ] } },
{ "type": "Feature", "properties": { "osm_id": "333192881", "code": 2303, "fclass": "cafe", "name": "Wolke" }, "geometry": { "type": "Point", "coordinates": [ 13.3441689, 52.4650127 ] } },
{ "type": "Feature", "properties": { "osm_id": "333336881", "code": 2303, "fclass": "cafe", "name": null }, "geometry": { "type": "Point", "coordinates": [ 13.4225619, 52.4838008 ] } },
{ "type": "Feature", "properties": { "osm_id": "334638166", "code": 2303, "fclass": "cafe", "name": "Monsieur Toche" }, "geometry": { "type": "Point", "coordinates": [ 13.384463, 52.5223826 ] } },
{ "type": "Feature", "properties": { "osm_id": "335172577", "code": 2303, "fclass": "cafe", "name": "Aux Delices Normands" }, "geometry": { "type": "Point", "coordinates": [ 13.276018, 52.4483263 ] } },
{ "type": "Feature", "properties": { "osm_id": "335594170", "code": 2303, "fclass": "cafe", "name": "Feuerstein" }, "geometry": { "type": "Point", "coordinates": [ 13.4008848, 52.5331919 ] } },
{ "type": "Feature", "properties": { "osm_id": "336139006", "code": 2303, "fclass": "cafe", "name": "Café Fleury" }, "geometry": { "type": "Point", "coordinates": [ 13.4022416, 52.5312177 ] } },
{ "type": "Feature", "properties": { "osm_id": "339305531", "code": 2303, "fclass": "cafe", "name": "Cafe & Konditorei" }, "geometry": { "type": "Point", "coordinates": [ 13.5634074, 52.5423416 ] } },
{ "type": "Feature", "properties": { "osm_id": "339819416", "code": 2303, "fclass": "cafe", "name": "Napoljonska" }, "geometry": { "type": "Point", "coordinates": [ 13.4057256, 52.5349278 ] } },
{ "type": "Feature", "properties": { "osm_id": "345552308", "code": 2303, "fclass": "cafe", "name": "Luna & Sole" }, "geometry": { "type": "Point", "coordinates": [ 13.5194662, 52.4804428 ] } },
{ "type": "Feature", "properties": { "osm_id": "346196517", "code": 2303, "fclass": "cafe", "name": "Ice Angels" }, "geometry": { "type": "Point", "coordinates": [ 13.5705532, 52.5412048 ] } },
{ "type": "Feature", "properties": { "osm_id": "347278881", "code": 2303, "fclass": "cafe", "name": "bei Maria" }, "geometry": { "type": "Point", "coordinates": [ 13.4018075, 52.5331417 ] } },
{ "type": "Feature", "properties": { "osm_id": "347294453", "code": 2303, "fclass": "cafe", "name": "Genç" }, "geometry": { "type": "Point", "coordinates": [ 13.3234863, 52.4290088 ] } },
{ "type": "Feature", "properties": { "osm_id": "347422929", "code": 2303, "fclass": "cafe", "name": "Caffé Maura" }, "geometry": { "type": "Point", "coordinates": [ 13.3113788, 52.4428752 ] } },
{ "type": "Feature", "properties": { "osm_id": "348053171", "code": 2303, "fclass": "cafe", "name": "Tillmann's Café Krone" }, "geometry": { "type": "Point", "coordinates": [ 13.2327133, 52.4383177 ] } },
{ "type": "Feature", "properties": { "osm_id": "352936932", "code": 2303, "fclass": "cafe", "name": "Café Monaco" }, "geometry": { "type": "Point", "coordinates": [ 13.367236, 52.49307 ] } },
{ "type": "Feature", "properties": { "osm_id": "359754354", "code": 2303, "fclass": "cafe", "name": "Parkcafé Pusteblume" }, "geometry": { "type": "Point", "coordinates": [ 13.3365051, 52.4802048 ] } },
{ "type": "Feature", "properties": { "osm_id": "360314201", "code": 2303, "fclass": "cafe", "name": "Eiscafé Isola Bella" }, "geometry": { "type": "Point", "coordinates": [ 12.9400065, 52.3782736 ] } },
{ "type": "Feature", "properties": { "osm_id": "361569575", "code": 2303, "fclass": "cafe", "name": "Felicia" }, "geometry": { "type": "Point", "coordinates": [ 13.42333, 52.4788003 ] } },
{ "type": "Feature", "properties": { "osm_id": "365099975", "code": 2303, "fclass": "cafe", "name": "λ" }, "geometry": { "type": "Point", "coordinates": [ 13.4573118, 52.5127816 ] } },
{ "type": "Feature", "properties": { "osm_id": "365102429", "code": 2303, "fclass": "cafe", "name": "Lino Restaurant & Sushi Bar" }, "geometry": { "type": "Point", "coordinates": [ 13.6023915, 52.3729394 ] } },
{ "type": "Feature", "properties": { "osm_id": "366943233", "code": 2303, "fclass": "cafe", "name": "TreBo" }, "geometry": { "type": "Point", "coordinates": [ 13.526982, 52.4857307 ] } },
{ "type": "Feature", "properties": { "osm_id": "366986850", "code": 2303, "fclass": "cafe", "name": "Ulteamate" }, "geometry": { "type": "Point", "coordinates": [ 13.3133688, 52.5065004 ] } },
{ "type": "Feature", "properties": { "osm_id": "370455026", "code": 2303, "fclass": "cafe", "name": "Cafe Lisboa" }, "geometry": { "type": "Point", "coordinates": [ 13.3077924, 52.5090275 ] } },
{ "type": "Feature", "properties": { "osm_id": "370455636", "code": 2303, "fclass": "cafe", "name": "Homera" }, "geometry": { "type": "Point", "coordinates": [ 13.3054849, 52.5080285 ] } },
{ "type": "Feature", "properties": { "osm_id": "370693137", "code": 2303, "fclass": "cafe", "name": "Wahn" }, "geometry": { "type": "Point", "coordinates": [ 14.3122366, 51.7441915 ] } },
{ "type": "Feature", "properties": { "osm_id": "370852065", "code": 2303, "fclass": "cafe", "name": "Le midi" }, "geometry": { "type": "Point", "coordinates": [ 13.4153599, 52.5470948 ] } },
{ "type": "Feature", "properties": { "osm_id": "371832454", "code": 2303, "fclass": "cafe", "name": "Café Kali" }, "geometry": { "type": "Point", "coordinates": [ 13.3075842, 52.5102468 ] } },
{ "type": "Feature", "properties": { "osm_id": "373563204", "code": 2303, "fclass": "cafe", "name": "Coffee Fellows" }, "geometry": { "type": "Point", "coordinates": [ 13.9416354, 52.8482595 ] } },
{ "type": "Feature", "properties": { "osm_id": "376042508", "code": 2303, "fclass": "cafe", "name": "Bistro Lindenblatt" }, "geometry": { "type": "Point", "coordinates": [ 13.8702437, 52.9037014 ] } },
{ "type": "Feature", "properties": { "osm_id": "387487628", "code": 2303, "fclass": "cafe", "name": "eleven" }, "geometry": { "type": "Point", "coordinates": [ 13.3797813, 52.5095598 ] } },
{ "type": "Feature", "properties": { "osm_id": "388291809", "code": 2303, "fclass": "cafe", "name": "Zur alten Backstube" }, "geometry": { "type": "Point", "coordinates": [ 13.3790095, 52.6004376 ] } },
{ "type": "Feature", "properties": { "osm_id": "388939733", "code": 2303, "fclass": "cafe", "name": "Binnbonn Café" }, "geometry": { "type": "Point", "coordinates": [ 13.4670037, 52.505529 ] } },
{ "type": "Feature", "properties": { "osm_id": "389896794", "code": 2303, "fclass": "cafe", "name": "Roberta" }, "geometry": { "type": "Point", "coordinates": [ 13.30369, 52.4999162 ] } },
{ "type": "Feature", "properties": { "osm_id": "391769942", "code": 2303, "fclass": "cafe", "name": "Sieberhein" }, "geometry": { "type": "Point", "coordinates": [ 12.8699863, 52.0955542 ] } },
{ "type": "Feature", "properties": { "osm_id": "394765583", "code": 2303, "fclass": "cafe", "name": "Café an der Brücke" }, "geometry": { "type": "Point", "coordinates": [ 13.9148799, 51.5493397 ] } },
{ "type": "Feature", "properties": { "osm_id": "394829831", "code": 2303, "fclass": "cafe", "name": "Café Morgenlicht" }, "geometry": { "type": "Point", "coordinates": [ 13.295969, 52.51579 ] } },
{ "type": "Feature", "properties": { "osm_id": "395599322", "code": 2303, "fclass": "cafe", "name": "Café Madlen" }, "geometry": { "type": "Point", "coordinates": [ 13.5326439, 52.6596876 ] } },
{ "type": "Feature", "properties": { "osm_id": "411079723", "code": 2303, "fclass": "cafe", "name": "Beate's Eiscafé" }, "geometry": { "type": "Point", "coordinates": [ 13.3143727, 52.2278945 ] } },
{ "type": "Feature", "properties": { "osm_id": "412722274", "code": 2303, "fclass": "cafe", "name": "Klein Schwalbenberg" }, "geometry": { "type": "Point", "coordinates": [ 13.7216644, 52.4192605 ] } },
{ "type": "Feature", "properties": { "osm_id": "412790055", "code": 2303, "fclass": "cafe", "name": "Café Eselsohr" }, "geometry": { "type": "Point", "coordinates": [ 13.1290243, 52.3936573 ] } },
{ "type": "Feature", "properties": { "osm_id": "413664923", "code": 2303, "fclass": "cafe", "name": "Eiscafé \"Am See\"" }, "geometry": { "type": "Point", "coordinates": [ 12.4302439, 52.6488126 ] } },
{ "type": "Feature", "properties": { "osm_id": "415309920", "code": 2303, "fclass": "cafe", "name": "Café Bolacha" }, "geometry": { "type": "Point", "coordinates": [ 13.4225078, 52.5412773 ] } },
{ "type": "Feature", "properties": { "osm_id": "415766134", "code": 2303, "fclass": "cafe", "name": "Piccolo gelato" }, "geometry": { "type": "Point", "coordinates": [ 12.9898189, 52.3473503 ] } },
{ "type": "Feature", "properties": { "osm_id": "416405905", "code": 2303, "fclass": "cafe", "name": "Coffee Station" }, "geometry": { "type": "Point", "coordinates": [ 13.2808788, 52.4506268 ] } },
{ "type": "Feature", "properties": { "osm_id": "416858116", "code": 2303, "fclass": "cafe", "name": "Kaffee-Haus Madlen" }, "geometry": { "type": "Point", "coordinates": [ 13.5173903, 52.6492501 ] } },
{ "type": "Feature", "properties": { "osm_id": "419873047", "code": 2303, "fclass": "cafe", "name": "Bohnenranke" }, "geometry": { "type": "Point", "coordinates": [ 13.3071263, 52.4466712 ] } },
{ "type": "Feature", "properties": { "osm_id": "420300210", "code": 2303, "fclass": "cafe", "name": "Café Goldrand" }, "geometry": { "type": "Point", "coordinates": [ 14.1203939, 52.9229691 ] } },
{ "type": "Feature", "properties": { "osm_id": "420646832", "code": 2303, "fclass": "cafe", "name": "Ulf's Café im HPI" }, "geometry": { "type": "Point", "coordinates": [ 13.131179, 52.3932775 ] } },
{ "type": "Feature", "properties": { "osm_id": "427932030", "code": 2303, "fclass": "cafe", "name": "Café Planwirtschaft" }, "geometry": { "type": "Point", "coordinates": [ 13.3245364, 52.5114759 ] } },
{ "type": "Feature", "properties": { "osm_id": "427971747", "code": 2303, "fclass": "cafe", "name": "Eiscafe Schmidtke" }, "geometry": { "type": "Point", "coordinates": [ 12.7358379, 52.3128069 ] } },
{ "type": "Feature", "properties": { "osm_id": "428052632", "code": 2303, "fclass": "cafe", "name": "Milano" }, "geometry": { "type": "Point", "coordinates": [ 13.6092669, 52.3147952 ] } },
{ "type": "Feature", "properties": { "osm_id": "428053788", "code": 2303, "fclass": "cafe", "name": "Coffee Mile" }, "geometry": { "type": "Point", "coordinates": [ 13.6076345, 52.3149428 ] } },
{ "type": "Feature", "properties": { "osm_id": "428114285", "code": 2303, "fclass": "cafe", "name": "Eiscafé Falsone" }, "geometry": { "type": "Point", "coordinates": [ 13.315569, 52.4473524 ] } },
{ "type": "Feature", "properties": { "osm_id": "429735606", "code": 2303, "fclass": "cafe", "name": "Spoonful" }, "geometry": { "type": "Point", "coordinates": [ 13.3969021, 52.527189 ] } },
{ "type": "Feature", "properties": { "osm_id": "430043457", "code": 2303, "fclass": "cafe", "name": "Cafe Rosengarten" }, "geometry": { "type": "Point", "coordinates": [ 13.3966855, 52.3765712 ] } },
{ "type": "Feature", "properties": { "osm_id": "430866196", "code": 2303, "fclass": "cafe", "name": "Gelateria il Sole" }, "geometry": { "type": "Point", "coordinates": [ 12.9732767, 52.3628037 ] } },
{ "type": "Feature", "properties": { "osm_id": "430947862", "code": 2303, "fclass": "cafe", "name": "Anitas Eiscafe" }, "geometry": { "type": "Point", "coordinates": [ 14.2234717, 53.0121584 ] } },
{ "type": "Feature", "properties": { "osm_id": "430948070", "code": 2303, "fclass": "cafe", "name": "Eiscafe Silke" }, "geometry": { "type": "Point", "coordinates": [ 14.2100449, 53.058544 ] } },
{ "type": "Feature", "properties": { "osm_id": "431258771", "code": 2303, "fclass": "cafe", "name": "Siebert’s Back & Café" }, "geometry": { "type": "Point", "coordinates": [ 13.4897579, 52.6174691 ] } },
{ "type": "Feature", "properties": { "osm_id": "432486560", "code": 2303, "fclass": "cafe", "name": "Endlich Mittag" }, "geometry": { "type": "Point", "coordinates": [ 13.3270868, 52.5220903 ] } },
{ "type": "Feature", "properties": { "osm_id": "432527532", "code": 2303, "fclass": "cafe", "name": "Zuckerbäckerei" }, "geometry": { "type": "Point", "coordinates": [ 13.6251238, 52.299173 ] } },
{ "type": "Feature", "properties": { "osm_id": "434481239", "code": 2303, "fclass": "cafe", "name": "Kaffeehaus Blankenburg" }, "geometry": { "type": "Point", "coordinates": [ 13.4570289, 52.5930118 ] } },
{ "type": "Feature", "properties": { "osm_id": "434565581", "code": 2303, "fclass": "cafe", "name": "Marios Eiscafé" }, "geometry": { "type": "Point", "coordinates": [ 13.615483, 52.3725489 ] } },
{ "type": "Feature", "properties": { "osm_id": "437194563", "code": 2303, "fclass": "cafe", "name": "Blixen" }, "geometry": { "type": "Point", "coordinates": [ 13.4102575, 52.5190506 ] } },
{ "type": "Feature", "properties": { "osm_id": "437320468", "code": 2303, "fclass": "cafe", "name": "Espresso Eleganza" }, "geometry": { "type": "Point", "coordinates": [ 13.3869064, 52.5171785 ] } },
{ "type": "Feature", "properties": { "osm_id": "438156127", "code": 2303, "fclass": "cafe", "name": "Café Shila" }, "geometry": { "type": "Point", "coordinates": [ 13.3258091, 52.514519 ] } },
{ "type": "Feature", "properties": { "osm_id": "440012483", "code": 2303, "fclass": "cafe", "name": "gigi" }, "geometry": { "type": "Point", "coordinates": [ 13.4295135, 52.5006491 ] } },
{ "type": "Feature", "properties": { "osm_id": "440078137", "code": 2303, "fclass": "cafe", "name": "Gia" }, "geometry": { "type": "Point", "coordinates": [ 13.3094972, 52.5005212 ] } },
{ "type": "Feature", "properties": { "osm_id": "440923198", "code": 2303, "fclass": "cafe", "name": "Einstein Kaffee" }, "geometry": { "type": "Point", "coordinates": [ 13.3936722, 52.5124847 ] } },
{ "type": "Feature", "properties": { "osm_id": "441322911", "code": 2303, "fclass": "cafe", "name": "Kaffeehaus Morgenrot" }, "geometry": { "type": "Point", "coordinates": [ 13.2825038, 52.6660554 ] } },
{ "type": "Feature", "properties": { "osm_id": "441324651", "code": 2303, "fclass": "cafe", "name": "Kunst und Filterkaffee" }, "geometry": { "type": "Point", "coordinates": [ 13.2853798, 52.669743 ] } },
{ "type": "Feature", "properties": { "osm_id": "441514952", "code": 2303, "fclass": "cafe", "name": "Café Qlis" }, "geometry": { "type": "Point", "coordinates": [ 13.424959, 52.4803905 ] } },
{ "type": "Feature", "properties": { "osm_id": "441719528", "code": 2303, "fclass": "cafe", "name": "Cafeteria Am Neuen Palais" }, "geometry": { "type": "Point", "coordinates": [ 13.0119751, 52.400248 ] } },
{ "type": "Feature", "properties": { "osm_id": "441878995", "code": 2303, "fclass": "cafe", "name": "Café Kent" }, "geometry": { "type": "Point", "coordinates": [ 13.4429525, 52.4706565 ] } },
{ "type": "Feature", "properties": { "osm_id": "442392124", "code": 2303, "fclass": "cafe", "name": "Makara" }, "geometry": { "type": "Point", "coordinates": [ 13.3849151, 52.4484477 ] } },
{ "type": "Feature", "properties": { "osm_id": "442534063", "code": 2303, "fclass": "cafe", "name": "Rotes Café" }, "geometry": { "type": "Point", "coordinates": [ 13.2783362, 52.4488357 ] } },
{ "type": "Feature", "properties": { "osm_id": "443129170", "code": 2303, "fclass": "cafe", "name": "Silber Cafe Bar" }, "geometry": { "type": "Point", "coordinates": [ 13.4317552, 52.4662556 ] } },
{ "type": "Feature", "properties": { "osm_id": "443420738", "code": 2303, "fclass": "cafe", "name": "Das kleine Hofcafe" }, "geometry": { "type": "Point", "coordinates": [ 11.6520736, 53.0093461 ] } },
{ "type": "Feature", "properties": { "osm_id": "443670022", "code": 2303, "fclass": "cafe", "name": "Eiscafe Thyrow" }, "geometry": { "type": "Point", "coordinates": [ 13.2426825, 52.2503257 ] } },
{ "type": "Feature", "properties": { "osm_id": "443674211", "code": 2303, "fclass": "cafe", "name": "Café Schlacht" }, "geometry": { "type": "Point", "coordinates": [ 13.214718, 52.4390465 ] } },
{ "type": "Feature", "properties": { "osm_id": "443728425", "code": 2303, "fclass": "cafe", "name": "Eiscafé Millefiori" }, "geometry": { "type": "Point", "coordinates": [ 13.2068219, 52.5380486 ] } },
{ "type": "Feature", "properties": { "osm_id": "443978594", "code": 2303, "fclass": "cafe", "name": "Teestübchen" }, "geometry": { "type": "Point", "coordinates": [ 13.4683505, 52.1910018 ] } },
{ "type": "Feature", "properties": { "osm_id": "445183631", "code": 2303, "fclass": "cafe", "name": "Café am Markt" }, "geometry": { "type": "Point", "coordinates": [ 14.0739761, 52.568201 ] } },
{ "type": "Feature", "properties": { "osm_id": "447436526", "code": 2303, "fclass": "cafe", "name": "Cafeteria im PTZ" }, "geometry": { "type": "Point", "coordinates": [ 13.3234413, 52.5232961 ] } },
{ "type": "Feature", "properties": { "osm_id": "447904739", "code": 2303, "fclass": "cafe", "name": "Seestern" }, "geometry": { "type": "Point", "coordinates": [ 13.2137084, 52.4398995 ] } },
{ "type": "Feature", "properties": { "osm_id": "447943397", "code": 2303, "fclass": "cafe", "name": "Havelbohne" }, "geometry": { "type": "Point", "coordinates": [ 13.052437, 52.4011721 ] } },
{ "type": "Feature", "properties": { "osm_id": "448081472", "code": 2303, "fclass": "cafe", "name": "Café Barfly" }, "geometry": { "type": "Point", "coordinates": [ 13.1932594, 52.5241735 ] } },
{ "type": "Feature", "properties": { "osm_id": "454257347", "code": 2303, "fclass": "cafe", "name": "Venue" }, "geometry": { "type": "Point", "coordinates": [ 13.439611, 52.4841453 ] } },
{ "type": "Feature", "properties": { "osm_id": "455495197", "code": 2303, "fclass": "cafe", "name": "U Beaty" }, "geometry": { "type": "Point", "coordinates": [ 14.2806884, 53.0137159 ] } },
{ "type": "Feature", "properties": { "osm_id": "457313408", "code": 2303, "fclass": "cafe", "name": "Café am Markt" }, "geometry": { "type": "Point", "coordinates": [ 13.1740963, 52.0907055 ] } },
{ "type": "Feature", "properties": { "osm_id": "457313416", "code": 2303, "fclass": "cafe", "name": "Stadt Café" }, "geometry": { "type": "Point", "coordinates": [ 13.1721358, 52.0883096 ] } },
{ "type": "Feature", "properties": { "osm_id": "457315446", "code": 2303, "fclass": "cafe", "name": "Eis Café 21" }, "geometry": { "type": "Point", "coordinates": [ 13.1637876, 52.0888147 ] } },
{ "type": "Feature", "properties": { "osm_id": "457947786", "code": 2303, "fclass": "cafe", "name": "LOKAL" }, "geometry": { "type": "Point", "coordinates": [ 13.0368498, 52.3940761 ] } },
{ "type": "Feature", "properties": { "osm_id": "459668815", "code": 2303, "fclass": "cafe", "name": "Café Rosenrot" }, "geometry": { "type": "Point", "coordinates": [ 13.4090296, 52.5713907 ] } },
{ "type": "Feature", "properties": { "osm_id": "459672233", "code": 2303, "fclass": "cafe", "name": "Eis-Cafe Kubitza" }, "geometry": { "type": "Point", "coordinates": [ 13.4043582, 52.5819179 ] } },
{ "type": "Feature", "properties": { "osm_id": "459673806", "code": 2303, "fclass": "cafe", "name": "Johns" }, "geometry": { "type": "Point", "coordinates": [ 13.4034581, 52.5834832 ] } },
{ "type": "Feature", "properties": { "osm_id": "460383269", "code": 2303, "fclass": "cafe", "name": "Café Pension Koch" }, "geometry": { "type": "Point", "coordinates": [ 13.1092658, 52.9320866 ] } },
{ "type": "Feature", "properties": { "osm_id": "462195978", "code": 2303, "fclass": "cafe", "name": "Kurcafé" }, "geometry": { "type": "Point", "coordinates": [ 13.491178, 52.732707 ] } },
{ "type": "Feature", "properties": { "osm_id": "462667753", "code": 2303, "fclass": "cafe", "name": "Espresso House" }, "geometry": { "type": "Point", "coordinates": [ 13.3219704, 52.4571248 ] } },
{ "type": "Feature", "properties": { "osm_id": "467129701", "code": 2303, "fclass": "cafe", "name": "Café Düne" }, "geometry": { "type": "Point", "coordinates": [ 13.9585875, 52.2676441 ] } },
{ "type": "Feature", "properties": { "osm_id": "469111835", "code": 2303, "fclass": "cafe", "name": "Waldcafé \"Drei Eichen\"" }, "geometry": { "type": "Point", "coordinates": [ 14.1150012, 52.5665887 ] } },
{ "type": "Feature", "properties": { "osm_id": "469201752", "code": 2303, "fclass": "cafe", "name": "Café Impuls" }, "geometry": { "type": "Point", "coordinates": [ 13.4147236, 52.5717507 ] } },
{ "type": "Feature", "properties": { "osm_id": "470319897", "code": 2303, "fclass": "cafe", "name": "Dopamine Café" }, "geometry": { "type": "Point", "coordinates": [ 13.2855239, 52.5885781 ] } },
{ "type": "Feature", "properties": { "osm_id": "470319909", "code": 2303, "fclass": "cafe", "name": "Seeblick" }, "geometry": { "type": "Point", "coordinates": [ 13.2462072, 52.5619796 ] } },
{ "type": "Feature", "properties": { "osm_id": "470606875", "code": 2303, "fclass": "cafe", "name": "Café Ceci" }, "geometry": { "type": "Point", "coordinates": [ 13.0486557, 52.4021251 ] } },
{ "type": "Feature", "properties": { "osm_id": "471762477", "code": 2303, "fclass": "cafe", "name": "Die Kantinenwirtschaft" }, "geometry": { "type": "Point", "coordinates": [ 13.4618325, 53.2827528 ] } },
{ "type": "Feature", "properties": { "osm_id": "473066926", "code": 2303, "fclass": "cafe", "name": "Dolce Vita" }, "geometry": { "type": "Point", "coordinates": [ 13.3053628, 52.4175822 ] } },
{ "type": "Feature", "properties": { "osm_id": "474799087", "code": 2303, "fclass": "cafe", "name": "Café Rix" }, "geometry": { "type": "Point", "coordinates": [ 13.4396823, 52.4770501 ] } },
{ "type": "Feature", "properties": { "osm_id": "475365178", "code": 2303, "fclass": "cafe", "name": "Café Am Brink" }, "geometry": { "type": "Point", "coordinates": [ 11.9874889, 52.8915964 ] } },
{ "type": "Feature", "properties": { "osm_id": "475538205", "code": 2303, "fclass": "cafe", "name": "HANOI Bistro" }, "geometry": { "type": "Point", "coordinates": [ 14.3179182, 51.7612471 ] } },
{ "type": "Feature", "properties": { "osm_id": "476258826", "code": 2303, "fclass": "cafe", "name": "Cafe Tribune" }, "geometry": { "type": "Point", "coordinates": [ 13.4455331, 52.4792298 ] } },
{ "type": "Feature", "properties": { "osm_id": "476810292", "code": 2303, "fclass": "cafe", "name": "Cafe Sgaminegg" }, "geometry": { "type": "Point", "coordinates": [ 13.4104738, 52.5504144 ] } },
{ "type": "Feature", "properties": { "osm_id": "477430712", "code": 2303, "fclass": "cafe", "name": "Enjoy" }, "geometry": { "type": "Point", "coordinates": [ 13.3038598, 52.4265984 ] } },
{ "type": "Feature", "properties": { "osm_id": "486517824", "code": 2303, "fclass": "cafe", "name": "Coffeebar" }, "geometry": { "type": "Point", "coordinates": [ 13.5246833, 52.4553114 ] } },
{ "type": "Feature", "properties": { "osm_id": "489761194", "code": 2303, "fclass": "cafe", "name": "Berlin Pavillon am Reichstag" }, "geometry": { "type": "Point", "coordinates": [ 13.3737245, 52.5176023 ] } },
{ "type": "Feature", "properties": { "osm_id": "490260434", "code": 2303, "fclass": "cafe", "name": "Cafeteria" }, "geometry": { "type": "Point", "coordinates": [ 13.0510555, 52.413357 ] } },
{ "type": "Feature", "properties": { "osm_id": "491566232", "code": 2303, "fclass": "cafe", "name": "Pianocafé am Lietzensee" }, "geometry": { "type": "Point", "coordinates": [ 13.2850956, 52.5063206 ] } },
{ "type": "Feature", "properties": { "osm_id": "493655311", "code": 2303, "fclass": "cafe", "name": "Café Morgenrot" }, "geometry": { "type": "Point", "coordinates": [ 13.4088525, 52.5375349 ] } },
{ "type": "Feature", "properties": { "osm_id": "495479053", "code": 2303, "fclass": "cafe", "name": "Restaurant Wenzel" }, "geometry": { "type": "Point", "coordinates": [ 13.2775579, 52.827012 ] } },
{ "type": "Feature", "properties": { "osm_id": "499274751", "code": 2303, "fclass": "cafe", "name": "Tapiocaria" }, "geometry": { "type": "Point", "coordinates": [ 13.4648762, 52.5163204 ] } },
{ "type": "Feature", "properties": { "osm_id": "500874698", "code": 2303, "fclass": "cafe", "name": "Zur Seejungfrau" }, "geometry": { "type": "Point", "coordinates": [ 14.001954, 51.4781433 ] } },
{ "type": "Feature", "properties": { "osm_id": "503995817", "code": 2303, "fclass": "cafe", "name": "Cafe am Markt" }, "geometry": { "type": "Point", "coordinates": [ 14.6732734, 52.1453299 ] } },
{ "type": "Feature", "properties": { "osm_id": "505944632", "code": 2303, "fclass": "cafe", "name": "Mr. Minsch" }, "geometry": { "type": "Point", "coordinates": [ 13.3820141, 52.493531 ] } },
{ "type": "Feature", "properties": { "osm_id": "506265961", "code": 2303, "fclass": "cafe", "name": "Viticula" }, "geometry": { "type": "Point", "coordinates": [ 13.6779672, 52.5227444 ] } },
{ "type": "Feature", "properties": { "osm_id": "506267615", "code": 2303, "fclass": "cafe", "name": "Café Auszeit" }, "geometry": { "type": "Point", "coordinates": [ 13.6728029, 52.5217818 ] } },
{ "type": "Feature", "properties": { "osm_id": "506275774", "code": 2303, "fclass": "cafe", "name": "Janny's Eis" }, "geometry": { "type": "Point", "coordinates": [ 13.6979165, 52.5214748 ] } },
{ "type": "Feature", "properties": { "osm_id": "506747392", "code": 2303, "fclass": "cafe", "name": "EIZ - Eiszauberei" }, "geometry": { "type": "Point", "coordinates": [ 12.8913137, 53.1013935 ] } },
{ "type": "Feature", "properties": { "osm_id": "507655174", "code": 2303, "fclass": "cafe", "name": null }, "geometry": { "type": "Point", "coordinates": [ 13.5084488, 52.5269736 ] } },
{ "type": "Feature", "properties": { "osm_id": "508657352", "code": 2303, "fclass": "cafe", "name": "Waffle Brothers" }, "geometry": { "type": "Point", "coordinates": [ 13.2849445, 52.5880587 ] } },
{ "type": "Feature", "properties": { "osm_id": "509405055", "code": 2303, "fclass": "cafe", "name": "Cafeteria" }, "geometry": { "type": "Point", "coordinates": [ 13.4952827, 52.5139107 ] } },
{ "type": "Feature", "properties": { "osm_id": "514753672", "code": 2303, "fclass": "cafe", "name": "Medoc" }, "geometry": { "type": "Point", "coordinates": [ 13.2200016, 52.4105387 ] } },
{ "type": "Feature", "properties": { "osm_id": "515879722", "code": 2303, "fclass": "cafe", "name": "Café Kent 3" }, "geometry": { "type": "Point", "coordinates": [ 13.423336, 52.4799669 ] } },
{ "type": "Feature", "properties": { "osm_id": "520048684", "code": 2303, "fclass": "cafe", "name": "Café Liebling" }, "geometry": { "type": "Point", "coordinates": [ 13.4206554, 52.5421007 ] } },
{ "type": "Feature", "properties": { "osm_id": "529679913", "code": 2303, "fclass": "cafe", "name": null }, "geometry": { "type": "Point", "coordinates": [ 13.1729383, 52.8543395 ] } },
{ "type": "Feature", "properties": { "osm_id": "530557759", "code": 2303, "fclass": "cafe", "name": "Bistro Waldschulallee" }, "geometry": { "type": "Point", "coordinates": [ 13.2604007, 52.5015112 ] } },
{ "type": "Feature", "properties": { "osm_id": "530715885", "code": 2303, "fclass": "cafe", "name": "Göttlich essen & trinken" }, "geometry": { "type": "Point", "coordinates": [ 13.3574263, 52.5419608 ] } },
{ "type": "Feature", "properties": { "osm_id": "531305449", "code": 2303, "fclass": "cafe", "name": "Café Lebensart" }, "geometry": { "type": "Point", "coordinates": [ 13.3822317, 52.5162817 ] } },
{ "type": "Feature", "properties": { "osm_id": "531795198", "code": 2303, "fclass": "cafe", "name": "Cafe Buchhandlung" }, "geometry": { "type": "Point", "coordinates": [ 13.3937554, 52.5261737 ] } },
{ "type": "Feature", "properties": { "osm_id": "533621382", "code": 2303, "fclass": "cafe", "name": "Magnifique" }, "geometry": { "type": "Point", "coordinates": [ 13.2971475, 52.5014791 ] } },
{ "type": "Feature", "properties": { "osm_id": "534572922", "code": 2303, "fclass": "cafe", "name": "Maries Cuisine" }, "geometry": { "type": "Point", "coordinates": [ 13.2985642, 52.4856082 ] } },
{ "type": "Feature", "properties": { "osm_id": "536668241", "code": 2303, "fclass": "cafe", "name": "WaschBar mit Stephanus-Shop" }, "geometry": { "type": "Point", "coordinates": [ 13.5263792, 52.4562244 ] } },
{ "type": "Feature", "properties": { "osm_id": "539466865", "code": 2303, "fclass": "cafe", "name": "Zur Sonne" }, "geometry": { "type": "Point", "coordinates": [ 13.2242449, 52.575032 ] } },
{ "type": "Feature", "properties": { "osm_id": "541077710", "code": 2303, "fclass": "cafe", "name": "Lorch & Söhne" }, "geometry": { "type": "Point", "coordinates": [ 13.4172239, 52.5405112 ] } },
{ "type": "Feature", "properties": { "osm_id": "544752150", "code": 2303, "fclass": "cafe", "name": "Nadia + Kosta" }, "geometry": { "type": "Point", "coordinates": [ 13.4823881, 52.5032645 ] } },
{ "type": "Feature", "properties": { "osm_id": "548933444", "code": 2303, "fclass": "cafe", "name": "Eiscafe Thrams" }, "geometry": { "type": "Point", "coordinates": [ 14.635818, 52.1523368 ] } },
{ "type": "Feature", "properties": { "osm_id": "549227499", "code": 2303, "fclass": "cafe", "name": "Café Zwerg" }, "geometry": { "type": "Point", "coordinates": [ 13.5001346, 52.5482581 ] } },
{ "type": "Feature", "properties": { "osm_id": "549227520", "code": 2303, "fclass": "cafe", "name": "K3 Lounge" }, "geometry": { "type": "Point", "coordinates": [ 13.5009843, 52.5487278 ] } },
{ "type": "Feature", "properties": { "osm_id": "550408206", "code": 2303, "fclass": "cafe", "name": "Raz" }, "geometry": { "type": "Point", "coordinates": [ 13.3633758, 52.5434493 ] } },
{ "type": "Feature", "properties": { "osm_id": "559983461", "code": 2303, "fclass": "cafe", "name": "Cafe Dollinger" }, "geometry": { "type": "Point", "coordinates": [ 13.2991984, 52.5048357 ] } },
{ "type": "Feature", "properties": { "osm_id": "560526925", "code": 2303, "fclass": "cafe", "name": "Caffè Monelli" }, "geometry": { "type": "Point", "coordinates": [ 13.4154754, 52.5479554 ] } },
{ "type": "Feature", "properties": { "osm_id": "564686130", "code": 2303, "fclass": "cafe", "name": "507" }, "geometry": { "type": "Point", "coordinates": [ 13.2866935, 52.5859108 ] } },
{ "type": "Feature", "properties": { "osm_id": "565649878", "code": 2303, "fclass": "cafe", "name": "Bio Company" }, "geometry": { "type": "Point", "coordinates": [ 13.4041367, 52.523162 ] } },
{ "type": "Feature", "properties": { "osm_id": "568525725", "code": 2303, "fclass": "cafe", "name": "Frau Behrens Torten" }, "geometry": { "type": "Point", "coordinates": [ 13.3079215, 52.50166 ] } },
{ "type": "Feature", "properties": { "osm_id": "569992089", "code": 2303, "fclass": "cafe", "name": "Wiener Conditorei am Hagenplatz" }, "geometry": { "type": "Point", "coordinates": [ 13.2674353, 52.483723 ] } },
{ "type": "Feature", "properties": { "osm_id": "570034727", "code": 2303, "fclass": "cafe", "name": "Konditorei Rabien" }, "geometry": { "type": "Point", "coordinates": [ 13.3304701, 52.4518101 ] } },
{ "type": "Feature", "properties": { "osm_id": "570715470", "code": 2303, "fclass": "cafe", "name": "cafe es" }, "geometry": { "type": "Point", "coordinates": [ 13.5042137, 51.4602428 ] } },
{ "type": "Feature", "properties": { "osm_id": "573381064", "code": 2303, "fclass": "cafe", "name": "Peggy Bee" }, "geometry": { "type": "Point", "coordinates": [ 13.4688574, 52.5113992 ] } },
{ "type": "Feature", "properties": { "osm_id": "581887067", "code": 2303, "fclass": "cafe", "name": "Pizzeria N1" }, "geometry": { "type": "Point", "coordinates": [ 13.1935989, 52.4306229 ] } },
{ "type": "Feature", "properties": { "osm_id": "582747040", "code": 2303, "fclass": "cafe", "name": "Café Bar Chagall" }, "geometry": { "type": "Point", "coordinates": [ 13.412804, 52.5313153 ] } },
{ "type": "Feature", "properties": { "osm_id": "597413602", "code": 2303, "fclass": "cafe", "name": "Friendly Society Berlin (Kulturkaufhaus)" }, "geometry": { "type": "Point", "coordinates": [ 13.406129, 52.536158 ] } },
{ "type": "Feature", "properties": { "osm_id": "603798038", "code": 2303, "fclass": "cafe", "name": "Konditorei Fester" }, "geometry": { "type": "Point", "coordinates": [ 13.2045554, 52.5368723 ] } },
{ "type": "Feature", "properties": { "osm_id": "607756448", "code": 2303, "fclass": "cafe", "name": "Cafe Desd" }, "geometry": { "type": "Point", "coordinates": [ 13.3753652, 52.5401534 ] } },
{ "type": "Feature", "properties": { "osm_id": "609005537", "code": 2303, "fclass": "cafe", "name": "Bahnhofsklause" }, "geometry": { "type": "Point", "coordinates": [ 13.2323477, 52.4374617 ] } },
{ "type": "Feature", "properties": { "osm_id": "611031859", "code": 2303, "fclass": "cafe", "name": "Galão A Pastelaria" }, "geometry": { "type": "Point", "coordinates": [ 13.4026797, 52.5311012 ] } },
{ "type": "Feature", "properties": { "osm_id": "613536371", "code": 2303, "fclass": "cafe", "name": "Backhaus Helmholtz" }, "geometry": { "type": "Point", "coordinates": [ 13.3217679, 52.5208955 ] } },
{ "type": "Feature", "properties": { "osm_id": "614502665", "code": 2303, "fclass": "cafe", "name": "lunch+more" }, "geometry": { "type": "Point", "coordinates": [ 13.3223481, 52.5234417 ] } },
{ "type": "Feature", "properties": { "osm_id": "615147093", "code": 2303, "fclass": "cafe", "name": "Röststätte" }, "geometry": { "type": "Point", "coordinates": [ 13.4022118, 52.5241937 ] } },
{ "type": "Feature", "properties": { "osm_id": "615707254", "code": 2303, "fclass": "cafe", "name": "Cafe Luise" }, "geometry": { "type": "Point", "coordinates": [ 14.5337663, 52.347577 ] } },
{ "type": "Feature", "properties": { "osm_id": "616297349", "code": 2303, "fclass": "cafe", "name": "Cafe Extrablatt" }, "geometry": { "type": "Point", "coordinates": [ 13.3056216, 52.5094249 ] } },
{ "type": "Feature", "properties": { "osm_id": "616526854", "code": 2303, "fclass": "cafe", "name": "Steckenpferd" }, "geometry": { "type": "Point", "coordinates": [ 13.3936976, 52.6192673 ] } },
{ "type": "Feature", "properties": { "osm_id": "617262898", "code": 2303, "fclass": "cafe", "name": "Eis Michel" }, "geometry": { "type": "Point", "coordinates": [ 13.3098133, 52.5077347 ] } },
{ "type": "Feature", "properties": { "osm_id": "617342493", "code": 2303, "fclass": "cafe", "name": "Was Gesundes" }, "geometry": { "type": "Point", "coordinates": [ 13.2968487, 52.5006544 ] } },
{ "type": "Feature", "properties": { "osm_id": "617422429", "code": 2303, "fclass": "cafe", "name": "Genna d'Oro - das Goldschmiedecafé" }, "geometry": { "type": "Point", "coordinates": [ 13.049579, 52.4005942 ] } },
{ "type": "Feature", "properties": { "osm_id": "618021341", "code": 2303, "fclass": "cafe", "name": "Kösk Frühstück & Café" }, "geometry": { "type": "Point", "coordinates": [ 13.4672874, 52.468267 ] } },
{ "type": "Feature", "properties": { "osm_id": "618571207", "code": 2303, "fclass": "cafe", "name": "Coffeebar FU Wirtschaftswissenschaften" }, "geometry": { "type": "Point", "coordinates": [ 13.2806343, 52.4471029 ] } },
{ "type": "Feature", "properties": { "osm_id": "618993715", "code": 2303, "fclass": "cafe", "name": "brot&butter" }, "geometry": { "type": "Point", "coordinates": [ 13.322867, 52.5108514 ] } },
{ "type": "Feature", "properties": { "osm_id": "619253447", "code": 2303, "fclass": "cafe", "name": "Café Alice" }, "geometry": { "type": "Point", "coordinates": [ 13.0515546, 52.4000807 ] } },
{ "type": "Feature", "properties": { "osm_id": "620483986", "code": 2303, "fclass": "cafe", "name": "Café Schröder" }, "geometry": { "type": "Point", "coordinates": [ 12.3981541, 52.9427655 ] } },
{ "type": "Feature", "properties": { "osm_id": "621274121", "code": 2303, "fclass": "cafe", "name": "Rudi & Rosa" }, "geometry": { "type": "Point", "coordinates": [ 13.3817861, 52.4541235 ] } },
{ "type": "Feature", "properties": { "osm_id": "622136256", "code": 2303, "fclass": "cafe", "name": "Twins Catering" }, "geometry": { "type": "Point", "coordinates": [ 13.4560369, 52.4902199 ] } },
{ "type": "Feature", "properties": { "osm_id": "622481673", "code": 2303, "fclass": "cafe", "name": "Kindercafe Spielzimmer" }, "geometry": { "type": "Point", "coordinates": [ 13.4180647, 52.5422898 ] } },
{ "type": "Feature", "properties": { "osm_id": "622642559", "code": 2303, "fclass": "cafe", "name": "milchweiß" }, "geometry": { "type": "Point", "coordinates": [ 13.387091, 52.5239063 ] } },
{ "type": "Feature", "properties": { "osm_id": "623299186", "code": 2303, "fclass": "cafe", "name": "la Caffèteria" }, "geometry": { "type": "Point", "coordinates": [ 13.3974266, 52.5358964 ] } },
{ "type": "Feature", "properties": { "osm_id": "625825497", "code": 2303, "fclass": "cafe", "name": "Eisdiele" }, "geometry": { "type": "Point", "coordinates": [ 13.5389587, 52.6559329 ] } },
{ "type": "Feature", "properties": { "osm_id": "626328553", "code": 2303, "fclass": "cafe", "name": "Cafe brennBar" }, "geometry": { "type": "Point", "coordinates": [ 13.3990512, 52.5077517 ] } },
{ "type": "Feature", "properties": { "osm_id": "627105786", "code": 2303, "fclass": "cafe", "name": "Cafe Star" }, "geometry": { "type": "Point", "coordinates": [ 13.385714, 52.5527628 ] } },
{ "type": "Feature", "properties": { "osm_id": "629369805", "code": 2303, "fclass": "cafe", "name": "Impala Coffee" }, "geometry": { "type": "Point", "coordinates": [ 13.3070218, 52.5048153 ] } },
{ "type": "Feature", "properties": { "osm_id": "629369820", "code": 2303, "fclass": "cafe", "name": "L’Berg" }, "geometry": { "type": "Point", "coordinates": [ 13.3073425, 52.5037455 ] } },
{ "type": "Feature", "properties": { "osm_id": "635820523", "code": 2303, "fclass": "cafe", "name": "Sandwich Art" }, "geometry": { "type": "Point", "coordinates": [ 13.3255962, 52.4616728 ] } },
{ "type": "Feature", "properties": { "osm_id": "635871464", "code": 2303, "fclass": "cafe", "name": "Cooquin Cafe" }, "geometry": { "type": "Point", "coordinates": [ 13.478308, 52.5154958 ] } },
{ "type": "Feature", "properties": { "osm_id": "636094595", "code": 2303, "fclass": "cafe", "name": "Bäckerei & Café Steinecke" }, "geometry": { "type": "Point", "coordinates": [ 13.0489836, 52.3995787 ] } },
{ "type": "Feature", "properties": { "osm_id": "638214074", "code": 2303, "fclass": "cafe", "name": "Coffee Star" }, "geometry": { "type": "Point", "coordinates": [ 13.4214006, 52.5356286 ] } },
{ "type": "Feature", "properties": { "osm_id": "639281322", "code": 2303, "fclass": "cafe", "name": "Studentisches Begegnungszentrum Motorenprüfstand" }, "geometry": { "type": "Point", "coordinates": [ 13.5296167, 52.4322931 ] } },
{ "type": "Feature", "properties": { "osm_id": "643056998", "code": 2303, "fclass": "cafe", "name": "Lara Beach" }, "geometry": { "type": "Point", "coordinates": [ 13.5382721, 52.528159 ] } },
{ "type": "Feature", "properties": { "osm_id": "643494404", "code": 2303, "fclass": "cafe", "name": "Dilekerei" }, "geometry": { "type": "Point", "coordinates": [ 13.3914822, 52.5540116 ] } },
{ "type": "Feature", "properties": { "osm_id": "644618647", "code": 2303, "fclass": "cafe", "name": "Bica Billard & Café" }, "geometry": { "type": "Point", "coordinates": [ 13.538245, 52.528282 ] } },
{ "type": "Feature", "properties": { "osm_id": "645413268", "code": 2303, "fclass": "cafe", "name": "Black Bottle" }, "geometry": { "type": "Point", "coordinates": [ 13.3302152, 52.5043733 ] } },
{ "type": "Feature", "properties": { "osm_id": "647907957", "code": 2303, "fclass": "cafe", "name": "Kleines Cafe" }, "geometry": { "type": "Point", "coordinates": [ 13.4944202, 52.5029418 ] } },
{ "type": "Feature", "properties": { "osm_id": "648259071", "code": 2303, "fclass": "cafe", "name": null }, "geometry": { "type": "Point", "coordinates": [ 13.2087991, 52.5095173 ] } },
{ "type": "Feature", "properties": { "osm_id": "648259073", "code": 2303, "fclass": "cafe", "name": "Captain's Inn am Stößensee" }, "geometry": { "type": "Point", "coordinates": [ 13.2114308, 52.50954 ] } },
{ "type": "Feature", "properties": { "osm_id": "651305565", "code": 2303, "fclass": "cafe", "name": "„Napoleon“ – Eiscafe" }, "geometry": { "type": "Point", "coordinates": [ 13.9505474, 51.7414453 ] } },
{ "type": "Feature", "properties": { "osm_id": "651452392", "code": 2303, "fclass": "cafe", "name": "Coffeebar Wetterleuchten" }, "geometry": { "type": "Point", "coordinates": [ 13.3261805, 52.5119621 ] } },
{ "type": "Feature", "properties": { "osm_id": "651988273", "code": 2303, "fclass": "cafe", "name": "No. 15 Café-Restaurant" }, "geometry": { "type": "Point", "coordinates": [ 13.0523117, 52.4000021 ] } },
{ "type": "Feature", "properties": { "osm_id": "652440986", "code": 2303, "fclass": "cafe", "name": "Easy Peasy" }, "geometry": { "type": "Point", "coordinates": [ 13.4244633, 52.5469035 ] } },
{ "type": "Feature", "properties": { "osm_id": "652613363", "code": 2303, "fclass": "cafe", "name": "Spielcafé" }, "geometry": { "type": "Point", "coordinates": [ 12.6045344, 52.1383647 ] } },
{ "type": "Feature", "properties": { "osm_id": "652613391", "code": 2303, "fclass": "cafe", "name": "Haus am See" }, "geometry": { "type": "Point", "coordinates": [ 12.5898752, 52.1467393 ] } },
{ "type": "Feature", "properties": { "osm_id": "654401099", "code": 2303, "fclass": "cafe", "name": "Spielwiese" }, "geometry": { "type": "Point", "coordinates": [ 13.4541003, 52.5104455 ] } },
{ "type": "Feature", "properties": { "osm_id": "655146770", "code": 2303, "fclass": "cafe", "name": "Beck's Bäckerei & Bistro" }, "geometry": { "type": "Point", "coordinates": [ 13.4852364, 52.5122546 ] } },
{ "type": "Feature", "properties": { "osm_id": "658617876", "code": 2303, "fclass": "cafe", "name": "Pee Pees Katzencafé" }, "geometry": { "type": "Point", "coordinates": [ 13.433447, 52.4723377 ] } },
{ "type": "Feature", "properties": { "osm_id": "661126955", "code": 2303, "fclass": "cafe", "name": "Exclusive Coffee" }, "geometry": { "type": "Point", "coordinates": [ 13.3053868, 52.5135018 ] } },
{ "type": "Feature", "properties": { "osm_id": "661126957", "code": 2303, "fclass": "cafe", "name": "Kira‘s" }, "geometry": { "type": "Point", "coordinates": [ 13.3005291, 52.5156405 ] } },
{ "type": "Feature", "properties": { "osm_id": "661126968", "code": 2303, "fclass": "cafe", "name": "Schlesische Backstube Hutzelmann" }, "geometry": { "type": "Point", "coordinates": [ 13.3045787, 52.5153002 ] } },
{ "type": "Feature", "properties": { "osm_id": "662869978", "code": 2303, "fclass": "cafe", "name": "Wiener Conditorei Caffeehaus" }, "geometry": { "type": "Point", "coordinates": [ 13.2818428, 52.4777628 ] } },
{ "type": "Feature", "properties": { "osm_id": "663434368", "code": 2303, "fclass": "cafe", "name": "Dreißig" }, "geometry": { "type": "Point", "coordinates": [ 14.0632588, 52.2922857 ] } },
{ "type": "Feature", "properties": { "osm_id": "663434375", "code": 2303, "fclass": "cafe", "name": "Kaffee-Rösterei" }, "geometry": { "type": "Point", "coordinates": [ 14.0629339, 52.2917231 ] } },
{ "type": "Feature", "properties": { "osm_id": "664244050", "code": 2303, "fclass": "cafe", "name": "Oase" }, "geometry": { "type": "Point", "coordinates": [ 13.2922768, 52.474521 ] } },
{ "type": "Feature", "properties": { "osm_id": "666388873", "code": 2303, "fclass": "cafe", "name": "Tillmann" }, "geometry": { "type": "Point", "coordinates": [ 13.301475, 52.4886406 ] } },
{ "type": "Feature", "properties": { "osm_id": "667211344", "code": 2303, "fclass": "cafe", "name": "Café Thiel" }, "geometry": { "type": "Point", "coordinates": [ 13.2686117, 52.5113062 ] } },
{ "type": "Feature", "properties": { "osm_id": "667211368", "code": 2303, "fclass": "cafe", "name": "Wiener Caffeehaus" }, "geometry": { "type": "Point", "coordinates": [ 13.2604129, 52.5159551 ] } },
{ "type": "Feature", "properties": { "osm_id": "667211390", "code": 2303, "fclass": "cafe", "name": "Café Kuhn" }, "geometry": { "type": "Point", "coordinates": [ 13.2622288, 52.5157916 ] } },
{ "type": "Feature", "properties": { "osm_id": "667890052", "code": 2303, "fclass": "cafe", "name": "Die Garbe" }, "geometry": { "type": "Point", "coordinates": [ 13.4623755, 52.5147577 ] } },
{ "type": "Feature", "properties": { "osm_id": "667893376", "code": 2303, "fclass": "cafe", "name": "The Kafé" }, "geometry": { "type": "Point", "coordinates": [ 13.4084608, 52.5376459 ] } },
{ "type": "Feature", "properties": { "osm_id": "668246088", "code": 2303, "fclass": "cafe", "name": "Toms Kaffeerösterei" }, "geometry": { "type": "Point", "coordinates": [ 13.252357, 52.4497919 ] } },
{ "type": "Feature", "properties": { "osm_id": "668953779", "code": 2303, "fclass": "cafe", "name": "Coffee Cult" }, "geometry": { "type": "Point", "coordinates": [ 13.3932506, 52.4893414 ] } },
{ "type": "Feature", "properties": { "osm_id": "668954190", "code": 2303, "fclass": "cafe", "name": "Jederzeit" }, "geometry": { "type": "Point", "coordinates": [ 13.392622, 52.4894164 ] } },
{ "type": "Feature", "properties": { "osm_id": "670658006", "code": 2303, "fclass": "cafe", "name": "Gümüs" }, "geometry": { "type": "Point", "coordinates": [ 13.3520052, 52.4804592 ] } },
{ "type": "Feature", "properties": { "osm_id": "672817185", "code": 2303, "fclass": "cafe", "name": "Brotmeisterei Steinecke" }, "geometry": { "type": "Point", "coordinates": [ 13.7875404, 52.8363034 ] } },
{ "type": "Feature", "properties": { "osm_id": "674314965", "code": 2303, "fclass": "cafe", "name": "Sandwich art Café" }, "geometry": { "type": "Point", "coordinates": [ 13.313199, 52.5031619 ] } },
{ "type": "Feature", "properties": { "osm_id": "675503721", "code": 2303, "fclass": "cafe", "name": "Eiscafé Angelina" }, "geometry": { "type": "Point", "coordinates": [ 13.3025247, 52.6000299 ] } },
{ "type": "Feature", "properties": { "osm_id": "676633343", "code": 2303, "fclass": "cafe", "name": "Kauf dich glücklich" }, "geometry": { "type": "Point", "coordinates": [ 13.4073495, 52.5392474 ] } },
{ "type": "Feature", "properties": { "osm_id": "676897955", "code": 2303, "fclass": "cafe", "name": "Café Lebensart" }, "geometry": { "type": "Point", "coordinates": [ 13.261466, 52.4362387 ] } },
{ "type": "Feature", "properties": { "osm_id": "677826168", "code": 2303, "fclass": "cafe", "name": "Café La Vineta" }, "geometry": { "type": "Point", "coordinates": [ 13.413655, 52.5590025 ] } },
{ "type": "Feature", "properties": { "osm_id": "678901089", "code": 2303, "fclass": "cafe", "name": "Oliv'chen" }, "geometry": { "type": "Point", "coordinates": [ 13.2927463, 52.4578859 ] } },
{ "type": "Feature", "properties": { "osm_id": "679118943", "code": 2303, "fclass": "cafe", "name": "Cinnamon & Sugar" }, "geometry": { "type": "Point", "coordinates": [ 13.4192733, 52.5454347 ] } },
{ "type": "Feature", "properties": { "osm_id": "686778551", "code": 2303, "fclass": "cafe", "name": "Cafe Holzappel" }, "geometry": { "type": "Point", "coordinates": [ 14.5305916, 52.235412 ] } },
{ "type": "Feature", "properties": { "osm_id": "687025465", "code": 2303, "fclass": "cafe", "name": "Eiscafe Aurich" }, "geometry": { "type": "Point", "coordinates": [ 14.6145378, 51.5746859 ] } },
{ "type": "Feature", "properties": { "osm_id": "687075341", "code": 2303, "fclass": "cafe", "name": "U-Back" }, "geometry": { "type": "Point", "coordinates": [ 13.4892499, 52.5124608 ] } },
{ "type": "Feature", "properties": { "osm_id": "687399427", "code": 2303, "fclass": "cafe", "name": "Cafe Amelie Coffee and Breakfast" }, "geometry": { "type": "Point", "coordinates": [ 13.414434, 52.5427083 ] } },
{ "type": "Feature", "properties": { "osm_id": "691297105", "code": 2303, "fclass": "cafe", "name": "Demlik Cafe & Restaurant" }, "geometry": { "type": "Point", "coordinates": [ 13.4238882, 52.4905938 ] } },
{ "type": "Feature", "properties": { "osm_id": "691415149", "code": 2303, "fclass": "cafe", "name": null }, "geometry": { "type": "Point", "coordinates": [ 13.437989, 52.7159101 ] } },
{ "type": "Feature", "properties": { "osm_id": "691415170", "code": 2303, "fclass": "cafe", "name": "Café Petticoat" }, "geometry": { "type": "Point", "coordinates": [ 13.4373022, 52.7170673 ] } },
{ "type": "Feature", "properties": { "osm_id": "691484585", "code": 2303, "fclass": "cafe", "name": "9 to 5" }, "geometry": { "type": "Point", "coordinates": [ 13.3251231, 52.4554826 ] } },
{ "type": "Feature", "properties": { "osm_id": "691625547", "code": 2303, "fclass": "cafe", "name": "Billard Cafe" }, "geometry": { "type": "Point", "coordinates": [ 14.5466163, 52.3372389 ] } },
{ "type": "Feature", "properties": { "osm_id": "693647666", "code": 2303, "fclass": "cafe", "name": "Markt Café Lehnin" }, "geometry": { "type": "Point", "coordinates": [ 12.7378223, 52.3196736 ] } },
{ "type": "Feature", "properties": { "osm_id": "693830507", "code": 2303, "fclass": "cafe", "name": "Cafe Bäckerei" }, "geometry": { "type": "Point", "coordinates": [ 13.34207, 52.50467 ] } },
{ "type": "Feature", "properties": { "osm_id": "693892027", "code": 2303, "fclass": "cafe", "name": "Schneewittchen" }, "geometry": { "type": "Point", "coordinates": [ 13.3072318, 52.5040761 ] } },
{ "type": "Feature", "properties": { "osm_id": "695831701", "code": 2303, "fclass": "cafe", "name": "Tre Terre" }, "geometry": { "type": "Point", "coordinates": [ 13.2959074, 52.4974558 ] } },
{ "type": "Feature", "properties": { "osm_id": "699851948", "code": 2303, "fclass": "cafe", "name": "Café Steinecke" }, "geometry": { "type": "Point", "coordinates": [ 13.3246763, 52.491494 ] } },
{ "type": "Feature", "properties": { "osm_id": "699851950", "code": 2303, "fclass": "cafe", "name": "Glückscafé" }, "geometry": { "type": "Point", "coordinates": [ 13.3252965, 52.4914278 ] } },
{ "type": "Feature", "properties": { "osm_id": "700761160", "code": 2303, "fclass": "cafe", "name": "An einem Sonntag im August" }, "geometry": { "type": "Point", "coordinates": [ 13.4115903, 52.5401 ] } },
{ "type": "Feature", "properties": { "osm_id": "703501026", "code": 2303, "fclass": "cafe", "name": "Jute Bäckerei" }, "geometry": { "type": "Point", "coordinates": [ 13.4126746, 52.5430245 ] } },
{ "type": "Feature", "properties": { "osm_id": "703607113", "code": 2303, "fclass": "cafe", "name": "Cafe Adam" }, "geometry": { "type": "Point", "coordinates": [ 13.3749562, 52.5480242 ] } },
{ "type": "Feature", "properties": { "osm_id": "704913843", "code": 2303, "fclass": "cafe", "name": "Bella Italia" }, "geometry": { "type": "Point", "coordinates": [ 13.3409245, 52.4884134 ] } },
{ "type": "Feature", "properties": { "osm_id": "705140939", "code": 2303, "fclass": "cafe", "name": "Il Pistacchio" }, "geometry": { "type": "Point", "coordinates": [ 13.2808589, 52.6699998 ] } },
{ "type": "Feature", "properties": { "osm_id": "706501428", "code": 2303, "fclass": "cafe", "name": "Eisdiele Zum Flößer" }, "geometry": { "type": "Point", "coordinates": [ 13.3149895, 53.2105376 ] } },
{ "type": "Feature", "properties": { "osm_id": "707417295", "code": 2303, "fclass": "cafe", "name": "Œuf" }, "geometry": { "type": "Point", "coordinates": [ 13.3691344, 52.5450226 ] } },
{ "type": "Feature", "properties": { "osm_id": "707490376", "code": 2303, "fclass": "cafe", "name": "Eis Boutique" }, "geometry": { "type": "Point", "coordinates": [ 13.3821838, 52.552202 ] } },
{ "type": "Feature", "properties": { "osm_id": "715911570", "code": 2303, "fclass": "cafe", "name": "Café Phoenix" }, "geometry": { "type": "Point", "coordinates": [ 13.2939052, 52.5051348 ] } },
{ "type": "Feature", "properties": { "osm_id": "715911667", "code": 2303, "fclass": "cafe", "name": "Caffé e Panini" }, "geometry": { "type": "Point", "coordinates": [ 13.2977888, 52.5099653 ] } },
{ "type": "Feature", "properties": { "osm_id": "718143769", "code": 2303, "fclass": "cafe", "name": "Café Beatz" }, "geometry": { "type": "Point", "coordinates": [ 13.2943986, 52.5066267 ] } },
{ "type": "Feature", "properties": { "osm_id": "718143866", "code": 2303, "fclass": "cafe", "name": "Adiks Stehcafé" }, "geometry": { "type": "Point", "coordinates": [ 13.2582233, 52.5078425 ] } },
{ "type": "Feature", "properties": { "osm_id": "718143873", "code": 2303, "fclass": "cafe", "name": "Suarez Café" }, "geometry": { "type": "Point", "coordinates": [ 13.2941973, 52.5061448 ] } },
{ "type": "Feature", "properties": { "osm_id": "718143894", "code": 2303, "fclass": "cafe", "name": "Kids Planet" }, "geometry": { "type": "Point", "coordinates": [ 13.3027278, 52.4996474 ] } },
{ "type": "Feature", "properties": { "osm_id": "721522044", "code": 2303, "fclass": "cafe", "name": "Manufacture Delicate" }, "geometry": { "type": "Point", "coordinates": [ 13.4199291, 52.5353847 ] } },
{ "type": "Feature", "properties": { "osm_id": "721907907", "code": 2303, "fclass": "cafe", "name": "Sindbad" }, "geometry": { "type": "Point", "coordinates": [ 13.3661533, 52.5843498 ] } },
{ "type": "Feature", "properties": { "osm_id": "725941837", "code": 2303, "fclass": "cafe", "name": "Café Reet" }, "geometry": { "type": "Point", "coordinates": [ 13.2927651, 52.5181274 ] } },
{ "type": "Feature", "properties": { "osm_id": "726126783", "code": 2303, "fclass": "cafe", "name": "R3 Coffee Lounge" }, "geometry": { "type": "Point", "coordinates": [ 13.3147718, 52.4740598 ] } },
{ "type": "Feature", "properties": { "osm_id": "727851984", "code": 2303, "fclass": "cafe", "name": "ess eins" }, "geometry": { "type": "Point", "coordinates": [ 13.3606762, 52.4865603 ] } },
{ "type": "Feature", "properties": { "osm_id": "727852032", "code": 2303, "fclass": "cafe", "name": "Coffee House" }, "geometry": { "type": "Point", "coordinates": [ 13.3493941, 52.4905678 ] } },
{ "type": "Feature", "properties": { "osm_id": "727852043", "code": 2303, "fclass": "cafe", "name": "Winterfeldt Schokoladen" }, "geometry": { "type": "Point", "coordinates": [ 13.3541633, 52.4945858 ] } },
{ "type": "Feature", "properties": { "osm_id": "728708454", "code": 2303, "fclass": "cafe", "name": "Fiaker" }, "geometry": { "type": "Point", "coordinates": [ 13.3377772, 52.5238158 ] } },
{ "type": "Feature", "properties": { "osm_id": "729587083", "code": 2303, "fclass": "cafe", "name": "Lezziz" }, "geometry": { "type": "Point", "coordinates": [ 13.3821694, 52.5517673 ] } },
{ "type": "Feature", "properties": { "osm_id": "730172932", "code": 2303, "fclass": "cafe", "name": "Stehcafé 72" }, "geometry": { "type": "Point", "coordinates": [ 13.3640563, 52.4971132 ] } },
{ "type": "Feature", "properties": { "osm_id": "733018670", "code": 2303, "fclass": "cafe", "name": "Oma Lentzes Kaffeestübchen" }, "geometry": { "type": "Point", "coordinates": [ 13.8633668, 53.4819659 ] } },
{ "type": "Feature", "properties": { "osm_id": "733625384", "code": 2303, "fclass": "cafe", "name": "Altstadtcafé" }, "geometry": { "type": "Point", "coordinates": [ 13.5011131, 53.1187028 ] } },
{ "type": "Feature", "properties": { "osm_id": "733628408", "code": 2303, "fclass": "cafe", "name": "Marktcafe Kolberg" }, "geometry": { "type": "Point", "coordinates": [ 13.5009502, 53.1197956 ] } },
{ "type": "Feature", "properties": { "osm_id": "734061052", "code": 2303, "fclass": "cafe", "name": "Cafe Hecht" }, "geometry": { "type": "Point", "coordinates": [ 11.7585408, 52.9973171 ] } },
{ "type": "Feature", "properties": { "osm_id": "734960871", "code": 2303, "fclass": "cafe", "name": "Burak Künefe" }, "geometry": { "type": "Point", "coordinates": [ 13.3959123, 52.5391912 ] } },
{ "type": "Feature", "properties": { "osm_id": "735944524", "code": 2303, "fclass": "cafe", "name": "Romy Café & Bistro" }, "geometry": { "type": "Point", "coordinates": [ 13.5629766, 52.4468407 ] } },
{ "type": "Feature", "properties": { "osm_id": "737197006", "code": 2303, "fclass": "cafe", "name": "Kaffee-Haus Madlen" }, "geometry": { "type": "Point", "coordinates": [ 13.4783092, 52.5268357 ] } },
{ "type": "Feature", "properties": { "osm_id": "737998896", "code": 2303, "fclass": "cafe", "name": "Café & Konditorei Götsch" }, "geometry": { "type": "Point", "coordinates": [ 12.8907357, 53.1006117 ] } },
{ "type": "Feature", "properties": { "osm_id": "738253424", "code": 2303, "fclass": "cafe", "name": "Einkehr \"Zum Bergmann\"" }, "geometry": { "type": "Point", "coordinates": [ 13.7791367, 52.476472 ] } },
{ "type": "Feature", "properties": { "osm_id": "738604733", "code": 2303, "fclass": "cafe", "name": "Café Heideklause" }, "geometry": { "type": "Point", "coordinates": [ 13.6453544, 52.3482497 ] } },
{ "type": "Feature", "properties": { "osm_id": "739939511", "code": 2303, "fclass": "cafe", "name": "Alpen-Eis" }, "geometry": { "type": "Point", "coordinates": [ 13.3465325, 52.436338 ] } },
{ "type": "Feature", "properties": { "osm_id": "742015772", "code": 2303, "fclass": "cafe", "name": "Café Happiness" }, "geometry": { "type": "Point", "coordinates": [ 13.4632617, 52.4250012 ] } },
{ "type": "Feature", "properties": { "osm_id": "745680952", "code": 2303, "fclass": "cafe", "name": "RUDIMARIE + missismiller" }, "geometry": { "type": "Point", "coordinates": [ 13.4386477, 52.4887871 ] } },
{ "type": "Feature", "properties": { "osm_id": "745732665", "code": 2303, "fclass": "cafe", "name": "Ketori Coffee" }, "geometry": { "type": "Point", "coordinates": [ 13.431108, 52.48772 ] } },
{ "type": "Feature", "properties": { "osm_id": "747493591", "code": 2303, "fclass": "cafe", "name": "Les Baguettes" }, "geometry": { "type": "Point", "coordinates": [ 13.3263802, 52.4867015 ] } },
{ "type": "Feature", "properties": { "osm_id": "747493608", "code": 2303, "fclass": "cafe", "name": "Merenda Snacks & Spezialitäten aus Italien" }, "geometry": { "type": "Point", "coordinates": [ 13.3338592, 52.4905325 ] } },
{ "type": "Feature", "properties": { "osm_id": "747528357", "code": 2303, "fclass": "cafe", "name": "Café maximal" }, "geometry": { "type": "Point", "coordinates": [ 13.40202, 52.5870727 ] } },
{ "type": "Feature", "properties": { "osm_id": "750621200", "code": 2303, "fclass": "cafe", "name": "Blauer Stern" }, "geometry": { "type": "Point", "coordinates": [ 13.4015537, 52.5803653 ] } },
{ "type": "Feature", "properties": { "osm_id": "752878303", "code": 2303, "fclass": "cafe", "name": "That Pink Café" }, "geometry": { "type": "Point", "coordinates": [ 13.4545851, 52.4727222 ] } },
{ "type": "Feature", "properties": { "osm_id": "752903324", "code": 2303, "fclass": "cafe", "name": "Café Dejavu" }, "geometry": { "type": "Point", "coordinates": [ 13.4510678, 52.4719574 ] } },
{ "type": "Feature", "properties": { "osm_id": "752995885", "code": 2303, "fclass": "cafe", "name": "Gülays Kitchen" }, "geometry": { "type": "Point", "coordinates": [ 13.4447944, 52.4737502 ] } },
{ "type": "Feature", "properties": { "osm_id": "760035387", "code": 2303, "fclass": "cafe", "name": "Kindercafé Wunderland" }, "geometry": { "type": "Point", "coordinates": [ 13.3084147, 52.4970063 ] } },
{ "type": "Feature", "properties": { "osm_id": "766467492", "code": 2303, "fclass": "cafe", "name": "The Barn" }, "geometry": { "type": "Point", "coordinates": [ 13.3746993, 52.5083684 ] } },
{ "type": "Feature", "properties": { "osm_id": "766742164", "code": 2303, "fclass": "cafe", "name": "Kiez Vegan" }, "geometry": { "type": "Point", "coordinates": [ 13.4095085, 52.4904781 ] } },
{ "type": "Feature", "properties": { "osm_id": "766875154", "code": 2303, "fclass": "cafe", "name": "Eiscafé Venezia" }, "geometry": { "type": "Point", "coordinates": [ 13.546032, 52.4380015 ] } },
{ "type": "Feature", "properties": { "osm_id": "768569344", "code": 2303, "fclass": "cafe", "name": "Einstein Kaffee" }, "geometry": { "type": "Point", "coordinates": [ 13.3336514, 52.5152912 ] } },
{ "type": "Feature", "properties": { "osm_id": "769850000", "code": 2303, "fclass": "cafe", "name": "Cafe Irmak" }, "geometry": { "type": "Point", "coordinates": [ 13.3632601, 52.5664578 ] } },
{ "type": "Feature", "properties": { "osm_id": "771332593", "code": 2303, "fclass": "cafe", "name": "Cafe Belmont" }, "geometry": { "type": "Point", "coordinates": [ 13.3438641, 52.5042035 ] } },
{ "type": "Feature", "properties": { "osm_id": "773342385", "code": 2303, "fclass": "cafe", "name": "Häppies" }, "geometry": { "type": "Point", "coordinates": [ 13.4192924, 52.5405949 ] } },
{ "type": "Feature", "properties": { "osm_id": "773640803", "code": 2303, "fclass": "cafe", "name": "Panorama Punkt" }, "geometry": { "type": "Point", "coordinates": [ 13.3750816, 52.5090499 ] } },
{ "type": "Feature", "properties": { "osm_id": "774485383", "code": 2303, "fclass": "cafe", "name": "Asmen Feinkost" }, "geometry": { "type": "Point", "coordinates": [ 13.4159966, 52.5407053 ] } },
{ "type": "Feature", "properties": { "osm_id": "774984760", "code": 2303, "fclass": "cafe", "name": "Stadtcafé Beeskow" }, "geometry": { "type": "Point", "coordinates": [ 14.2457276, 52.1729422 ] } },
{ "type": "Feature", "properties": { "osm_id": "775052771", "code": 2303, "fclass": "cafe", "name": "Café Dreißig" }, "geometry": { "type": "Point", "coordinates": [ 14.6300433, 52.1475872 ] } },
{ "type": "Feature", "properties": { "osm_id": "775052801", "code": 2303, "fclass": "cafe", "name": "Café Dreißig" }, "geometry": { "type": "Point", "coordinates": [ 14.6313786, 52.1433911 ] } },
{ "type": "Feature", "properties": { "osm_id": "775079486", "code": 2303, "fclass": "cafe", "name": "Dreißig" }, "geometry": { "type": "Point", "coordinates": [ 14.7147, 51.9524536 ] } },
{ "type": "Feature", "properties": { "osm_id": "775342935", "code": 2303, "fclass": "cafe", "name": "Fendricks" }, "geometry": { "type": "Point", "coordinates": [ 13.3215886, 52.4585143 ] } },
{ "type": "Feature", "properties": { "osm_id": "775342945", "code": 2303, "fclass": "cafe", "name": "Confiserie Reichert" }, "geometry": { "type": "Point", "coordinates": [ 13.3227066, 52.4586454 ] } },
{ "type": "Feature", "properties": { "osm_id": "775862458", "code": 2303, "fclass": "cafe", "name": "Kant Café" }, "geometry": { "type": "Point", "coordinates": [ 13.3137428, 52.5017035 ] } },
{ "type": "Feature", "properties": { "osm_id": "775862467", "code": 2303, "fclass": "cafe", "name": "Cali Bocca" }, "geometry": { "type": "Point", "coordinates": [ 13.3169154, 52.503883 ] } },
{ "type": "Feature", "properties": { "osm_id": "775862481", "code": 2303, "fclass": "cafe", "name": "Kame" }, "geometry": { "type": "Point", "coordinates": [ 13.313729, 52.503825 ] } },
{ "type": "Feature", "properties": { "osm_id": "775862484", "code": 2303, "fclass": "cafe", "name": "1900" }, "geometry": { "type": "Point", "coordinates": [ 13.3224052, 52.5039936 ] } },
{ "type": "Feature", "properties": { "osm_id": "776125571", "code": 2303, "fclass": "cafe", "name": "KaraMel's" }, "geometry": { "type": "Point", "coordinates": [ 13.3071924, 52.5175085 ] } },
{ "type": "Feature", "properties": { "osm_id": "778710960", "code": 2303, "fclass": "cafe", "name": "Kaffee Marlene" }, "geometry": { "type": "Point", "coordinates": [ 13.4114208, 52.5399494 ] } },
{ "type": "Feature", "properties": { "osm_id": "778710965", "code": 2303, "fclass": "cafe", "name": "Eis Bar" }, "geometry": { "type": "Point", "coordinates": [ 13.4103183, 52.539385 ] } },
{ "type": "Feature", "properties": { "osm_id": "790502622", "code": 2303, "fclass": "cafe", "name": "Gardine" }, "geometry": { "type": "Point", "coordinates": [ 13.4201663, 52.5341014 ] } },
{ "type": "Feature", "properties": { "osm_id": "792057080", "code": 2303, "fclass": "cafe", "name": "Die Kiste" }, "geometry": { "type": "Point", "coordinates": [ 13.6095221, 52.5360975 ] } },
{ "type": "Feature", "properties": { "osm_id": "793020082", "code": 2303, "fclass": "cafe", "name": "Bistro Grenzfall" }, "geometry": { "type": "Point", "coordinates": [ 13.3895386, 52.5355294 ] } },
{ "type": "Feature", "properties": { "osm_id": "794213642", "code": 2303, "fclass": "cafe", "name": "Milch & Zucker" }, "geometry": { "type": "Point", "coordinates": [ 13.4175899, 52.5018471 ] } },
{ "type": "Feature", "properties": { "osm_id": "800128344", "code": 2303, "fclass": "cafe", "name": "JamJam Eis" }, "geometry": { "type": "Point", "coordinates": [ 13.3386564, 52.4629091 ] } },
{ "type": "Feature", "properties": { "osm_id": "800786280", "code": 2303, "fclass": "cafe", "name": "Herman Schulz" }, "geometry": { "type": "Point", "coordinates": [ 13.4688594, 52.5126458 ] } },
{ "type": "Feature", "properties": { "osm_id": "802550080", "code": 2303, "fclass": "cafe", "name": "Bonanza Coffee Heroes" }, "geometry": { "type": "Point", "coordinates": [ 13.4053802, 52.5399974 ] } },
{ "type": "Feature", "properties": { "osm_id": "809726248", "code": 2303, "fclass": "cafe", "name": "Cafe Isa Mitz" }, "geometry": { "type": "Point", "coordinates": [ 13.4335985, 52.4984392 ] } },
{ "type": "Feature", "properties": { "osm_id": "809927484", "code": 2303, "fclass": "cafe", "name": "Café Neundrei" }, "geometry": { "type": "Point", "coordinates": [ 13.399815, 52.5230254 ] } },
{ "type": "Feature", "properties": { "osm_id": "811188490", "code": 2303, "fclass": "cafe", "name": "Café Mantika" }, "geometry": { "type": "Point", "coordinates": [ 13.3501692, 52.5341205 ] } },
{ "type": "Feature", "properties": { "osm_id": "813354337", "code": 2303, "fclass": "cafe", "name": "Berliner Genussmanufaktur" }, "geometry": { "type": "Point", "coordinates": [ 13.2949936, 52.4425443 ] } },
{ "type": "Feature", "properties": { "osm_id": "814185643", "code": 2303, "fclass": "cafe", "name": "Caféteria" }, "geometry": { "type": "Point", "coordinates": [ 13.5676003, 52.5187671 ] } },
{ "type": "Feature", "properties": { "osm_id": "821271943", "code": 2303, "fclass": "cafe", "name": "Coffee Fellows" }, "geometry": { "type": "Point", "coordinates": [ 13.3900606, 52.508244 ] } },
{ "type": "Feature", "properties": { "osm_id": "823779622", "code": 2303, "fclass": "cafe", "name": "Pakolat" }, "geometry": { "type": "Point", "coordinates": [ 13.4162712, 52.5438537 ] } },
{ "type": "Feature", "properties": { "osm_id": "823788770", "code": 2303, "fclass": "cafe", "name": "CoffeeCross" }, "geometry": { "type": "Point", "coordinates": [ 13.2865366, 52.4533177 ] } },
{ "type": "Feature", "properties": { "osm_id": "831416217", "code": 2303, "fclass": "cafe", "name": "Tee Tea Thé" }, "geometry": { "type": "Point", "coordinates": [ 13.3533984, 52.4902868 ] } },
{ "type": "Feature", "properties": { "osm_id": "832835292", "code": 2303, "fclass": "cafe", "name": "Golden Bäcker & Eis Café" }, "geometry": { "type": "Point", "coordinates": [ 13.3661352, 52.5531634 ] } },
{ "type": "Feature", "properties": { "osm_id": "832840930", "code": 2303, "fclass": "cafe", "name": "Flying Roasters" }, "geometry": { "type": "Point", "coordinates": [ 13.3962811, 52.4915142 ] } },
{ "type": "Feature", "properties": { "osm_id": "833111849", "code": 2303, "fclass": "cafe", "name": "Mandarin" }, "geometry": { "type": "Point", "coordinates": [ 13.4025511, 52.5250687 ] } },
{ "type": "Feature", "properties": { "osm_id": "833164275", "code": 2303, "fclass": "cafe", "name": "WonderWaffel" }, "geometry": { "type": "Point", "coordinates": [ 13.3282185, 52.4642659 ] } },
{ "type": "Feature", "properties": { "osm_id": "837695966", "code": 2303, "fclass": "cafe", "name": "Bäckerei Wahl" }, "geometry": { "type": "Point", "coordinates": [ 13.5355616, 52.4331186 ] } },
{ "type": "Feature", "properties": { "osm_id": "839543566", "code": 2303, "fclass": "cafe", "name": "L21" }, "geometry": { "type": "Point", "coordinates": [ 13.4076613, 52.5304933 ] } },
{ "type": "Feature", "properties": { "osm_id": "840701350", "code": 2303, "fclass": "cafe", "name": "Cafe Rondell" }, "geometry": { "type": "Point", "coordinates": [ 13.2639443, 52.7454629 ] } },
{ "type": "Feature", "properties": { "osm_id": "849634209", "code": 2303, "fclass": "cafe", "name": "Fatoush" }, "geometry": { "type": "Point", "coordinates": [ 13.4571362, 52.5114415 ] } },
{ "type": "Feature", "properties": { "osm_id": "849791887", "code": 2303, "fclass": "cafe", "name": "Aquarium Café" }, "geometry": { "type": "Point", "coordinates": [ 13.4878352, 52.5517753 ] } },
{ "type": "Feature", "properties": { "osm_id": "850672340", "code": 2303, "fclass": "cafe", "name": "Rats-Café" }, "geometry": { "type": "Point", "coordinates": [ 13.1451073, 53.1850169 ] } },
{ "type": "Feature", "properties": { "osm_id": "855341809", "code": 2303, "fclass": "cafe", "name": "Karadeniz Lokali" }, "geometry": { "type": "Point", "coordinates": [ 13.3622806, 52.5521179 ] } },
{ "type": "Feature", "properties": { "osm_id": "858993575", "code": 2303, "fclass": "cafe", "name": "LPG Bio-Bistro" }, "geometry": { "type": "Point", "coordinates": [ 13.4133277, 52.5328113 ] } },
{ "type": "Feature", "properties": { "osm_id": "861329092", "code": 2303, "fclass": "cafe", "name": "Kudika" }, "geometry": { "type": "Point", "coordinates": [ 13.300105, 52.5211298 ] } },
{ "type": "Feature", "properties": { "osm_id": "862030918", "code": 2303, "fclass": "cafe", "name": "Café Mediterrane" }, "geometry": { "type": "Point", "coordinates": [ 13.3147167, 52.5143243 ] } },
{ "type": "Feature", "properties": { "osm_id": "862992897", "code": 2303, "fclass": "cafe", "name": "Fourty Years" }, "geometry": { "type": "Point", "coordinates": [ 13.4273547, 52.495706 ] } },
{ "type": "Feature", "properties": { "osm_id": "863057757", "code": 2303, "fclass": "cafe", "name": "Espresso House" }, "geometry": { "type": "Point", "coordinates": [ 13.4101065, 52.5208397 ] } },
{ "type": "Feature", "properties": { "osm_id": "865931269", "code": 2303, "fclass": "cafe", "name": "Simitdchi" }, "geometry": { "type": "Point", "coordinates": [ 13.418011, 52.499904 ] } },
{ "type": "Feature", "properties": { "osm_id": "866049060", "code": 2303, "fclass": "cafe", "name": "luzia" }, "geometry": { "type": "Point", "coordinates": [ 13.418271, 52.5016751 ] } },
{ "type": "Feature", "properties": { "osm_id": "867271475", "code": 2303, "fclass": "cafe", "name": "LAP Coffee" }, "geometry": { "type": "Point", "coordinates": [ 13.418963, 52.5010875 ] } },
{ "type": "Feature", "properties": { "osm_id": "867497526", "code": 2303, "fclass": "cafe", "name": "Pfau" }, "geometry": { "type": "Point", "coordinates": [ 13.3308641, 52.5273463 ] } },
{ "type": "Feature", "properties": { "osm_id": "867497537", "code": 2303, "fclass": "cafe", "name": "Eis Rialto" }, "geometry": { "type": "Point", "coordinates": [ 13.3299052, 52.5254463 ] } },
{ "type": "Feature", "properties": { "osm_id": "867734682", "code": 2303, "fclass": "cafe", "name": "ART en chocolat" }, "geometry": { "type": "Point", "coordinates": [ 13.4169636, 52.5023636 ] } },
{ "type": "Feature", "properties": { "osm_id": "867751944", "code": 2303, "fclass": "cafe", "name": "Smyrna Kuruyemis" }, "geometry": { "type": "Point", "coordinates": [ 13.420052, 52.5011789 ] } },
{ "type": "Feature", "properties": { "osm_id": "871641850", "code": 2303, "fclass": "cafe", "name": "Ağrı Efsanesi" }, "geometry": { "type": "Point", "coordinates": [ 13.4172801, 52.4996233 ] } },
{ "type": "Feature", "properties": { "osm_id": "872538359", "code": 2303, "fclass": "cafe", "name": "By Leo" }, "geometry": { "type": "Point", "coordinates": [ 13.42001, 52.5020534 ] } },
{ "type": "Feature", "properties": { "osm_id": "874274557", "code": 2303, "fclass": "cafe", "name": "Cafe Kotti" }, "geometry": { "type": "Point", "coordinates": [ 13.4181523, 52.5001477 ] } },
{ "type": "Feature", "properties": { "osm_id": "874353331", "code": 2303, "fclass": "cafe", "name": "ichorya" }, "geometry": { "type": "Point", "coordinates": [ 13.4145875, 52.5026859 ] } },
{ "type": "Feature", "properties": { "osm_id": "876181984", "code": 2303, "fclass": "cafe", "name": "TIM’s Bakery & Deli" }, "geometry": { "type": "Point", "coordinates": [ 13.3929727, 52.5163595 ] } },
{ "type": "Feature", "properties": { "osm_id": "876355351", "code": 2303, "fclass": "cafe", "name": "Bäckerei Bubner" }, "geometry": { "type": "Point", "coordinates": [ 13.9681575, 51.8681675 ] } },
{ "type": "Feature", "properties": { "osm_id": "881958859", "code": 2303, "fclass": "cafe", "name": "Exner" }, "geometry": { "type": "Point", "coordinates": [ 13.0714961, 52.3898257 ] } },
{ "type": "Feature", "properties": { "osm_id": "882295229", "code": 2303, "fclass": "cafe", "name": "Knaufi's" }, "geometry": { "type": "Point", "coordinates": [ 13.582711, 53.3903872 ] } },
{ "type": "Feature", "properties": { "osm_id": "882295242", "code": 2303, "fclass": "cafe", "name": "Kräutercafé" }, "geometry": { "type": "Point", "coordinates": [ 13.5880399, 53.3531234 ] } },
{ "type": "Feature", "properties": { "osm_id": "886097100", "code": 2303, "fclass": "cafe", "name": "Café Mori" }, "geometry": { "type": "Point", "coordinates": [ 13.4284928, 52.4983654 ] } },
{ "type": "Feature", "properties": { "osm_id": "886309568", "code": 2303, "fclass": "cafe", "name": "A.Horn" }, "geometry": { "type": "Point", "coordinates": [ 13.4053992, 52.495893 ] } },
{ "type": "Feature", "properties": { "osm_id": "895721094", "code": 2303, "fclass": "cafe", "name": "Bistro Jonas Café" }, "geometry": { "type": "Point", "coordinates": [ 13.3393389, 52.526835 ] } },
{ "type": "Feature", "properties": { "osm_id": "895818043", "code": 2303, "fclass": "cafe", "name": "Café Guam" }, "geometry": { "type": "Point", "coordinates": [ 13.0589176, 52.4028884 ] } },
{ "type": "Feature", "properties": { "osm_id": "898660200", "code": 2303, "fclass": "cafe", "name": "Eiscafe Delizia" }, "geometry": { "type": "Point", "coordinates": [ 13.3121318, 52.3624262 ] } },
{ "type": "Feature", "properties": { "osm_id": "900404996", "code": 2303, "fclass": "cafe", "name": "Seasidebar" }, "geometry": { "type": "Point", "coordinates": [ 13.2011105, 52.5059202 ] } },
{ "type": "Feature", "properties": { "osm_id": "910426655", "code": 2303, "fclass": "cafe", "name": "Bistro DönerWerk" }, "geometry": { "type": "Point", "coordinates": [ 13.3768873, 52.5357691 ] } },
{ "type": "Feature", "properties": { "osm_id": "919491745", "code": 2303, "fclass": "cafe", "name": "Venezia" }, "geometry": { "type": "Point", "coordinates": [ 13.8093405, 52.8384771 ] } },
{ "type": "Feature", "properties": { "osm_id": "923413825", "code": 2303, "fclass": "cafe", "name": "Pêle Mêle" }, "geometry": { "type": "Point", "coordinates": [ 13.4416806, 52.4794544 ] } },
{ "type": "Feature", "properties": { "osm_id": "924257352", "code": 2303, "fclass": "cafe", "name": "Eiscafe Tiziano" }, "geometry": { "type": "Point", "coordinates": [ 11.2578787, 53.1393739 ] } },
{ "type": "Feature", "properties": { "osm_id": "925237927", "code": 2303, "fclass": "cafe", "name": "Aux Delices Normands" }, "geometry": { "type": "Point", "coordinates": [ 13.143137, 52.4129931 ] } },
{ "type": "Feature", "properties": { "osm_id": "925524894", "code": 2303, "fclass": "cafe", "name": "leo coffee" }, "geometry": { "type": "Point", "coordinates": [ 13.3378959, 52.5044803 ] } },
{ "type": "Feature", "properties": { "osm_id": "930288682", "code": 2303, "fclass": "cafe", "name": "Park-Café" }, "geometry": { "type": "Point", "coordinates": [ 13.3962769, 52.4403717 ] } },
{ "type": "Feature", "properties": { "osm_id": "931622739", "code": 2303, "fclass": "cafe", "name": "Zimt & Mehl" }, "geometry": { "type": "Point", "coordinates": [ 13.4439166, 52.4847439 ] } },
{ "type": "Feature", "properties": { "osm_id": "932342550", "code": 2303, "fclass": "cafe", "name": "Giro Coffee Bar" }, "geometry": { "type": "Point", "coordinates": [ 13.3227678, 52.5100684 ] } },
{ "type": "Feature", "properties": { "osm_id": "935637567", "code": 2303, "fclass": "cafe", "name": "cuccuma" }, "geometry": { "type": "Point", "coordinates": [ 13.3943553, 52.4905777 ] } },
{ "type": "Feature", "properties": { "osm_id": "937913621", "code": 2303, "fclass": "cafe", "name": "Bravo" }, "geometry": { "type": "Point", "coordinates": [ 13.3946631, 52.5270744 ] } },
{ "type": "Feature", "properties": { "osm_id": "938054848", "code": 2303, "fclass": "cafe", "name": "Redo Gelato" }, "geometry": { "type": "Point", "coordinates": [ 13.0584955, 52.3993586 ] } },
{ "type": "Feature", "properties": { "osm_id": "940815668", "code": 2303, "fclass": "cafe", "name": "La Vie" }, "geometry": { "type": "Point", "coordinates": [ 13.2963918, 52.4643933 ] } },
{ "type": "Feature", "properties": { "osm_id": "941303173", "code": 2303, "fclass": "cafe", "name": "Das kleine Holländische" }, "geometry": { "type": "Point", "coordinates": [ 13.0623491, 52.4036993 ] } },
{ "type": "Feature", "properties": { "osm_id": "941375461", "code": 2303, "fclass": "cafe", "name": "monsieur ibrahim" }, "geometry": { "type": "Point", "coordinates": [ 13.4112178, 52.4913067 ] } },
{ "type": "Feature", "properties": { "osm_id": "945649942", "code": 2303, "fclass": "cafe", "name": "Guth" }, "geometry": { "type": "Point", "coordinates": [ 13.4174939, 52.5349391 ] } },
{ "type": "Feature", "properties": { "osm_id": "957843302", "code": 2303, "fclass": "cafe", "name": "Kräuterkate Glau" }, "geometry": { "type": "Point", "coordinates": [ 13.1461951, 52.2363163 ] } },
{ "type": "Feature", "properties": { "osm_id": "959238592", "code": 2303, "fclass": "cafe", "name": "Kouskous Café Bar" }, "geometry": { "type": "Point", "coordinates": [ 13.408271, 52.4887243 ] } },
{ "type": "Feature", "properties": { "osm_id": "959704845", "code": 2303, "fclass": "cafe", "name": "Kellermann" }, "geometry": { "type": "Point", "coordinates": [ 13.0917375, 52.3921477 ] } },
{ "type": "Feature", "properties": { "osm_id": "961626565", "code": 2303, "fclass": "cafe", "name": "Kame" }, "geometry": { "type": "Point", "coordinates": [ 13.3925097, 52.5274648 ] } },
{ "type": "Feature", "properties": { "osm_id": "970422265", "code": 2303, "fclass": "cafe", "name": "Golightly" }, "geometry": { "type": "Point", "coordinates": [ 13.3946276, 52.4879159 ] } },
{ "type": "Feature", "properties": { "osm_id": "971891546", "code": 2303, "fclass": "cafe", "name": "QG - Café Français" }, "geometry": { "type": "Point", "coordinates": [ 13.4725194, 52.5164075 ] } },
{ "type": "Feature", "properties": { "osm_id": "972319931", "code": 2303, "fclass": "cafe", "name": "Bake & Bite" }, "geometry": { "type": "Point", "coordinates": [ 13.4173278, 52.5122954 ] } },
{ "type": "Feature", "properties": { "osm_id": "974389011", "code": 2303, "fclass": "cafe", "name": "Camino" }, "geometry": { "type": "Point", "coordinates": [ 13.4315211, 52.5318455 ] } },
{ "type": "Feature", "properties": { "osm_id": "974393040", "code": 2303, "fclass": "cafe", "name": "Messesnack Kleiner Stern" }, "geometry": { "type": "Point", "coordinates": [ 13.2772492, 52.5059555 ] } },
{ "type": "Feature", "properties": { "osm_id": "975136815", "code": 2303, "fclass": "cafe", "name": "LePopulaire" }, "geometry": { "type": "Point", "coordinates": [ 13.3962176, 52.5169402 ] } },
{ "type": "Feature", "properties": { "osm_id": "975312178", "code": 2303, "fclass": "cafe", "name": "Viadukt Bistro" }, "geometry": { "type": "Point", "coordinates": [ 13.4003855, 52.522594 ] } },
{ "type": "Feature", "properties": { "osm_id": "975312193", "code": 2303, "fclass": "cafe", "name": "Starbucks" }, "geometry": { "type": "Point", "coordinates": [ 13.4020866, 52.5231934 ] } },
{ "type": "Feature", "properties": { "osm_id": "975693680", "code": 2303, "fclass": "cafe", "name": "Skatehalle Berlin" }, "geometry": { "type": "Point", "coordinates": [ 13.4540486, 52.5068724 ] } },
{ "type": "Feature", "properties": { "osm_id": "978979323", "code": 2303, "fclass": "cafe", "name": "soopoollim" }, "geometry": { "type": "Point", "coordinates": [ 13.3962167, 52.5315895 ] } },
{ "type": "Feature", "properties": { "osm_id": "980767608", "code": 2303, "fclass": "cafe", "name": "Café Vux" }, "geometry": { "type": "Point", "coordinates": [ 13.4425773, 52.4721688 ] } },
{ "type": "Feature", "properties": { "osm_id": "981448915", "code": 2303, "fclass": "cafe", "name": "Kaiserwetter" }, "geometry": { "type": "Point", "coordinates": [ 13.0579004, 52.3999108 ] } },
{ "type": "Feature", "properties": { "osm_id": "983255376", "code": 2303, "fclass": "cafe", "name": "Königliche Hofbäckerei" }, "geometry": { "type": "Point", "coordinates": [ 13.0304467, 52.4087504 ] } },
{ "type": "Feature", "properties": { "osm_id": "986405309", "code": 2303, "fclass": "cafe", "name": "La Lemon Vita" }, "geometry": { "type": "Point", "coordinates": [ 13.0576912, 52.4034948 ] } },
{ "type": "Feature", "properties": { "osm_id": "988995654", "code": 2303, "fclass": "cafe", "name": "Tortenwerkstatt" }, "geometry": { "type": "Point", "coordinates": [ 13.3976501, 52.5461439 ] } },
{ "type": "Feature", "properties": { "osm_id": "989022916", "code": 2303, "fclass": "cafe", "name": "Pure Origins" }, "geometry": { "type": "Point", "coordinates": [ 13.3911123, 52.5200936 ] } },
{ "type": "Feature", "properties": { "osm_id": "990057945", "code": 2303, "fclass": "cafe", "name": "Eiscafe Venezia" }, "geometry": { "type": "Point", "coordinates": [ 12.559159, 52.4066026 ] } },
{ "type": "Feature", "properties": { "osm_id": "992805974", "code": 2303, "fclass": "cafe", "name": "Malibu" }, "geometry": { "type": "Point", "coordinates": [ 13.3441377, 52.4388235 ] } },