{
"type": "FeatureCollection",
"name": "library",
"crs": { "type": "name", "properties": { "name": "urn:ogc:def:crs:OGC:1.3:CRS84" } },
"features": [
{ "type": "Feature", "properties": { "osm_id": "29071031", "code": 2007, "fclass": "library", "name": "Bruno-Lösche-Bibliothek" }, "geometry": { "type": "Point", "coordinates": [ 13.3475136, 52.5312448 ] } },
{ "type": "Feature", "properties": { "osm_id": "60848456", "code": 2007, "fclass": "library", "name": "Anton-Saefkow-Bibliothek" }, "geometry": { "type": "Point", "coordinates": [ 13.4708382, 52.5307772 ] } },
{ "type": "Feature", "properties": { "osm_id": "151213540", "code": 2007, "fclass": "library", "name": "Stadtbibliothek" }, "geometry": { "type": "Point", "coordinates": [ 13.2614618, 52.3010781 ] } },
{ "type": "Feature", "properties": { "osm_id": "203557001", "code": 2007, "fclass": "library", "name": "Stadtteilbibliothek Erich Weinert" }, "geometry": { "type": "Point", "coordinates": [ 13.538715, 52.5281578 ] } },
{ "type": "Feature", "properties": { "osm_id": "256922190", "code": 2007, "fclass": "library", "name": "Stadtteilbibliothek Halemweg" }, "geometry": { "type": "Point", "coordinates": [ 13.2871861, 52.5375039 ] } },
{ "type": "Feature", "properties": { "osm_id": "257411379", "code": 2007, "fclass": "library", "name": null }, "geometry": { "type": "Point", "coordinates": [ 13.3581806, 52.1409566 ] } },
{ "type": "Feature", "properties": { "osm_id": "257708789", "code": 2007, "fclass": "library", "name": "Bezirkszentralbibliothek Spandau" }, "geometry": { "type": "Point", "coordinates": [ 13.2013864, 52.5361334 ] } },
{ "type": "Feature", "properties": { "osm_id": "262879310", "code": 2007, "fclass": "library", "name": "Gemeindebibliothek Eichwalde" }, "geometry": { "type": "Point", "coordinates": [ 13.6199028, 52.3744293 ] } },
{ "type": "Feature", "properties": { "osm_id": "263679066", "code": 2007, "fclass": "library", "name": "Bezirkszentralbibliothek Mark Twain" }, "geometry": { "type": "Point", "coordinates": [ 13.556704, 52.54722 ] } },
{ "type": "Feature", "properties": { "osm_id": "264776935", "code": 2007, "fclass": "library", "name": "Ibero-Amerikanisches Institut" }, "geometry": { "type": "Point", "coordinates": [ 13.369701, 52.5068092 ] } },
{ "type": "Feature", "properties": { "osm_id": "266540876", "code": 2007, "fclass": "library", "name": "Bezirkszentralbibliothek Philipp Schaeffer" }, "geometry": { "type": "Point", "coordinates": [ 13.3986959, 52.5316059 ] } },
{ "type": "Feature", "properties": { "osm_id": "266629485", "code": 2007, "fclass": "library", "name": "Stadtteilbibliothek Mahlsdorf" }, "geometry": { "type": "Point", "coordinates": [ 13.6127893, 52.5055546 ] } },
{ "type": "Feature", "properties": { "osm_id": "268568795", "code": 2007, "fclass": "library", "name": "Gemeindebibliothek Petershagen/Eggersdorf" }, "geometry": { "type": "Point", "coordinates": [ 13.8178637, 52.5385198 ] } },
{ "type": "Feature", "properties": { "osm_id": "271685475", "code": 2007, "fclass": "library", "name": "Philologische Bibliothek" }, "geometry": { "type": "Point", "coordinates": [ 13.2883334, 52.4518573 ] } },
{ "type": "Feature", "properties": { "osm_id": "271875991", "code": 2007, "fclass": "library", "name": "Campusbibliothek Natur-, Kultur- und Bildungswissenschaften, Mathematik, Informatik und Psychologie" }, "geometry": { "type": "Point", "coordinates": [ 13.2902597, 52.4535775 ] } },
{ "type": "Feature", "properties": { "osm_id": "279877023", "code": 2007, "fclass": "library", "name": "Stadtbibliothek" }, "geometry": { "type": "Point", "coordinates": [ 13.0777793, 51.9918988 ] } },
{ "type": "Feature", "properties": { "osm_id": "281375131", "code": 2007, "fclass": "library", "name": "Wolfdietrich-Schnurre-Bibliothek" }, "geometry": { "type": "Point", "coordinates": [ 13.4528367, 52.5477387 ] } },
{ "type": "Feature", "properties": { "osm_id": "293137702", "code": 2007, "fclass": "library", "name": "Stadtteilbibliothek Karow" }, "geometry": { "type": "Point", "coordinates": [ 13.4917041, 52.616548 ] } },
{ "type": "Feature", "properties": { "osm_id": "298063780", "code": 2007, "fclass": "library", "name": "Bibliothek" }, "geometry": { "type": "Point", "coordinates": [ 13.2589194, 52.4036309 ] } },
{ "type": "Feature", "properties": { "osm_id": "308811018", "code": 2007, "fclass": "library", "name": "Bettina von Arnim Bibliothek" }, "geometry": { "type": "Point", "coordinates": [ 13.414088, 52.5492616 ] } },
{ "type": "Feature", "properties": { "osm_id": "311395303", "code": 2007, "fclass": "library", "name": "Stadt- & Regionalbibliothek" }, "geometry": { "type": "Point", "coordinates": [ 14.5542619, 52.3435796 ] } },
{ "type": "Feature", "properties": { "osm_id": "323991172", "code": 2007, "fclass": "library", "name": "Egon-Erwin-Kisch-Bibliothek" }, "geometry": { "type": "Point", "coordinates": [ 13.4813674, 52.5134373 ] } },
{ "type": "Feature", "properties": { "osm_id": "327484713", "code": 2007, "fclass": "library", "name": "Stadt- & Regionalbibliothek" }, "geometry": { "type": "Point", "coordinates": [ 14.5529328, 52.3488354 ] } },
{ "type": "Feature", "properties": { "osm_id": "327492618", "code": 2007, "fclass": "library", "name": "Kleist-Museum (Bibliothek & Archiv)" }, "geometry": { "type": "Point", "coordinates": [ 14.5572723, 52.3434981 ] } },
{ "type": "Feature", "properties": { "osm_id": "333343782", "code": 2007, "fclass": "library", "name": "Helene-Nathan-Bibliothek" }, "geometry": { "type": "Point", "coordinates": [ 13.4327729, 52.4819616 ] } },
{ "type": "Feature", "properties": { "osm_id": "345162417", "code": 2007, "fclass": "library", "name": "Ingeborg-Drewitz-Bibliothek" }, "geometry": { "type": "Point", "coordinates": [ 13.3196255, 52.4577849 ] } },
{ "type": "Feature", "properties": { "osm_id": "353832423", "code": 2007, "fclass": "library", "name": "Bibliothek der Evangelischen Kirche Berlin-Brandenburg und Amtsbibliothek" }, "geometry": { "type": "Point", "coordinates": [ 12.2858875, 52.2630949 ] } },
{ "type": "Feature", "properties": { "osm_id": "365322133", "code": 2007, "fclass": "library", "name": "Gemeindebibliothek" }, "geometry": { "type": "Point", "coordinates": [ 13.5929802, 52.3597239 ] } },
{ "type": "Feature", "properties": { "osm_id": "388651429", "code": 2007, "fclass": "library", "name": null }, "geometry": { "type": "Point", "coordinates": [ 13.2909704, 52.6914744 ] } },
{ "type": "Feature", "properties": { "osm_id": "393935086", "code": 2007, "fclass": "library", "name": "Bibliothek Großmachnow" }, "geometry": { "type": "Point", "coordinates": [ 13.4629221, 52.270793 ] } },
{ "type": "Feature", "properties": { "osm_id": "395599328", "code": 2007, "fclass": "library", "name": "Bibliothek Panketal" }, "geometry": { "type": "Point", "coordinates": [ 13.5330917, 52.6599157 ] } },
{ "type": "Feature", "properties": { "osm_id": "409047008", "code": 2007, "fclass": "library", "name": "Bibliothek Letschin" }, "geometry": { "type": "Point", "coordinates": [ 14.3593566, 52.6445557 ] } },
{ "type": "Feature", "properties": { "osm_id": "428261863", "code": 2007, "fclass": "library", "name": "Stadtbibliothek Luckenwalde" }, "geometry": { "type": "Point", "coordinates": [ 13.1605374, 52.0902719 ] } },
{ "type": "Feature", "properties": { "osm_id": "429251441", "code": 2007, "fclass": "library", "name": "Stadtbibliothek" }, "geometry": { "type": "Point", "coordinates": [ 13.623925, 52.2977949 ] } },
{ "type": "Feature", "properties": { "osm_id": "439225024", "code": 2007, "fclass": "library", "name": null }, "geometry": { "type": "Point", "coordinates": [ 13.6121889, 52.3405271 ] } },
{ "type": "Feature", "properties": { "osm_id": "439229151", "code": 2007, "fclass": "library", "name": "Johannes-Bobrowski-Bibliothek" }, "geometry": { "type": "Point", "coordinates": [ 13.6214013, 52.4548013 ] } },
{ "type": "Feature", "properties": { "osm_id": "443620452", "code": 2007, "fclass": "library", "name": "Bibliothek Denkmalpflege" }, "geometry": { "type": "Point", "coordinates": [ 13.4716086, 52.1720397 ] } },
{ "type": "Feature", "properties": { "osm_id": "443621565", "code": 2007, "fclass": "library", "name": "Bibliothek Archäologie" }, "geometry": { "type": "Point", "coordinates": [ 13.4718146, 52.1734978 ] } },
{ "type": "Feature", "properties": { "osm_id": "444731308", "code": 2007, "fclass": "library", "name": "Stadtteilbibliothek Lichenrade" }, "geometry": { "type": "Point", "coordinates": [ 13.3973796, 52.3879238 ] } },
{ "type": "Feature", "properties": { "osm_id": "444994924", "code": 2007, "fclass": "library", "name": "Heinrich-Schulz-Bibliothek" }, "geometry": { "type": "Point", "coordinates": [ 13.308865, 52.5171056 ] } },
{ "type": "Feature", "properties": { "osm_id": "463753302", "code": 2007, "fclass": "library", "name": "Stadtbibliothek" }, "geometry": { "type": "Point", "coordinates": [ 14.073693, 52.5677714 ] } },
{ "type": "Feature", "properties": { "osm_id": "482710823", "code": 2007, "fclass": "library", "name": "Zweigbibliothek Naturwissenschaften" }, "geometry": { "type": "Point", "coordinates": [ 13.5314264, 52.4310682 ] } },
{ "type": "Feature", "properties": { "osm_id": "485678318", "code": 2007, "fclass": "library", "name": "Dorfbibliothek" }, "geometry": { "type": "Point", "coordinates": [ 14.5916297, 52.2306464 ] } },
{ "type": "Feature", "properties": { "osm_id": "486517226", "code": 2007, "fclass": "library", "name": "Bibliothek Campus Wilhelminenhof" }, "geometry": { "type": "Point", "coordinates": [ 13.5247238, 52.4554005 ] } },
{ "type": "Feature", "properties": { "osm_id": "490260439", "code": 2007, "fclass": "library", "name": "Hochschulbibliothek" }, "geometry": { "type": "Point", "coordinates": [ 13.0513579, 52.4137197 ] } },
{ "type": "Feature", "properties": { "osm_id": "497048928", "code": 2007, "fclass": "library", "name": "Fouqué-Bibliothek" }, "geometry": { "type": "Point", "coordinates": [ 12.5540604, 52.4138437 ] } },
{ "type": "Feature", "properties": { "osm_id": "507660382", "code": 2007, "fclass": "library", "name": "KEH Bibliothek" }, "geometry": { "type": "Point", "coordinates": [ 13.5120545, 52.5280812 ] } },
{ "type": "Feature", "properties": { "osm_id": "529557633", "code": 2007, "fclass": "library", "name": "Eberhard-Alexander-Burgh-Bibliothek" }, "geometry": { "type": "Point", "coordinates": [ 13.313449, 52.4713483 ] } },
{ "type": "Feature", "properties": { "osm_id": "560823423", "code": 2007, "fclass": "library", "name": "Friedrich-von-Raumer-Bibliothek" }, "geometry": { "type": "Point", "coordinates": [ 13.3827588, 52.4851862 ] } },
{ "type": "Feature", "properties": { "osm_id": "584011706", "code": 2007, "fclass": "library", "name": "Stadtbibliothek" }, "geometry": { "type": "Point", "coordinates": [ 12.5913437, 52.1456149 ] } },
{ "type": "Feature", "properties": { "osm_id": "584011713", "code": 2007, "fclass": "library", "name": "Kreiskrankenhaus Belzig, Fach- und Patientenbibliothek" }, "geometry": { "type": "Point", "coordinates": [ 12.597903, 52.1402265 ] } },
{ "type": "Feature", "properties": { "osm_id": "584057245", "code": 2007, "fclass": "library", "name": "Stadtbibliothek" }, "geometry": { "type": "Point", "coordinates": [ 13.4579793, 52.1599422 ] } },
{ "type": "Feature", "properties": { "osm_id": "586328524", "code": 2007, "fclass": "library", "name": "Bibliothek des John-F.-Kennedy-Instituts" }, "geometry": { "type": "Point", "coordinates": [ 13.2920178, 52.4571611 ] } },
{ "type": "Feature", "properties": { "osm_id": "599557492", "code": 2007, "fclass": "library", "name": "Bibliothek Schönow" }, "geometry": { "type": "Point", "coordinates": [ 13.5304937, 52.6742985 ] } },
{ "type": "Feature", "properties": { "osm_id": "609820670", "code": 2007, "fclass": "library", "name": "Gemeindebibliothek" }, "geometry": { "type": "Point", "coordinates": [ 13.7012118, 52.4794058 ] } },
{ "type": "Feature", "properties": { "osm_id": "618048288", "code": 2007, "fclass": "library", "name": "Stadtteilbibliothek Buch" }, "geometry": { "type": "Point", "coordinates": [ 13.4938846, 52.6356441 ] } },
{ "type": "Feature", "properties": { "osm_id": "639552895", "code": 2007, "fclass": "library", "name": "HU Berlin – Zweigbibliothek Rechtswissenschaft" }, "geometry": { "type": "Point", "coordinates": [ 13.3932385, 52.5164298 ] } },
{ "type": "Feature", "properties": { "osm_id": "648465837", "code": 2007, "fclass": "library", "name": "Bibliothek Werneuchen" }, "geometry": { "type": "Point", "coordinates": [ 13.7312179, 52.6311929 ] } },
{ "type": "Feature", "properties": { "osm_id": "655286256", "code": 2007, "fclass": "library", "name": "Universitätsbibliothek" }, "geometry": { "type": "Point", "coordinates": [ 14.5542691, 52.3423229 ] } },
{ "type": "Feature", "properties": { "osm_id": "665121783", "code": 2007, "fclass": "library", "name": "Comicbibliothek Renate" }, "geometry": { "type": "Point", "coordinates": [ 13.3937348, 52.5261368 ] } },
{ "type": "Feature", "properties": { "osm_id": "672801933", "code": 2007, "fclass": "library", "name": "Stadtbibliothek Eberswalde" }, "geometry": { "type": "Point", "coordinates": [ 13.8136563, 52.8330425 ] } },
{ "type": "Feature", "properties": { "osm_id": "737212457", "code": 2007, "fclass": "library", "name": "Heinrich-Böll-Bibliothek" }, "geometry": { "type": "Point", "coordinates": [ 13.4408459, 52.5418167 ] } },
{ "type": "Feature", "properties": { "osm_id": "747882909", "code": 2007, "fclass": "library", "name": "Stadtbibliothek Hohen Neuendorf" }, "geometry": { "type": "Point", "coordinates": [ 13.2876619, 52.6692125 ] } },
{ "type": "Feature", "properties": { "osm_id": "768748868", "code": 2007, "fclass": "library", "name": null }, "geometry": { "type": "Point", "coordinates": [ 13.1390844, 52.6493992 ] } },
{ "type": "Feature", "properties": { "osm_id": "795561505", "code": 2007, "fclass": "library", "name": "Adolf-Reichwein-Bibliothek" }, "geometry": { "type": "Point", "coordinates": [ 13.2878878, 52.4775843 ] } },
{ "type": "Feature", "properties": { "osm_id": "961401550", "code": 2007, "fclass": "library", "name": "Bürger-Bibliothek Rüdnitz" }, "geometry": { "type": "Point", "coordinates": [ 13.6302875, 52.7220405 ] } },
{ "type": "Feature", "properties": { "osm_id": "987456353", "code": 2007, "fclass": "library", "name": "Stadtbibliothek" }, "geometry": { "type": "Point", "coordinates": [ 14.7129108, 51.9503389 ] } },
{ "type": "Feature", "properties": { "osm_id": "1008572158", "code": 2007, "fclass": "library", "name": "Stadtarchiv" }, "geometry": { "type": "Point", "coordinates": [ 14.0048351, 53.0201172 ] } },
{ "type": "Feature", "properties": { "osm_id": "1070809009", "code": 2007, "fclass": "library", "name": "Zweigbibliothek Klassische Archäologie" }, "geometry": { "type": "Point", "coordinates": [ 13.3928706, 52.5190211 ] } },
{ "type": "Feature", "properties": { "osm_id": "1070809020", "code": 2007, "fclass": "library", "name": "Zweigbibliothek Fremdsprachliche Philologien / Teilbibliothek Großbritannien-Zentrum" }, "geometry": { "type": "Point", "coordinates": [ 13.386705, 52.5183016 ] } },
{ "type": "Feature", "properties": { "osm_id": "1329777832", "code": 2007, "fclass": "library", "name": "Stadtbibliothek Kirchhain" }, "geometry": { "type": "Point", "coordinates": [ 13.5569347, 51.6360284 ] } },
{ "type": "Feature", "properties": { "osm_id": "1346361343", "code": 2007, "fclass": "library", "name": "Bodo-Uhse-Bibliothek" }, "geometry": { "type": "Point", "coordinates": [ 13.5209225, 52.4978553 ] } },
{ "type": "Feature", "properties": { "osm_id": "1356847676", "code": 2007, "fclass": "library", "name": "Janusz-Korczak-Bibliothek" }, "geometry": { "type": "Point", "coordinates": [ 13.4123577, 52.568454 ] } },
{ "type": "Feature", "properties": { "osm_id": "1360408695", "code": 2007, "fclass": "library", "name": "Stadtbibliothek" }, "geometry": { "type": "Point", "coordinates": [ 13.5230423, 51.45721 ] } },
{ "type": "Feature", "properties": { "osm_id": "1362209543", "code": 2007, "fclass": "library", "name": "Ingeborg-Bachmann-Bibliothek" }, "geometry": { "type": "Point", "coordinates": [ 13.2939985, 52.5145468 ] } },
{ "type": "Feature", "properties": { "osm_id": "1402776410", "code": 2007, "fclass": "library", "name": "Bibliothek der Hochschule Lausitz, Benutzungsbereich Cottbus" }, "geometry": { "type": "Point", "coordinates": [ 14.3182429, 51.7256937 ] } },
{ "type": "Feature", "properties": { "osm_id": "1415218489", "code": 2007, "fclass": "library", "name": "Stadtbibliothek" }, "geometry": { "type": "Point", "coordinates": [ 14.6300871, 52.1463534 ] } },
{ "type": "Feature", "properties": { "osm_id": "1425169658", "code": 2007, "fclass": "library", "name": "Bibliothek des Friedrich-Meinecke-Instituts und des Kunsthistorisches Instituts" }, "geometry": { "type": "Point", "coordinates": [ 13.2947799, 52.4613917 ] } },
{ "type": "Feature", "properties": { "osm_id": "1445349886", "code": 2007, "fclass": "library", "name": "Trude-Jugend-Bib" }, "geometry": { "type": "Point", "coordinates": [ 13.4622976, 52.4255455 ] } },
{ "type": "Feature", "properties": { "osm_id": "1469991062", "code": 2007, "fclass": "library", "name": "Öffentliche Bibliothek Kleinmachnow" }, "geometry": { "type": "Point", "coordinates": [ 13.2199129, 52.4032275 ] } },
{ "type": "Feature", "properties": { "osm_id": "1472976631", "code": 2007, "fclass": "library", "name": "Else-Ury-Bibliothek" }, "geometry": { "type": "Point", "coordinates": [ 13.4362136, 52.4925504 ] } },
{ "type": "Feature", "properties": { "osm_id": "1481377095", "code": 2007, "fclass": "library", "name": "Die Bibliothek Wirtschaft und Management" }, "geometry": { "type": "Point", "coordinates": [ 13.3262714, 52.5121417 ] } },
{ "type": "Feature", "properties": { "osm_id": "1520932909", "code": 2007, "fclass": "library", "name": "Bibliothek Lübbenau - Vetschau" }, "geometry": { "type": "Point", "coordinates": [ 14.0841884, 51.777911 ] } },
{ "type": "Feature", "properties": { "osm_id": "1530089276", "code": 2007, "fclass": "library", "name": "Stadtbibliothek" }, "geometry": { "type": "Point", "coordinates": [ 13.2338656, 51.5783086 ] } },
{ "type": "Feature", "properties": { "osm_id": "1572478527", "code": 2007, "fclass": "library", "name": "Flämingbibliothek" }, "geometry": { "type": "Point", "coordinates": [ 12.6225998, 52.0539974 ] } },
{ "type": "Feature", "properties": { "osm_id": "1617029170", "code": 2007, "fclass": "library", "name": "Bibliothek Groß Neuendorf" }, "geometry": { "type": "Point", "coordinates": [ 14.4088288, 52.7007541 ] } },
{ "type": "Feature", "properties": { "osm_id": "1631758488", "code": 2007, "fclass": "library", "name": "Heinrich-Mann-Bibliothek Strausberg" }, "geometry": { "type": "Point", "coordinates": [ 13.8823131, 52.5752171 ] } },
{ "type": "Feature", "properties": { "osm_id": "1666159622", "code": 2007, "fclass": "library", "name": "Stadt- und Landesbibliothek Potsdam" }, "geometry": { "type": "Point", "coordinates": [ 13.0593217, 52.3970309 ] } },
{ "type": "Feature", "properties": { "osm_id": "1670728349", "code": 2007, "fclass": "library", "name": "Fachbibliothek Kurdologie" }, "geometry": { "type": "Point", "coordinates": [ 13.4339544, 52.4690497 ] } },
{ "type": "Feature", "properties": { "osm_id": "1684737379", "code": 2007, "fclass": "library", "name": "Bibliothek der Freien" }, "geometry": { "type": "Point", "coordinates": [ 13.4254805, 52.5286995 ] } },
{ "type": "Feature", "properties": { "osm_id": "1685672555", "code": 2007, "fclass": "library", "name": "Archiv für Alternativkultur" }, "geometry": { "type": "Point", "coordinates": [ 13.3957618, 52.5127362 ] } },
{ "type": "Feature", "properties": { "osm_id": "1697529206", "code": 2007, "fclass": "library", "name": null }, "geometry": { "type": "Point", "coordinates": [ 13.3938898, 51.5157882 ] } },
{ "type": "Feature", "properties": { "osm_id": "1704936300", "code": 2007, "fclass": "library", "name": "Bibliothek Michendorf" }, "geometry": { "type": "Point", "coordinates": [ 13.0298961, 52.3109605 ] } },
{ "type": "Feature", "properties": { "osm_id": "1766413616", "code": 2007, "fclass": "library", "name": "Stadtbibliothek Schwedt/Oder" }, "geometry": { "type": "Point", "coordinates": [ 14.2873995, 53.0602159 ] } },
{ "type": "Feature", "properties": { "osm_id": "1792482186", "code": 2007, "fclass": "library", "name": "Stadtbibliothek Nauen" }, "geometry": { "type": "Point", "coordinates": [ 12.8733059, 52.6044873 ] } },
{ "type": "Feature", "properties": { "osm_id": "1818848292", "code": 2007, "fclass": "library", "name": "Johanna-Moosdorf-Bibliothek" }, "geometry": { "type": "Point", "coordinates": [ 13.2586101, 52.5106578 ] } },
{ "type": "Feature", "properties": { "osm_id": "1834142979", "code": 2007, "fclass": "library", "name": "Stadtbibliothek" }, "geometry": { "type": "Point", "coordinates": [ 13.8700135, 51.4572374 ] } },
{ "type": "Feature", "properties": { "osm_id": "1855568092", "code": 2007, "fclass": "library", "name": "City library" }, "geometry": { "type": "Point", "coordinates": [ 12.8056629, 52.9245561 ] } },
{ "type": "Feature", "properties": { "osm_id": "1863570970", "code": 2007, "fclass": "library", "name": "Kurt-Tucholsky-Bibliothek" }, "geometry": { "type": "Point", "coordinates": [ 13.4321724, 52.5328818 ] } },
{ "type": "Feature", "properties": { "osm_id": "1874529829", "code": 2007, "fclass": "library", "name": "Artothek" }, "geometry": { "type": "Point", "coordinates": [ 13.3118736, 52.489441 ] } },
{ "type": "Feature", "properties": { "osm_id": "1874627682", "code": 2007, "fclass": "library", "name": "Außenstelle der Amtsbibliothek Peitz" }, "geometry": { "type": "Point", "coordinates": [ 14.5402154, 51.8725803 ] } },
{ "type": "Feature", "properties": { "osm_id": "1933757018", "code": 2007, "fclass": "library", "name": "Bibliothek für Sozialwissenschaften und Osteuropastudien, Stiller Lesesaal" }, "geometry": { "type": "Point", "coordinates": [ 13.2769658, 52.449221 ] } },
{ "type": "Feature", "properties": { "osm_id": "1944634322", "code": 2007, "fclass": "library", "name": "Stadtbibliothek" }, "geometry": { "type": "Point", "coordinates": [ 14.0103536, 51.5877488 ] } },
{ "type": "Feature", "properties": { "osm_id": "1947708083", "code": 2007, "fclass": "library", "name": "Gemeindebibliothek Schipkau" }, "geometry": { "type": "Point", "coordinates": [ 13.8998349, 51.5187645 ] } },
{ "type": "Feature", "properties": { "osm_id": "1976704377", "code": 2007, "fclass": "library", "name": "Amt für Arbeitsschutz und Sicherheitstechnik" }, "geometry": { "type": "Point", "coordinates": [ 14.3236345, 51.7417612 ] } },
{ "type": "Feature", "properties": { "osm_id": "1976704378", "code": 2007, "fclass": "library", "name": "Bücherei Sandow e.V." }, "geometry": { "type": "Point", "coordinates": [ 14.3500234, 51.7594584 ] } },
{ "type": "Feature", "properties": { "osm_id": "1976704379", "code": 2007, "fclass": "library", "name": "Medizinische Bibliothek im Carl-Thiem-Klinikum" }, "geometry": { "type": "Point", "coordinates": [ 14.3218978, 51.7408521 ] } },
{ "type": "Feature", "properties": { "osm_id": "1976704380", "code": 2007, "fclass": "library", "name": "Niedersorbische Bibliothek" }, "geometry": { "type": "Point", "coordinates": [ 14.3247897, 51.7588532 ] } },
{ "type": "Feature", "properties": { "osm_id": "2094774970", "code": 2007, "fclass": "library", "name": "Kunstbibliothek" }, "geometry": { "type": "Point", "coordinates": [ 13.3669367, 52.5085131 ] } },
{ "type": "Feature", "properties": { "osm_id": "2127973182", "code": 2007, "fclass": "library", "name": null }, "geometry": { "type": "Point", "coordinates": [ 13.2122732, 52.8142645 ] } },
{ "type": "Feature", "properties": { "osm_id": "2167555735", "code": 2007, "fclass": "library", "name": "Amtsbibliothek" }, "geometry": { "type": "Point", "coordinates": [ 14.4152153, 51.8578186 ] } },
{ "type": "Feature", "properties": { "osm_id": "2194076663", "code": 2007, "fclass": "library", "name": "Stadtbibliothek" }, "geometry": { "type": "Point", "coordinates": [ 12.93314, 52.3763319 ] } },
{ "type": "Feature", "properties": { "osm_id": "2206008398", "code": 2007, "fclass": "library", "name": "Stadtbibliothek" }, "geometry": { "type": "Point", "coordinates": [ 13.4282638, 51.8695422 ] } },
{ "type": "Feature", "properties": { "osm_id": "2228953526", "code": 2007, "fclass": "library", "name": "Schulbibliothek Borgsdorf" }, "geometry": { "type": "Point", "coordinates": [ 13.2697416, 52.7156662 ] } },
{ "type": "Feature", "properties": { "osm_id": "2270319509", "code": 2007, "fclass": "library", "name": "Das Buddhistische Haus" }, "geometry": { "type": "Point", "coordinates": [ 13.3029182, 52.635613 ] } },
{ "type": "Feature", "properties": { "osm_id": "2273835965", "code": 2007, "fclass": "library", "name": "Stadtbibliothek" }, "geometry": { "type": "Point", "coordinates": [ 14.1429306, 52.5025026 ] } },
{ "type": "Feature", "properties": { "osm_id": "2402339489", "code": 2007, "fclass": "library", "name": "La Rayuela" }, "geometry": { "type": "Point", "coordinates": [ 13.4056371, 52.4900049 ] } },
{ "type": "Feature", "properties": { "osm_id": "2426172541", "code": 2007, "fclass": "library", "name": "Bibliothek" }, "geometry": { "type": "Point", "coordinates": [ 12.4718024, 52.4821244 ] } },
{ "type": "Feature", "properties": { "osm_id": "2479053622", "code": 2007, "fclass": "library", "name": "Institut Français Berlin, Mediathek" }, "geometry": { "type": "Point", "coordinates": [ 13.3248746, 52.5021314 ] } },
{ "type": "Feature", "properties": { "osm_id": "2537031354", "code": 2007, "fclass": "library", "name": "Stadtbibliothek Angermünde" }, "geometry": { "type": "Point", "coordinates": [ 14.0007232, 53.0176278 ] } },
{ "type": "Feature", "properties": { "osm_id": "2571245538", "code": 2007, "fclass": "library", "name": "Stadtteilbibliothek Altglienicke im Bürgerhaus" }, "geometry": { "type": "Point", "coordinates": [ 13.5286278, 52.4033811 ] } },
{ "type": "Feature", "properties": { "osm_id": "2644700001", "code": 2007, "fclass": "library", "name": "Archiv der Jugendkulturen" }, "geometry": { "type": "Point", "coordinates": [ 13.389689, 52.4864803 ] } },
{ "type": "Feature", "properties": { "osm_id": "2684057233", "code": 2007, "fclass": "library", "name": "Anna-Ditzen-Bibliothek" }, "geometry": { "type": "Point", "coordinates": [ 13.7047745, 52.5212779 ] } },
{ "type": "Feature", "properties": { "osm_id": "2733237803", "code": 2007, "fclass": "library", "name": null }, "geometry": { "type": "Point", "coordinates": [ 13.4295908, 52.29252 ] } },
{ "type": "Feature", "properties": { "osm_id": "2755893345", "code": 2007, "fclass": "library", "name": null }, "geometry": { "type": "Point", "coordinates": [ 13.7525783, 52.5233124 ] } },
{ "type": "Feature", "properties": { "osm_id": "2777497901", "code": 2007, "fclass": "library", "name": "Patientenbibliothek" }, "geometry": { "type": "Point", "coordinates": [ 13.3766679, 52.5266936 ] } },
{ "type": "Feature", "properties": { "osm_id": "2802477601", "code": 2007, "fclass": "library", "name": "Stadtteilbibliothek" }, "geometry": { "type": "Point", "coordinates": [ 13.1780019, 52.5499724 ] } },
{ "type": "Feature", "properties": { "osm_id": "2874556070", "code": 2007, "fclass": "library", "name": "Stadtbibliothek" }, "geometry": { "type": "Point", "coordinates": [ 11.247909, 53.1406132 ] } },
{ "type": "Feature", "properties": { "osm_id": "2900627200", "code": 2007, "fclass": "library", "name": "Bibliothek Panketal" }, "geometry": { "type": "Point", "coordinates": [ 13.5263249, 52.6384606 ] } },
{ "type": "Feature", "properties": { "osm_id": "2960571181", "code": 2007, "fclass": "library", "name": null }, "geometry": { "type": "Point", "coordinates": [ 13.7276159, 52.567913 ] } },
{ "type": "Feature", "properties": { "osm_id": "2964523835", "code": 2007, "fclass": "library", "name": "Kulturpost und Bibliothek" }, "geometry": { "type": "Point", "coordinates": [ 13.3678296, 52.5871192 ] } },
{ "type": "Feature", "properties": { "osm_id": "2980280623", "code": 2007, "fclass": "library", "name": "Stadtbibliothek Biesenthal" }, "geometry": { "type": "Point", "coordinates": [ 13.6351617, 52.7664852 ] } },
{ "type": "Feature", "properties": { "osm_id": "3022333833", "code": 2007, "fclass": "library", "name": "Stadtbibliothek" }, "geometry": { "type": "Point", "coordinates": [ 13.390701, 52.871548 ] } },
{ "type": "Feature", "properties": { "osm_id": "3134930014", "code": 2007, "fclass": "library", "name": "Stadtbibliothek" }, "geometry": { "type": "Point", "coordinates": [ 12.3351755, 52.5329573 ] } },
{ "type": "Feature", "properties": { "osm_id": "3203713887", "code": 2007, "fclass": "library", "name": "kalabal!k" }, "geometry": { "type": "Point", "coordinates": [ 13.4307312, 52.4952361 ] } },
{ "type": "Feature", "properties": { "osm_id": "3267487714", "code": 2007, "fclass": "library", "name": "Bibliothek" }, "geometry": { "type": "Point", "coordinates": [ 13.4828619, 52.7909864 ] } },
{ "type": "Feature", "properties": { "osm_id": "3324127860", "code": 2007, "fclass": "library", "name": "Bibliothek Storkow" }, "geometry": { "type": "Point", "coordinates": [ 13.9335558, 52.2527663 ] } },
{ "type": "Feature", "properties": { "osm_id": "3331235138", "code": 2007, "fclass": "library", "name": "Gemeindebibliothek Prützke" }, "geometry": { "type": "Point", "coordinates": [ 12.6276611, 52.3490173 ] } },
{ "type": "Feature", "properties": { "osm_id": "3401448630", "code": 2007, "fclass": "library", "name": "„Bring Eins Nimm Eins“" }, "geometry": { "type": "Point", "coordinates": [ 13.0074673, 52.2721963 ] } },
{ "type": "Feature", "properties": { "osm_id": "3408439137", "code": 2007, "fclass": "library", "name": "Gemeindebibliothek" }, "geometry": { "type": "Point", "coordinates": [ 13.3782745, 52.6629016 ] } },
{ "type": "Feature", "properties": { "osm_id": "3428467245", "code": 2007, "fclass": "library", "name": "Universitätsarchiv" }, "geometry": { "type": "Point", "coordinates": [ 13.3587376, 52.4260423 ] } },
{ "type": "Feature", "properties": { "osm_id": "3478842465", "code": 2007, "fclass": "library", "name": "Schulbiblothek" }, "geometry": { "type": "Point", "coordinates": [ 13.3578235, 52.4943297 ] } },
{ "type": "Feature", "properties": { "osm_id": "3518345658", "code": 2007, "fclass": "library", "name": "Joseph Wulf Bibliothek" }, "geometry": { "type": "Point", "coordinates": [ 13.1656465, 52.4327843 ] } },
{ "type": "Feature", "properties": { "osm_id": "3744737308", "code": 2007, "fclass": "library", "name": "Bücherei Neulewin" }, "geometry": { "type": "Point", "coordinates": [ 14.2768437, 52.7305296 ] } },
{ "type": "Feature", "properties": { "osm_id": "3806550974", "code": 2007, "fclass": "library", "name": "Bibliothek des Deutschen Bundestages" }, "geometry": { "type": "Point", "coordinates": [ 13.3772992, 52.5202388 ] } },
{ "type": "Feature", "properties": { "osm_id": "3837620248", "code": 2007, "fclass": "library", "name": "Bibliothek Tiergarten-Süd" }, "geometry": { "type": "Point", "coordinates": [ 13.3634291, 52.5037597 ] } },
{ "type": "Feature", "properties": { "osm_id": "3861010220", "code": 2007, "fclass": "library", "name": "konte[:x]t" }, "geometry": { "type": "Point", "coordinates": [ 13.0498225, 52.4008507 ] } },
{ "type": "Feature", "properties": { "osm_id": "3880351334", "code": 2007, "fclass": "library", "name": "Bibliothek Löcknitz" }, "geometry": { "type": "Point", "coordinates": [ 14.2083392, 53.4532807 ] } },
{ "type": "Feature", "properties": { "osm_id": "3911528713", "code": 2007, "fclass": "library", "name": "Stadtbibliothek Prenzlau" }, "geometry": { "type": "Point", "coordinates": [ 13.8607096, 53.3098871 ] } },
{ "type": "Feature", "properties": { "osm_id": "3952396497", "code": 2007, "fclass": "library", "name": "Umweltbibliothek" }, "geometry": { "type": "Point", "coordinates": [ 13.2826514, 52.4921781 ] } },
{ "type": "Feature", "properties": { "osm_id": "3981795844", "code": 2007, "fclass": "library", "name": "Anna-Seghers-Bibliothek" }, "geometry": { "type": "Point", "coordinates": [ 13.5061185, 52.5649762 ] } },
{ "type": "Feature", "properties": { "osm_id": "4025920836", "code": 2007, "fclass": "library", "name": "DESY Bibliothek" }, "geometry": { "type": "Point", "coordinates": [ 13.6329787, 52.3456192 ] } },
{ "type": "Feature", "properties": { "osm_id": "4097819347", "code": 2007, "fclass": "library", "name": "Stadtbibliothek Falkensee" }, "geometry": { "type": "Point", "coordinates": [ 13.0919715, 52.5628809 ] } },
{ "type": "Feature", "properties": { "osm_id": "4114649179", "code": 2007, "fclass": "library", "name": "Bibliothek der Stiftung Topographie des Terrors" }, "geometry": { "type": "Point", "coordinates": [ 13.383896, 52.5067416 ] } },
{ "type": "Feature", "properties": { "osm_id": "4125965345", "code": 2007, "fclass": "library", "name": "Bibliothek" }, "geometry": { "type": "Point", "coordinates": [ 11.9440851, 52.9558344 ] } },
{ "type": "Feature", "properties": { "osm_id": "4155022023", "code": 2007, "fclass": "library", "name": "Erwachsenenbibliothek" }, "geometry": { "type": "Point", "coordinates": [ 13.3192634, 52.6304956 ] } },
{ "type": "Feature", "properties": { "osm_id": "4190487456", "code": 2007, "fclass": "library", "name": "Salzmann-Bibliothek" }, "geometry": { "type": "Point", "coordinates": [ 13.2324416, 53.1758322 ] } },
{ "type": "Feature", "properties": { "osm_id": "4221527005", "code": 2007, "fclass": "library", "name": "Zweigbibliothek Asien-/Afrikawissenschaften und Islamische Theologie" }, "geometry": { "type": "Point", "coordinates": [ 13.3859469, 52.5305537 ] } },
{ "type": "Feature", "properties": { "osm_id": "4271022996", "code": 2007, "fclass": "library", "name": "Stadtteilbibliothek Kladow" }, "geometry": { "type": "Point", "coordinates": [ 13.1429895, 52.453258 ] } },
{ "type": "Feature", "properties": { "osm_id": "4341468970", "code": 2007, "fclass": "library", "name": "Stadtbibliothek" }, "geometry": { "type": "Point", "coordinates": [ 13.5082443, 53.1217003 ] } },
{ "type": "Feature", "properties": { "osm_id": "4355517298", "code": 2007, "fclass": "library", "name": "Gemeindebibliothek" }, "geometry": { "type": "Point", "coordinates": [ 14.0189577, 51.6510076 ] } },
{ "type": "Feature", "properties": { "osm_id": "4363055573", "code": 2007, "fclass": "library", "name": "Bibliothek" }, "geometry": { "type": "Point", "coordinates": [ 13.7492398, 53.1705401 ] } },
{ "type": "Feature", "properties": { "osm_id": "4432723694", "code": 2007, "fclass": "library", "name": "Bibliothek Am Wasserturm" }, "geometry": { "type": "Point", "coordinates": [ 13.419505, 52.5331584 ] } },
{ "type": "Feature", "properties": { "osm_id": "4706616647", "code": 2007, "fclass": "library", "name": "Bibliothek" }, "geometry": { "type": "Point", "coordinates": [ 13.5189284, 52.4525785 ] } },
{ "type": "Feature", "properties": { "osm_id": "4805428213", "code": 2007, "fclass": "library", "name": "Medienforum Berlin" }, "geometry": { "type": "Point", "coordinates": [ 13.3308065, 52.5222118 ] } },
{ "type": "Feature", "properties": { "osm_id": "4806499594", "code": 2007, "fclass": "library", "name": "Hansabibliothek" }, "geometry": { "type": "Point", "coordinates": [ 13.3427522, 52.5170943 ] } },
{ "type": "Feature", "properties": { "osm_id": "4878247166", "code": 2007, "fclass": "library", "name": "Ortsteilbibliothek" }, "geometry": { "type": "Point", "coordinates": [ 13.5745794, 52.5757651 ] } },
{ "type": "Feature", "properties": { "osm_id": "4986866859", "code": 2007, "fclass": "library", "name": "Bibliothek der Fachhochschule für Finanzen" }, "geometry": { "type": "Point", "coordinates": [ 13.6139471, 52.2926751 ] } },
{ "type": "Feature", "properties": { "osm_id": "5000688668", "code": 2007, "fclass": "library", "name": "Theodor-Fontane-Archiv" }, "geometry": { "type": "Point", "coordinates": [ 13.0633463, 52.4175371 ] } },
{ "type": "Feature", "properties": { "osm_id": "5062614778", "code": 2007, "fclass": "library", "name": null }, "geometry": { "type": "Point", "coordinates": [ 13.3638336, 52.521758 ] } },
{ "type": "Feature", "properties": { "osm_id": "5245440325", "code": 2007, "fclass": "library", "name": "Zweigbibliothek Musikwissenschaft" }, "geometry": { "type": "Point", "coordinates": [ 13.395109, 52.5203781 ] } },
{ "type": "Feature", "properties": { "osm_id": "5275440213", "code": 2007, "fclass": "library", "name": "Peter-Weiss-Bibliothek" }, "geometry": { "type": "Point", "coordinates": [ 13.6068282, 52.5416071 ] } },
{ "type": "Feature", "properties": { "osm_id": "5318467222", "code": 2007, "fclass": "library", "name": "Bibliothek im Märkischen Viertel" }, "geometry": { "type": "Point", "coordinates": [ 13.3523189, 52.5976675 ] } },
{ "type": "Feature", "properties": { "osm_id": "5387265585", "code": 2007, "fclass": "library", "name": "Kreisbibliothek des Landkreises Spree-Neiße" }, "geometry": { "type": "Point", "coordinates": [ 14.3839581, 51.5705407 ] } },
{ "type": "Feature", "properties": { "osm_id": "5533888846", "code": 2007, "fclass": "library", "name": "Charité Medizinische Bibliothek Campus Mitte" }, "geometry": { "type": "Point", "coordinates": [ 13.3801597, 52.5261622 ] } },
{ "type": "Feature", "properties": { "osm_id": "5643477411", "code": 2007, "fclass": "library", "name": "Stadtteilbibliothek Frohnau" }, "geometry": { "type": "Point", "coordinates": [ 13.295141, 52.63544 ] } },
{ "type": "Feature", "properties": { "osm_id": "5735063971", "code": 2007, "fclass": "library", "name": "Kurt-Tucholsky-Bibliothek" }, "geometry": { "type": "Point", "coordinates": [ 13.3262022, 52.531583 ] } },
{ "type": "Feature", "properties": { "osm_id": "5754108264", "code": 2007, "fclass": "library", "name": "Stadtbibliothek" }, "geometry": { "type": "Point", "coordinates": [ 13.1441693, 53.1856952 ] } },
{ "type": "Feature", "properties": { "osm_id": "5776581362", "code": 2007, "fclass": "library", "name": "Gemeindebibliothek Dallgow-Döberitz" }, "geometry": { "type": "Point", "coordinates": [ 13.0586234, 52.5434001 ] } },
{ "type": "Feature", "properties": { "osm_id": "5798364681", "code": 2007, "fclass": "library", "name": "Stadtteilbibliothek Haselhorst" }, "geometry": { "type": "Point", "coordinates": [ 13.2390484, 52.5429259 ] } },
{ "type": "Feature", "properties": { "osm_id": "5838369566", "code": 2007, "fclass": "library", "name": "Patientenbibliothek" }, "geometry": { "type": "Point", "coordinates": [ 13.347826, 52.4602755 ] } },
{ "type": "Feature", "properties": { "osm_id": "5892784984", "code": 2007, "fclass": "library", "name": "Bibliothek" }, "geometry": { "type": "Point", "coordinates": [ 13.2741894, 52.3388643 ] } },
{ "type": "Feature", "properties": { "osm_id": "5977960159", "code": 2007, "fclass": "library", "name": "Bücherstube" }, "geometry": { "type": "Point", "coordinates": [ 13.4273818, 52.4769397 ] } },
{ "type": "Feature", "properties": { "osm_id": "6030565458", "code": 2007, "fclass": "library", "name": null }, "geometry": { "type": "Point", "coordinates": [ 13.9537659, 51.7440756 ] } },
{ "type": "Feature", "properties": { "osm_id": "6046124564", "code": 2007, "fclass": "library", "name": "Zweigbibliothek Germanistik" }, "geometry": { "type": "Point", "coordinates": [ 13.3927337, 52.520016 ] } },
{ "type": "Feature", "properties": { "osm_id": "6052217071", "code": 2007, "fclass": "library", "name": "Teilbibliothek im Forschungsinstitut für Nachhaltigkeit" }, "geometry": { "type": "Point", "coordinates": [ 13.0729761, 52.4069846 ] } },
{ "type": "Feature", "properties": { "osm_id": "6052217072", "code": 2007, "fclass": "library", "name": "Teilbibliothek im Alfred-Wegener-Institut Helmholtz-Zentrum für Polar- und Meeresforschung" }, "geometry": { "type": "Point", "coordinates": [ 13.0661926, 52.3808297 ] } },
{ "type": "Feature", "properties": { "osm_id": "6052217073", "code": 2007, "fclass": "library", "name": "Teilbibliothek Potsdam-Institut für Klimafolgenforschung" }, "geometry": { "type": "Point", "coordinates": [ 13.0645975, 52.3806258 ] } },
{ "type": "Feature", "properties": { "osm_id": "6052217074", "code": 2007, "fclass": "library", "name": "Bibliothek des Wissenschaftsparks Albert Einstein" }, "geometry": { "type": "Point", "coordinates": [ 13.0660298, 52.3793668 ] } },
{ "type": "Feature", "properties": { "osm_id": "6105249560", "code": 2007, "fclass": "library", "name": "Fachbibliothek Potsdam Museum" }, "geometry": { "type": "Point", "coordinates": [ 13.062282, 52.395876 ] } },
{ "type": "Feature", "properties": { "osm_id": "6128611760", "code": 2007, "fclass": "library", "name": "Zentrum für Zeithistorische Forschung" }, "geometry": { "type": "Point", "coordinates": [ 13.0559233, 52.3967139 ] } },
{ "type": "Feature", "properties": { "osm_id": "6190432047", "code": 2007, "fclass": "library", "name": "Fachbibliothek Naturkundemuseum Potsdam" }, "geometry": { "type": "Point", "coordinates": [ 13.0509277, 52.3959553 ] } },
{ "type": "Feature", "properties": { "osm_id": "6275993185", "code": 2007, "fclass": "library", "name": "Mathematische Fachbibliothek" }, "geometry": { "type": "Point", "coordinates": [ 13.3251316, 52.5140827 ] } },
{ "type": "Feature", "properties": { "osm_id": "6418982108", "code": 2007, "fclass": "library", "name": "Stadtbibliothek Zossen - Standort Wünsdorf" }, "geometry": { "type": "Point", "coordinates": [ 13.4759096, 52.1641888 ] } },
{ "type": "Feature", "properties": { "osm_id": "6467531739", "code": 2007, "fclass": "library", "name": "Bibliothek Beeskow" }, "geometry": { "type": "Point", "coordinates": [ 14.2481652, 52.1732581 ] } },
{ "type": "Feature", "properties": { "osm_id": "6508696687", "code": 2007, "fclass": "library", "name": "ESCP Bibliothek am Campus Berlin" }, "geometry": { "type": "Point", "coordinates": [ 13.2890223, 52.5242453 ] } },
{ "type": "Feature", "properties": { "osm_id": "6720863485", "code": 2007, "fclass": "library", "name": "Bibliothek Rechtswissenschaft" }, "geometry": { "type": "Point", "coordinates": [ 13.2813366, 52.4478314 ] } },
{ "type": "Feature", "properties": { "osm_id": "6735536189", "code": 2007, "fclass": "library", "name": "Gemeindebibliothek Rehfelde" }, "geometry": { "type": "Point", "coordinates": [ 13.9243545, 52.5279156 ] } },
{ "type": "Feature", "properties": { "osm_id": "6801368494", "code": 2007, "fclass": "library", "name": "Stadtbibliothek Kyritz" }, "geometry": { "type": "Point", "coordinates": [ 12.3968451, 52.9423174 ] } },
{ "type": "Feature", "properties": { "osm_id": "6880841994", "code": 2007, "fclass": "library", "name": "ICI Berlin" }, "geometry": { "type": "Point", "coordinates": [ 13.4107782, 52.5321836 ] } },
{ "type": "Feature", "properties": { "osm_id": "6976235391", "code": 2007, "fclass": "library", "name": "Bildagentur für Kunst, Kultur und Geschichte" }, "geometry": { "type": "Point", "coordinates": [ 13.4103123, 52.5128877 ] } },
{ "type": "Feature", "properties": { "osm_id": "7059503759", "code": 2007, "fclass": "library", "name": "Heinrich-Mann-Bibliothek / Zweigbibliothek" }, "geometry": { "type": "Point", "coordinates": [ 13.8636891, 52.5473409 ] } },
{ "type": "Feature", "properties": { "osm_id": "7167664922", "code": 2007, "fclass": "library", "name": null }, "geometry": { "type": "Point", "coordinates": [ 13.4729009, 52.7548949 ] } },
{ "type": "Feature", "properties": { "osm_id": "7232178641", "code": 2007, "fclass": "library", "name": "Teilbibliothek Japanologie" }, "geometry": { "type": "Point", "coordinates": [ 13.3920937, 52.5246239 ] } },
{ "type": "Feature", "properties": { "osm_id": "7428921418", "code": 2007, "fclass": "library", "name": null }, "geometry": { "type": "Point", "coordinates": [ 12.8927597, 53.1036084 ] } },
{ "type": "Feature", "properties": { "osm_id": "7699469604", "code": 2007, "fclass": "library", "name": "Centre of Study" }, "geometry": { "type": "Point", "coordinates": [ 12.4461269, 52.1311477 ] } },
{ "type": "Feature", "properties": { "osm_id": "7699469605", "code": 2007, "fclass": "library", "name": "Centre of Work" }, "geometry": { "type": "Point", "coordinates": [ 12.4459219, 52.1310643 ] } },
{ "type": "Feature", "properties": { "osm_id": "7706313760", "code": 2007, "fclass": "library", "name": "Stadtbibliothek" }, "geometry": { "type": "Point", "coordinates": [ 13.898811, 51.9400127 ] } },
{ "type": "Feature", "properties": { "osm_id": "7707309582", "code": 2007, "fclass": "library", "name": "Brandenburgisches Landeshauptarchiv, Bibliothek" }, "geometry": { "type": "Point", "coordinates": [ 12.9705597, 52.4137831 ] } },
{ "type": "Feature", "properties": { "osm_id": "7708040982", "code": 2007, "fclass": "library", "name": null }, "geometry": { "type": "Point", "coordinates": [ 12.7662501, 52.8151062 ] } },
{ "type": "Feature", "properties": { "osm_id": "7719566328", "code": 2007, "fclass": "library", "name": null }, "geometry": { "type": "Point", "coordinates": [ 12.5822347, 52.7410531 ] } },
{ "type": "Feature", "properties": { "osm_id": "7798570856", "code": 2007, "fclass": "library", "name": "Bibliothek der Jüdischen Gemeinde" }, "geometry": { "type": "Point", "coordinates": [ 13.3283687, 52.5043465 ] } },
{ "type": "Feature", "properties": { "osm_id": "7800483385", "code": 2007, "fclass": "library", "name": "Stadtbibliothek Kremmen" }, "geometry": { "type": "Point", "coordinates": [ 13.0243163, 52.7601314 ] } },
{ "type": "Feature", "properties": { "osm_id": "7903018142", "code": 2007, "fclass": "library", "name": "Stadtbibliothek Potsdam" }, "geometry": { "type": "Point", "coordinates": [ 12.84121, 52.4775906 ] } },
{ "type": "Feature", "properties": { "osm_id": "8097837782", "code": 2007, "fclass": "library", "name": "Katholische öffentliche Bücherei" }, "geometry": { "type": "Point", "coordinates": [ 13.3980521, 52.3859756 ] } },
{ "type": "Feature", "properties": { "osm_id": "8151138614", "code": 2007, "fclass": "library", "name": "Stadtteilbibliothek Kaulsdorf" }, "geometry": { "type": "Point", "coordinates": [ 13.5928919, 52.5293637 ] } },
{ "type": "Feature", "properties": { "osm_id": "8225431346", "code": 2007, "fclass": "library", "name": null }, "geometry": { "type": "Point", "coordinates": [ 12.4534119, 52.1130357 ] } },
{ "type": "Feature", "properties": { "osm_id": "8387712725", "code": 2007, "fclass": "library", "name": "Zweigbibliothek Zeesen" }, "geometry": { "type": "Point", "coordinates": [ 13.6337019, 52.2709299 ] } },
{ "type": "Feature", "properties": { "osm_id": "8435515108", "code": 2007, "fclass": "library", "name": "Stadtteilbibliothek Heerstraße" }, "geometry": { "type": "Point", "coordinates": [ 13.1654101, 52.5224043 ] } },
{ "type": "Feature", "properties": { "osm_id": "8497814228", "code": 2007, "fclass": "library", "name": "Stadtbibliothek Senftenberg" }, "geometry": { "type": "Point", "coordinates": [ 13.9980928, 51.5249681 ] } },
{ "type": "Feature", "properties": { "osm_id": "8939226186", "code": 2007, "fclass": "library", "name": "Stadtarchiv Frankfurt (Oder)" }, "geometry": { "type": "Point", "coordinates": [ 14.548872, 52.3469412 ] } },
{ "type": "Feature", "properties": { "osm_id": "8958064954", "code": 2007, "fclass": "library", "name": null }, "geometry": { "type": "Point", "coordinates": [ 13.5517424, 51.4969793 ] } },
{ "type": "Feature", "properties": { "osm_id": "9067856748", "code": 2007, "fclass": "library", "name": "Stefan-Heym-Kinderbibliothek" }, "geometry": { "type": "Point", "coordinates": [ 13.5496155, 52.4385838 ] } },
{ "type": "Feature", "properties": { "osm_id": "9077951933", "code": 2007, "fclass": "library", "name": "Gertrud-Junge-Bibliothek" }, "geometry": { "type": "Point", "coordinates": [ 13.4620726, 52.425675 ] } },
{ "type": "Feature", "properties": { "osm_id": "9152059972", "code": 2007, "fclass": "library", "name": null }, "geometry": { "type": "Point", "coordinates": [ 13.6001931, 51.9710798 ] } },
{ "type": "Feature", "properties": { "osm_id": "9347421347", "code": 2007, "fclass": "library", "name": "Gertrud-Haß-Bibliothek" }, "geometry": { "type": "Point", "coordinates": [ 13.4943156, 52.4189356 ] } },
{ "type": "Feature", "properties": { "osm_id": "9481986710", "code": 2007, "fclass": "library", "name": "Gemeindebibliothek" }, "geometry": { "type": "Point", "coordinates": [ 13.1026797, 52.3496628 ] } },
{ "type": "Feature", "properties": { "osm_id": "9780942686", "code": 2007, "fclass": "library", "name": "Kollektivbibliothek" }, "geometry": { "type": "Point", "coordinates": [ 13.4230798, 52.5037159 ] } },
{ "type": "Feature", "properties": { "osm_id": "10130653475", "code": 2007, "fclass": "library", "name": null }, "geometry": { "type": "Point", "coordinates": [ 13.0638326, 52.329779 ] } },
{ "type": "Feature", "properties": { "osm_id": "10197004045", "code": 2007, "fclass": "library", "name": "Bereichsbibliothek Architektur und Kunstwissenschaft" }, "geometry": { "type": "Point", "coordinates": [ 13.3240024, 52.5133684 ] } },
{ "type": "Feature", "properties": { "osm_id": "10649869898", "code": 2007, "fclass": "library", "name": "Bibliothek Leegebruch" }, "geometry": { "type": "Point", "coordinates": [ 13.1936188, 52.725361 ] } },
{ "type": "Feature", "properties": { "osm_id": "10864307445", "code": 2007, "fclass": "library", "name": "Stadtbibliothek" }, "geometry": { "type": "Point", "coordinates": [ 13.3171765, 52.6686801 ] } },
{ "type": "Feature", "properties": { "osm_id": "11023024394", "code": 2007, "fclass": "library", "name": "Stadtbibliothek" }, "geometry": { "type": "Point", "coordinates": [ 13.2456051, 51.5848955 ] } },
{ "type": "Feature", "properties": { "osm_id": "11176900860", "code": 2007, "fclass": "library", "name": "Bibliothek Brück" }, "geometry": { "type": "Point", "coordinates": [ 12.7624505, 52.1948467 ] } },
{ "type": "Feature", "properties": { "osm_id": "11309948213", "code": 2007, "fclass": "library", "name": "Bereichsbibliothek Physik" }, "geometry": { "type": "Point", "coordinates": [ 13.3240187, 52.5109671 ] } },
{ "type": "Feature", "properties": { "osm_id": "11329035832", "code": 2007, "fclass": "library", "name": null }, "geometry": { "type": "Point", "coordinates": [ 13.2601225, 52.6767954 ] } },
{ "type": "Feature", "properties": { "osm_id": "11378080719", "code": 2007, "fclass": "library", "name": "Stadtbibliothek" }, "geometry": { "type": "Point", "coordinates": [ 14.127748, 53.3982024 ] } },
{ "type": "Feature", "properties": { "osm_id": "11438445455", "code": 2007, "fclass": "library", "name": "Gemeindebibliothek" }, "geometry": { "type": "Point", "coordinates": [ 13.918041, 52.3982884 ] } },
{ "type": "Feature", "properties": { "osm_id": "11446515471", "code": 2007, "fclass": "library", "name": "BIbliothek des Schiller-Gymnasiums" }, "geometry": { "type": "Point", "coordinates": [ 13.3212359, 52.5104545 ] } },
{ "type": "Feature", "properties": { "osm_id": "11585204402", "code": 2007, "fclass": "library", "name": "WiKo Bibliothek" }, "geometry": { "type": "Point", "coordinates": [ 13.1967881, 52.5698457 ] } },
{ "type": "Feature", "properties": { "osm_id": "11753296446", "code": 2007, "fclass": "library", "name": "Bücher & mehr" }, "geometry": { "type": "Point", "coordinates": [ 14.0047566, 52.215356 ] } },
{ "type": "Feature", "properties": { "osm_id": "11776516127", "code": 2007, "fclass": "library", "name": "Stadtbibliothek" }, "geometry": { "type": "Point", "coordinates": [ 14.3939041, 53.2099047 ] } },
{ "type": "Feature", "properties": { "osm_id": "11778098531", "code": 2007, "fclass": "library", "name": "Stefan-Heym-Erwachsenenbibliothek" }, "geometry": { "type": "Point", "coordinates": [ 13.5497223, 52.4388718 ] } },
{ "type": "Feature", "properties": { "osm_id": "11805773403", "code": 2007, "fclass": "library", "name": "HWR Bibliothek Campus Lichtenberg" }, "geometry": { "type": "Point", "coordinates": [ 13.526379, 52.5079479 ] } },
{ "type": "Feature", "properties": { "osm_id": "11849853004", "code": 2007, "fclass": "library", "name": "Bibliothek Brieselang" }, "geometry": { "type": "Point", "coordinates": [ 12.9987934, 52.5807729 ] } },
{ "type": "Feature", "properties": { "osm_id": "11929111653", "code": 2007, "fclass": "library", "name": null }, "geometry": { "type": "Point", "coordinates": [ 13.3996858, 52.5114995 ] } },
{ "type": "Feature", "properties": { "osm_id": "12049165146", "code": 2007, "fclass": "library", "name": "Bibliothek im Kontor" }, "geometry": { "type": "Point", "coordinates": [ 12.4837228, 53.1639179 ] } },
{ "type": "Feature", "properties": { "osm_id": "12107081981", "code": 2007, "fclass": "library", "name": "Stadtbibliothek" }, "geometry": { "type": "Point", "coordinates": [ 13.3010153, 51.5948682 ] } },
{ "type": "Feature", "properties": { "osm_id": "12117400584", "code": 2007, "fclass": "library", "name": "Bibliothek in der alten Scheune" }, "geometry": { "type": "Point", "coordinates": [ 13.5920249, 52.7281537 ] } },
{ "type": "Feature", "properties": { "osm_id": "12160416171", "code": 2007, "fclass": "library", "name": "Zentralbibliothek der Freien Universität Berlin" }, "geometry": { "type": "Point", "coordinates": [ 13.2777683, 52.4481214 ] } },
{ "type": "Feature", "properties": { "osm_id": "12497574964", "code": 2007, "fclass": "library", "name": "Fahrbibliothek Oder-Spree - Mixdorf" }, "geometry": { "type": "Point", "coordinates": [ 14.4055465, 52.1951257 ] } },
{ "type": "Feature", "properties": { "osm_id": "12497576890", "code": 2007, "fclass": "library", "name": "Fahrbibliothek Oder-Spree - Fünfeichen" }, "geometry": { "type": "Point", "coordinates": [ 14.5283449, 52.1412988 ] } },
{ "type": "Feature", "properties": { "osm_id": "12497576891", "code": 2007, "fclass": "library", "name": "Fahrbibliothek Oder-Spree - Fünfeichen Grundschule" }, "geometry": { "type": "Point", "coordinates": [ 14.5283471, 52.1408069 ] } },
{ "type": "Feature", "properties": { "osm_id": "12497583825", "code": 2007, "fclass": "library", "name": "Fahrbibliothek Oder-Spree - Bremsdorf" }, "geometry": { "type": "Point", "coordinates": [ 14.494675, 52.1391616 ] } },
{ "type": "Feature", "properties": { "osm_id": "12497591681", "code": 2007, "fclass": "library", "name": "Fahrbibliothek Oder-Spree - Krügersdorf" }, "geometry": { "type": "Point", "coordinates": [ 14.3171595, 52.1545684 ] } },
{ "type": "Feature", "properties": { "osm_id": "12497591682", "code": 2007, "fclass": "library", "name": "Fahrbibliothek Oder-Spree - Langewahl" }, "geometry": { "type": "Point", "coordinates": [ 14.1038024, 52.3281421 ] } },
{ "type": "Feature", "properties": { "osm_id": "12497594026", "code": 2007, "fclass": "library", "name": "Fahrbibliothek Oder-Spree - Breslack" }, "geometry": { "type": "Point", "coordinates": [ 14.7211967, 52.0338845 ] } },
{ "type": "Feature", "properties": { "osm_id": "12497594632", "code": 2007, "fclass": "library", "name": "Fahrbibliothek Oder-Spree - Neuzelle Grundschule" }, "geometry": { "type": "Point", "coordinates": [ 14.6536426, 52.0878824 ] } },
{ "type": "Feature", "properties": { "osm_id": "12497597803", "code": 2007, "fclass": "library", "name": "Fahrbibliothek Oder-Spree - Brieskow-Finkenheerd" }, "geometry": { "type": "Point", "coordinates": [ 14.5724158, 52.2546706 ] } },
{ "type": "Feature", "properties": { "osm_id": "12497598242", "code": 2007, "fclass": "library", "name": "Fahrbibliothek Oder-Spree, Biegen" }, "geometry": { "type": "Point", "coordinates": [ 14.3656863, 52.3102729 ] } },
{ "type": "Feature", "properties": { "osm_id": "12497600857", "code": 2007, "fclass": "library", "name": "Fahrbibliothek Oder-Spree - Pillgram" }, "geometry": { "type": "Point", "coordinates": [ 14.3931931, 52.3303936 ] } },
{ "type": "Feature", "properties": { "osm_id": "12497612210", "code": 2007, "fclass": "library", "name": "Fahrbibliothek Oder-Spree - Jacobsdorf" }, "geometry": { "type": "Point", "coordinates": [ 14.3530636, 52.336953 ] } },
{ "type": "Feature", "properties": { "osm_id": "12497619140", "code": 2007, "fclass": "library", "name": "Fahrbibliothek Oder-Spree - Kieselwitz" }, "geometry": { "type": "Point", "coordinates": [ 14.5012654, 52.1105756 ] } },
{ "type": "Feature", "properties": { "osm_id": "12497619142", "code": 2007, "fclass": "library", "name": "Fahrbibliothek Oder-Spree - Pohlitz" }, "geometry": { "type": "Point", "coordinates": [ 14.5781307, 52.1837371 ] } },
{ "type": "Feature", "properties": { "osm_id": "12497619521", "code": 2007, "fclass": "library", "name": "Fahrbibliothek Oder-Spree - Müllrose" }, "geometry": { "type": "Point", "coordinates": [ 14.4128904, 52.2412343 ] } },
{ "type": "Feature", "properties": { "osm_id": "12497622557", "code": 2007, "fclass": "library", "name": "Fahrbibliothek Oder-Spree - Neubrück" }, "geometry": { "type": "Point", "coordinates": [ 14.2747718, 52.2722802 ] } },
{ "type": "Feature", "properties": { "osm_id": "12497627597", "code": 2007, "fclass": "library", "name": "Fahrbibliothek Oder-Spree - Möbiskruge" }, "geometry": { "type": "Point", "coordinates": [ 14.5928585, 52.102167 ] } },
{ "type": "Feature", "properties": { "osm_id": "12497630836", "code": 2007, "fclass": "library", "name": "Fahrbibliothek Oder-Spree - Ratzdorf" }, "geometry": { "type": "Point", "coordinates": [ 14.7499223, 52.0682797 ] } },
{ "type": "Feature", "properties": { "osm_id": "12497632313", "code": 2007, "fclass": "library", "name": "Fahrbibliothek Oder-Spree - Rießen" }, "geometry": { "type": "Point", "coordinates": [ 14.5319496, 52.1896897 ] } },
{ "type": "Feature", "properties": { "osm_id": "12497863698", "code": 2007, "fclass": "library", "name": "Fahrbibliothek Oder-Spree - Ziltendorf Grundschule" }, "geometry": { "type": "Point", "coordinates": [ 14.6283836, 52.2021907 ] } },
{ "type": "Feature", "properties": { "osm_id": "12497926667", "code": 2007, "fclass": "library", "name": "Fahrbibliothek Oder-Spree - Schernsdorf" }, "geometry": { "type": "Point", "coordinates": [ 14.4651577, 52.1886865 ] } },
{ "type": "Feature", "properties": { "osm_id": "12497926675", "code": 2007, "fclass": "library", "name": "Fahrbibliothek Oder-Spree - Treppeln" }, "geometry": { "type": "Point", "coordinates": [ 14.5452172, 52.0799063 ] } },
{ "type": "Feature", "properties": { "osm_id": "12497973052", "code": 2007, "fclass": "library", "name": "Fahrbibliothek Oder-Spree - Steinsdorf" }, "geometry": { "type": "Point", "coordinates": [ 14.6720557, 52.0279827 ] } },
{ "type": "Feature", "properties": { "osm_id": "12497973970", "code": 2007, "fclass": "library", "name": "Fahrbibliothek Oder-Spree  -Wellmitz" }, "geometry": { "type": "Point", "coordinates": [ 14.7033253, 52.0642315 ] } },
{ "type": "Feature", "properties": { "osm_id": "12497993223", "code": 2007, "fclass": "library", "name": "Fahrbibliothek Oder-Spree - Vogelsang" }, "geometry": { "type": "Point", "coordinates": [ 14.6692777, 52.1800581 ] } },
{ "type": "Feature", "properties": { "osm_id": "12942410449", "code": 2007, "fclass": "library", "name": "Patentenbibilothek" }, "geometry": { "type": "Point", "coordinates": [ 13.3766422, 52.526706 ] } },
{ "type": "Feature", "properties": { "osm_id": "13092504040", "code": 2007, "fclass": "library", "name": "Stadtbibliothek Velten" }, "geometry": { "type": "Point", "coordinates": [ 13.1775596, 52.689147 ] } },
{ "type": "Feature", "properties": { "osm_id": "13134668177", "code": 2007, "fclass": "library", "name": "Bibliothek  Heinersdorf" }, "geometry": { "type": "Point", "coordinates": [ 14.217369, 52.4582367 ] } },
{ "type": "Feature", "properties": { "osm_id": "13174963364", "code": 2007, "fclass": "library", "name": "Bücherstube Döbbrick" }, "geometry": { "type": "Point", "coordinates": [ 14.3408159, 51.8200493 ] } },
{ "type": "Feature", "properties": { "osm_id": "13203279187", "code": 2007, "fclass": "library", "name": "Standortbibliothek (Gebäude 3)" }, "geometry": { "type": "Point", "coordinates": [ 13.9873536, 51.5219863 ] } },
{ "type": "Feature", "properties": { "osm_id": "13233046383", "code": 2007, "fclass": "library", "name": "Bibliothek des Konservatismus" }, "geometry": { "type": "Point", "coordinates": [ 13.3278048, 52.5073595 ] } },
{ "type": "Feature", "properties": { "osm_id": "13256958201", "code": 2007, "fclass": "library", "name": "BoB: Studierenden Zentrum" }, "geometry": { "type": "Point", "coordinates": [ 13.2951852, 52.456514 ] } },
{ "type": "Feature", "properties": { "osm_id": "13301410694", "code": 2007, "fclass": "library", "name": "Bibliothek des Deutschen Zentralinstituts für Soziale Fragen" }, "geometry": { "type": "Point", "coordinates": [ 13.2924086, 52.4653361 ] } },
{ "type": "Feature", "properties": { "osm_id": "13308471228", "code": 2007, "fclass": "library", "name": "Totschka" }, "geometry": { "type": "Point", "coordinates": [ 13.4211366, 52.5353953 ] } },
{ "type": "Feature", "properties": { "osm_id": "13366816284", "code": 2007, "fclass": "library", "name": "Ilse-Hinze-Bücherei" }, "geometry": { "type": "Point", "coordinates": [ 13.2483155, 52.6099589 ] } }
]
}
