{
"type": "FeatureCollection",
"name": "schools",
"crs": { "type": "name", "properties": { "name": "urn:ogc:def:crs:OGC:1.3:CRS84" } },
"features": [
{ "type": "Feature", "properties": { "osm_id": "237838613", "code": 2082, "fclass": "school", "name": "Rückert-Gymnasium" }, "geometry": { "type": "Point", "coordinates": [ 13.3384592, 52.4799688 ] } },
{ "type": "Feature", "properties": { "osm_id": "244386768", "code": 2082, "fclass": "school", "name": "Grundschule Sonnewalde" }, "geometry": { "type": "Point", "coordinates": [ 13.6499508, 51.6949761 ] } },
{ "type": "Feature", "properties": { "osm_id": "253994653", "code": 2082, "fclass": "school", "name": "Havelschule" }, "geometry": { "type": "Point", "coordinates": [ 13.2415476, 52.7488565 ] } },
{ "type": "Feature", "properties": { "osm_id": "256912446", "code": 2082, "fclass": "school", "name": "Erwin von Witzleben Grundschule" }, "geometry": { "type": "Point", "coordinates": [ 13.2880437, 52.5394411 ] } },
{ "type": "Feature", "properties": { "osm_id": "256913234", "code": 2082, "fclass": "school", "name": "Sportschule im Olympiapark - Poelchau-Schule" }, "geometry": { "type": "Point", "coordinates": [ 13.2416342, 52.521142 ] } },
{ "type": "Feature", "properties": { "osm_id": "256913872", "code": 2082, "fclass": "school", "name": "Anna Freud Schule" }, "geometry": { "type": "Point", "coordinates": [ 13.2883255, 52.5376587 ] } },
{ "type": "Feature", "properties": { "osm_id": "260656538", "code": 2082, "fclass": "school", "name": "Grundschule am See" }, "geometry": { "type": "Point", "coordinates": [ 13.9979579, 51.5133997 ] } },
{ "type": "Feature", "properties": { "osm_id": "263055655", "code": 2082, "fclass": "school", "name": "Förderschule" }, "geometry": { "type": "Point", "coordinates": [ 13.7484636, 52.437435 ] } },
{ "type": "Feature", "properties": { "osm_id": "263925376", "code": 2082, "fclass": "school", "name": "Grundschule Zernsdorf" }, "geometry": { "type": "Point", "coordinates": [ 13.6992488, 52.303291 ] } },
{ "type": "Feature", "properties": { "osm_id": "267520954", "code": 2082, "fclass": "school", "name": "Grundschule Am Stienitzsee" }, "geometry": { "type": "Point", "coordinates": [ 13.8460119, 52.5083185 ] } },
{ "type": "Feature", "properties": { "osm_id": "268592695", "code": 2082, "fclass": "school", "name": "Private Gesamtschule Petershagen (FAWZ)" }, "geometry": { "type": "Point", "coordinates": [ 13.7858265, 52.5272891 ] } },
{ "type": "Feature", "properties": { "osm_id": "268915174", "code": 2082, "fclass": "school", "name": "ABC-Kindergarten - Sabine Erdmann Vorschule" }, "geometry": { "type": "Point", "coordinates": [ 13.3019467, 52.4978346 ] } },
{ "type": "Feature", "properties": { "osm_id": "268915405", "code": 2082, "fclass": "school", "name": "Freie Schule in Berlin" }, "geometry": { "type": "Point", "coordinates": [ 13.3814584, 52.4545448 ] } },
{ "type": "Feature", "properties": { "osm_id": "273110233", "code": 2082, "fclass": "school", "name": "Grundschule" }, "geometry": { "type": "Point", "coordinates": [ 13.4666585, 52.7473688 ] } },
{ "type": "Feature", "properties": { "osm_id": "298750707", "code": 2082, "fclass": "school", "name": "Evangelische Schule Spandau" }, "geometry": { "type": "Point", "coordinates": [ 13.199678, 52.5721259 ] } },
{ "type": "Feature", "properties": { "osm_id": "337530814", "code": 2082, "fclass": "school", "name": "Friedrich Gymnasium" }, "geometry": { "type": "Point", "coordinates": [ 13.175209, 52.0843653 ] } },
{ "type": "Feature", "properties": { "osm_id": "340239440", "code": 2082, "fclass": "school", "name": "Sternberg Grundschule" }, "geometry": { "type": "Point", "coordinates": [ 13.3390601, 52.4803608 ] } },
{ "type": "Feature", "properties": { "osm_id": "345675209", "code": 2082, "fclass": "school", "name": "Hort und Schulküche/Cafeteria Löcknitz" }, "geometry": { "type": "Point", "coordinates": [ 14.2166771, 53.4488697 ] } },
{ "type": "Feature", "properties": { "osm_id": "348139246", "code": 2082, "fclass": "school", "name": "Wiesenschule" }, "geometry": { "type": "Point", "coordinates": [ 13.0724338, 51.9942965 ] } },
{ "type": "Feature", "properties": { "osm_id": "348139828", "code": 2082, "fclass": "school", "name": "Pestalozzischule (Allg. Förderschule)" }, "geometry": { "type": "Point", "coordinates": [ 13.0839965, 51.9896303 ] } },
{ "type": "Feature", "properties": { "osm_id": "355515254", "code": 2082, "fclass": "school", "name": "Förderschule für Geistigbehinderte" }, "geometry": { "type": "Point", "coordinates": [ 13.1131202, 51.9726856 ] } },
{ "type": "Feature", "properties": { "osm_id": "360713397", "code": 2082, "fclass": "school", "name": "Peter-Petersen-Schule" }, "geometry": { "type": "Point", "coordinates": [ 13.4357615, 52.4717574 ] } },
{ "type": "Feature", "properties": { "osm_id": "360713401", "code": 2082, "fclass": "school", "name": "Konrad-Agahd-Grundschule" }, "geometry": { "type": "Point", "coordinates": [ 13.4354917, 52.4725928 ] } },
{ "type": "Feature", "properties": { "osm_id": "372966336", "code": 2082, "fclass": "school", "name": "Paul-Noack-Schule" }, "geometry": { "type": "Point", "coordinates": [ 13.8987569, 51.5181106 ] } },
{ "type": "Feature", "properties": { "osm_id": "411045183", "code": 2082, "fclass": "school", "name": "LSTE" }, "geometry": { "type": "Point", "coordinates": [ 14.6649734, 52.1587973 ] } },
{ "type": "Feature", "properties": { "osm_id": "475913228", "code": 2082, "fclass": "school", "name": "Ernst Legal Schule" }, "geometry": { "type": "Point", "coordinates": [ 13.3815644, 51.7257144 ] } },
{ "type": "Feature", "properties": { "osm_id": "486279546", "code": 2082, "fclass": "school", "name": "Grundschule am Fasanenwald" }, "geometry": { "type": "Point", "coordinates": [ 14.6540831, 52.0879671 ] } },
{ "type": "Feature", "properties": { "osm_id": "495268803", "code": 2082, "fclass": "school", "name": "Oberlin Berufliche Schulen" }, "geometry": { "type": "Point", "coordinates": [ 13.1379577, 52.3874644 ] } },
{ "type": "Feature", "properties": { "osm_id": "503861447", "code": 2082, "fclass": "school", "name": "Ehemalige Kahrener Oberschule" }, "geometry": { "type": "Point", "coordinates": [ 14.411878, 51.7225603 ] } },
{ "type": "Feature", "properties": { "osm_id": "506133476", "code": 2082, "fclass": "school", "name": "Berliner Rettungsdienstschule" }, "geometry": { "type": "Point", "coordinates": [ 13.5170522, 52.445113 ] } },
{ "type": "Feature", "properties": { "osm_id": "514699001", "code": 2082, "fclass": "school", "name": "Grundschule \"Thomas Müntzer\"" }, "geometry": { "type": "Point", "coordinates": [ 12.8867185, 51.9567665 ] } },
{ "type": "Feature", "properties": { "osm_id": "551800931", "code": 2082, "fclass": "school", "name": "Freiherr-v.-Rochow-Oberschule" }, "geometry": { "type": "Point", "coordinates": [ 12.177338, 53.1558379 ] } },
{ "type": "Feature", "properties": { "osm_id": "563923961", "code": 2082, "fclass": "school", "name": "Max-Lindow-Schule" }, "geometry": { "type": "Point", "coordinates": [ 13.8543642, 53.313334 ] } },
{ "type": "Feature", "properties": { "osm_id": "571804607", "code": 2082, "fclass": "school", "name": "Oberstufenzentrum Gottfried Wilhelm Leibniz" }, "geometry": { "type": "Point", "coordinates": [ 14.6288592, 52.1542487 ] } },
{ "type": "Feature", "properties": { "osm_id": "598844611", "code": 2082, "fclass": "school", "name": null }, "geometry": { "type": "Point", "coordinates": [ 13.2837129, 53.0145464 ] } },
{ "type": "Feature", "properties": { "osm_id": "613697442", "code": 2082, "fclass": "school", "name": null }, "geometry": { "type": "Point", "coordinates": [ 13.3982097, 52.5353066 ] } },
{ "type": "Feature", "properties": { "osm_id": "628822737", "code": 2082, "fclass": "school", "name": "Grundschule 2" }, "geometry": { "type": "Point", "coordinates": [ 14.6308224, 52.1406939 ] } },
{ "type": "Feature", "properties": { "osm_id": "652434064", "code": 2082, "fclass": "school", "name": "Grundschule II" }, "geometry": { "type": "Point", "coordinates": [ 14.2535261, 52.1759719 ] } },
{ "type": "Feature", "properties": { "osm_id": "671434217", "code": 2082, "fclass": "school", "name": "Freie Oberschule und Freies Gymnasium im Stift Neuzelle" }, "geometry": { "type": "Point", "coordinates": [ 14.6522331, 52.0912733 ] } },
{ "type": "Feature", "properties": { "osm_id": "687385622", "code": 2082, "fclass": "school", "name": "Grundschule Lindenbäumchen" }, "geometry": { "type": "Point", "coordinates": [ 14.5384603, 52.2409676 ] } },
{ "type": "Feature", "properties": { "osm_id": "727710608", "code": 2082, "fclass": "school", "name": "bbw Akademie Betriebswirtschaftliche Weiterbildung" }, "geometry": { "type": "Point", "coordinates": [ 13.5311243, 52.5264226 ] } },
{ "type": "Feature", "properties": { "osm_id": "748824991", "code": 2082, "fclass": "school", "name": "Oberstufenzentrum" }, "geometry": { "type": "Point", "coordinates": [ 13.8753388, 51.9503513 ] } },
{ "type": "Feature", "properties": { "osm_id": "817071207", "code": 2082, "fclass": "school", "name": null }, "geometry": { "type": "Point", "coordinates": [ 13.5352716, 52.9009508 ] } },
{ "type": "Feature", "properties": { "osm_id": "867872391", "code": 2082, "fclass": "school", "name": "Deutsch Praxis" }, "geometry": { "type": "Point", "coordinates": [ 13.4120982, 52.503441 ] } },
{ "type": "Feature", "properties": { "osm_id": "871633760", "code": 2082, "fclass": "school", "name": "Yoga/Schiatsu-Zentrum" }, "geometry": { "type": "Point", "coordinates": [ 13.413924, 52.5023614 ] } },
{ "type": "Feature", "properties": { "osm_id": "876244328", "code": 2082, "fclass": "school", "name": "Atelier für physisches Theater – Internationale Schule für Bewegungsschauspiel" }, "geometry": { "type": "Point", "coordinates": [ 13.4213836, 52.501677 ] } },
{ "type": "Feature", "properties": { "osm_id": "897815225", "code": 2082, "fclass": "school", "name": "Waldhofschule" }, "geometry": { "type": "Point", "coordinates": [ 13.4797355, 53.1161953 ] } },
{ "type": "Feature", "properties": { "osm_id": "911814471", "code": 2082, "fclass": "school", "name": "Oberstufenzentrum Havelland" }, "geometry": { "type": "Point", "coordinates": [ 12.8883115, 52.6007738 ] } },
{ "type": "Feature", "properties": { "osm_id": "985919722", "code": 2082, "fclass": "school", "name": "Jugendwerkstatt Buch Aktivierungshilfe" }, "geometry": { "type": "Point", "coordinates": [ 13.4929984, 52.6256033 ] } },
{ "type": "Feature", "properties": { "osm_id": "996413480", "code": 2082, "fclass": "school", "name": "TING-Schule" }, "geometry": { "type": "Point", "coordinates": [ 13.4135424, 52.5620245 ] } },
{ "type": "Feature", "properties": { "osm_id": "1015728668", "code": 2082, "fclass": "school", "name": "Biesalski-Schule" }, "geometry": { "type": "Point", "coordinates": [ 13.2706708, 52.4545683 ] } },
{ "type": "Feature", "properties": { "osm_id": "1057857273", "code": 2082, "fclass": "school", "name": "Ernst-Habermann-Grundschule" }, "geometry": { "type": "Point", "coordinates": [ 13.3327206, 52.4833728 ] } },
{ "type": "Feature", "properties": { "osm_id": "1094869376", "code": 2082, "fclass": "school", "name": "Kleine Grundschule Dippmannsdorf" }, "geometry": { "type": "Point", "coordinates": [ 12.5886819, 52.2270933 ] } },
{ "type": "Feature", "properties": { "osm_id": "1137671520", "code": 2082, "fclass": "school", "name": "Kindermalschule" }, "geometry": { "type": "Point", "coordinates": [ 13.3007856, 52.5185412 ] } },
{ "type": "Feature", "properties": { "osm_id": "1140710553", "code": 2082, "fclass": "school", "name": "CJD Berlin" }, "geometry": { "type": "Point", "coordinates": [ 13.3716254, 52.5034349 ] } },
{ "type": "Feature", "properties": { "osm_id": "1152548393", "code": 2082, "fclass": "school", "name": "Ernst-Moritz-Arndt Grundschule" }, "geometry": { "type": "Point", "coordinates": [ 13.1590672, 52.0920196 ] } },
{ "type": "Feature", "properties": { "osm_id": "1194517124", "code": 2082, "fclass": "school", "name": "Puschkin-Halle" }, "geometry": { "type": "Point", "coordinates": [ 12.5880137, 52.1454873 ] } },
{ "type": "Feature", "properties": { "osm_id": "1194517864", "code": 2082, "fclass": "school", "name": "Albert-Baur-Halle" }, "geometry": { "type": "Point", "coordinates": [ 12.5868131, 52.1481649 ] } },
{ "type": "Feature", "properties": { "osm_id": "1224801662", "code": 2082, "fclass": "school", "name": "Alno Küchenstudio" }, "geometry": { "type": "Point", "coordinates": [ 13.4359177, 52.4399472 ] } },
{ "type": "Feature", "properties": { "osm_id": "1287622162", "code": 2082, "fclass": "school", "name": "CJD Prignitz - Standort Rathenow" }, "geometry": { "type": "Point", "coordinates": [ 12.3376338, 52.5861156 ] } },
{ "type": "Feature", "properties": { "osm_id": "1301244519", "code": 2082, "fclass": "school", "name": "Grundschule Altreetz" }, "geometry": { "type": "Point", "coordinates": [ 14.1661681, 52.7645747 ] } },
{ "type": "Feature", "properties": { "osm_id": "1359689684", "code": 2082, "fclass": "school", "name": "Elsterschloss-Gymnasium" }, "geometry": { "type": "Point", "coordinates": [ 13.5247003, 51.4542025 ] } },
{ "type": "Feature", "properties": { "osm_id": "1366621760", "code": 2082, "fclass": "school", "name": "Grund- und Oberschule Müllrose" }, "geometry": { "type": "Point", "coordinates": [ 14.4100966, 52.2388186 ] } },
{ "type": "Feature", "properties": { "osm_id": "1375692715", "code": 2082, "fclass": "school", "name": "Lehmbauschule Glashütte" }, "geometry": { "type": "Point", "coordinates": [ 13.5838278, 52.0262947 ] } },
{ "type": "Feature", "properties": { "osm_id": "1396215532", "code": 2082, "fclass": "school", "name": "Förderschule St.Florian-Stift" }, "geometry": { "type": "Point", "coordinates": [ 14.6488674, 52.0895895 ] } },
{ "type": "Feature", "properties": { "osm_id": "1407207210", "code": 2082, "fclass": "school", "name": "Abendgymnasium Prenzlauer Berg" }, "geometry": { "type": "Point", "coordinates": [ 13.4056269, 52.552085 ] } },
{ "type": "Feature", "properties": { "osm_id": "1526958171", "code": 2082, "fclass": "school", "name": "Strausberger Bildungs- und Sozialwerk e.V." }, "geometry": { "type": "Point", "coordinates": [ 13.8972676, 52.5820422 ] } },
{ "type": "Feature", "properties": { "osm_id": "1552045205", "code": 2082, "fclass": "school", "name": "Deutsch-Institut Berlin" }, "geometry": { "type": "Point", "coordinates": [ 13.3884213, 52.5284845 ] } },
{ "type": "Feature", "properties": { "osm_id": "1578364347", "code": 2082, "fclass": "school", "name": "Havelland-Grundschule" }, "geometry": { "type": "Point", "coordinates": [ 13.3304761, 52.9714753 ] } },
{ "type": "Feature", "properties": { "osm_id": "1597894107", "code": 2082, "fclass": "school", "name": "Islam Vakfi" }, "geometry": { "type": "Point", "coordinates": [ 13.4213252, 52.4908343 ] } },
{ "type": "Feature", "properties": { "osm_id": "1657638134", "code": 2082, "fclass": "school", "name": "Akademie 2. Lebenshälfte" }, "geometry": { "type": "Point", "coordinates": [ 13.243504, 52.3039728 ] } },
{ "type": "Feature", "properties": { "osm_id": "1658284135", "code": 2082, "fclass": "school", "name": "Charlotte-Wolff-Kolleg" }, "geometry": { "type": "Point", "coordinates": [ 13.3036973, 52.5083269 ] } },
{ "type": "Feature", "properties": { "osm_id": "1758630727", "code": 2082, "fclass": "school", "name": "Jugendschule Strausberg e.V." }, "geometry": { "type": "Point", "coordinates": [ 13.8449774, 52.5306062 ] } },
{ "type": "Feature", "properties": { "osm_id": "1788279750", "code": 2082, "fclass": "school", "name": "Förderschule" }, "geometry": { "type": "Point", "coordinates": [ 14.6471824, 52.1355946 ] } },
{ "type": "Feature", "properties": { "osm_id": "1788279754", "code": 2082, "fclass": "school", "name": "Grundschule Diesterweg" }, "geometry": { "type": "Point", "coordinates": [ 14.6473067, 52.1359704 ] } },
{ "type": "Feature", "properties": { "osm_id": "1827035552", "code": 2082, "fclass": "school", "name": "SCHATZ Schulaufgabenzirkel" }, "geometry": { "type": "Point", "coordinates": [ 13.41986, 52.4992808 ] } },
{ "type": "Feature", "properties": { "osm_id": "1833519549", "code": 2082, "fclass": "school", "name": "OSZ Wirtschaft Leopold-Ullstein-Schule - Abteilung II" }, "geometry": { "type": "Point", "coordinates": [ 13.3344676, 52.4822428 ] } },
{ "type": "Feature", "properties": { "osm_id": "1833591080", "code": 2082, "fclass": "school", "name": "Kläre-Bloch-Schule" }, "geometry": { "type": "Point", "coordinates": [ 13.3344536, 52.4821179 ] } },
{ "type": "Feature", "properties": { "osm_id": "1855387994", "code": 2082, "fclass": "school", "name": "Das Lernzentum (Helliwood media & education)" }, "geometry": { "type": "Point", "coordinates": [ 13.6048951, 52.5357196 ] } },
{ "type": "Feature", "properties": { "osm_id": "1867142844", "code": 2082, "fclass": "school", "name": "Institut für Phytotherapie" }, "geometry": { "type": "Point", "coordinates": [ 13.4217523, 52.4967726 ] } },
{ "type": "Feature", "properties": { "osm_id": "1917276969", "code": 2082, "fclass": "school", "name": "Burgschule" }, "geometry": { "type": "Point", "coordinates": [ 14.5366919, 52.4273986 ] } },
{ "type": "Feature", "properties": { "osm_id": "2122582742", "code": 2082, "fclass": "school", "name": "Velten, Grundschule Süd" }, "geometry": { "type": "Point", "coordinates": [ 13.1745437, 52.6777663 ] } },
{ "type": "Feature", "properties": { "osm_id": "2136734352", "code": 2082, "fclass": "school", "name": "Fachschule für Sozialpädagogik" }, "geometry": { "type": "Point", "coordinates": [ 13.2479778, 52.6108823 ] } },
{ "type": "Feature", "properties": { "osm_id": "2180504961", "code": 2082, "fclass": "school", "name": "Wangari Maathai International School" }, "geometry": { "type": "Point", "coordinates": [ 13.3350661, 52.4824554 ] } },
{ "type": "Feature", "properties": { "osm_id": "2232813894", "code": 2082, "fclass": "school", "name": "Hermann-Hesse-Gymnasium (Haus 3)" }, "geometry": { "type": "Point", "coordinates": [ 13.4201501, 52.4935666 ] } },
{ "type": "Feature", "properties": { "osm_id": "2281497476", "code": 2082, "fclass": "school", "name": "Oberschule mit Grundschulteil Glöwen" }, "geometry": { "type": "Point", "coordinates": [ 12.084306, 52.911938 ] } },
{ "type": "Feature", "properties": { "osm_id": "2322979374", "code": 2082, "fclass": "school", "name": "Evangelische Grundschule Forst" }, "geometry": { "type": "Point", "coordinates": [ 14.6258955, 51.7484369 ] } },
{ "type": "Feature", "properties": { "osm_id": "2399223449", "code": 2082, "fclass": "school", "name": "Grundschule Gildenhall" }, "geometry": { "type": "Point", "coordinates": [ 12.8279726, 52.9272039 ] } },
{ "type": "Feature", "properties": { "osm_id": "2407513917", "code": 2082, "fclass": "school", "name": "Anna-Karbe Grundschule" }, "geometry": { "type": "Point", "coordinates": [ 14.0099283, 53.2108554 ] } },
{ "type": "Feature", "properties": { "osm_id": "2431140182", "code": 2082, "fclass": "school", "name": "das kleine atelier" }, "geometry": { "type": "Point", "coordinates": [ 13.3653305, 52.5533306 ] } },
{ "type": "Feature", "properties": { "osm_id": "2538629492", "code": 2082, "fclass": "school", "name": "Freie Sekundarschule Peppermont" }, "geometry": { "type": "Point", "coordinates": [ 13.4415246, 52.5425347 ] } },
{ "type": "Feature", "properties": { "osm_id": "2610154858", "code": 2082, "fclass": "school", "name": "Berlin Bilingual School" }, "geometry": { "type": "Point", "coordinates": [ 13.4417282, 52.557281 ] } },
{ "type": "Feature", "properties": { "osm_id": "2629122240", "code": 2082, "fclass": "school", "name": "Taxischule Metropolis" }, "geometry": { "type": "Point", "coordinates": [ 13.384161, 52.4961309 ] } },
{ "type": "Feature", "properties": { "osm_id": "2803010309", "code": 2082, "fclass": "school", "name": "Waldschule Breese" }, "geometry": { "type": "Point", "coordinates": [ 11.8001957, 53.0070264 ] } },
{ "type": "Feature", "properties": { "osm_id": "2844490858", "code": 2082, "fclass": "school", "name": null }, "geometry": { "type": "Point", "coordinates": [ 13.4401725, 52.5218471 ] } },
{ "type": "Feature", "properties": { "osm_id": "2880555644", "code": 2082, "fclass": "school", "name": "Kleine Grundschule Blumenthal" }, "geometry": { "type": "Point", "coordinates": [ 12.3359627, 53.0777535 ] } },
{ "type": "Feature", "properties": { "osm_id": "2952353502", "code": 2082, "fclass": "school", "name": "Quinoa Schule" }, "geometry": { "type": "Point", "coordinates": [ 13.3811302, 52.566071 ] } },
{ "type": "Feature", "properties": { "osm_id": "3090369566", "code": 2082, "fclass": "school", "name": "iek" }, "geometry": { "type": "Point", "coordinates": [ 13.418127, 52.5396656 ] } },
{ "type": "Feature", "properties": { "osm_id": "3093478831", "code": 2082, "fclass": "school", "name": "Schule bei der Botschaft der Russischen Föderation" }, "geometry": { "type": "Point", "coordinates": [ 13.3845541, 52.5155186 ] } },
{ "type": "Feature", "properties": { "osm_id": "3097289470", "code": 2082, "fclass": "school", "name": "Aktive Naturschule Prenzlau" }, "geometry": { "type": "Point", "coordinates": [ 13.8462809, 53.3089846 ] } },
{ "type": "Feature", "properties": { "osm_id": "3247894515", "code": 2082, "fclass": "school", "name": "Volkshochschule im Bildunsgforum Potsdam" }, "geometry": { "type": "Point", "coordinates": [ 13.0595767, 52.397088 ] } },
{ "type": "Feature", "properties": { "osm_id": "3347795761", "code": 2082, "fclass": "school", "name": "Quentin-Blake-Europa-Schule" }, "geometry": { "type": "Point", "coordinates": [ 13.2698957, 52.4546353 ] } },
{ "type": "Feature", "properties": { "osm_id": "3465132015", "code": 2082, "fclass": "school", "name": "Svenska Skolan i Berlin" }, "geometry": { "type": "Point", "coordinates": [ 13.3294623, 52.4880673 ] } },
{ "type": "Feature", "properties": { "osm_id": "3644290194", "code": 2082, "fclass": "school", "name": "Be The - Therapie bei Lernschwierigkeiten" }, "geometry": { "type": "Point", "coordinates": [ 13.4475016, 52.5122062 ] } },
{ "type": "Feature", "properties": { "osm_id": "3880351271", "code": 2082, "fclass": "school", "name": "Regionale Schule Löcknitz" }, "geometry": { "type": "Point", "coordinates": [ 14.2163169, 53.450451 ] } },
{ "type": "Feature", "properties": { "osm_id": "3880351272", "code": 2082, "fclass": "school", "name": "Grundschule \"Am See\" Löcknitz" }, "geometry": { "type": "Point", "coordinates": [ 14.215654, 53.4503659 ] } },
{ "type": "Feature", "properties": { "osm_id": "3880351273", "code": 2082, "fclass": "school", "name": "\"Randow-Schule\" Löcknitz - Förderschule mit dem Schwerpunkt \"geistige Entwicklung\"" }, "geometry": { "type": "Point", "coordinates": [ 14.2172186, 53.4505582 ] } },
{ "type": "Feature", "properties": { "osm_id": "4097819340", "code": 2082, "fclass": "school", "name": "Europaschule am Gutspark" }, "geometry": { "type": "Point", "coordinates": [ 13.0924905, 52.5631129 ] } },
{ "type": "Feature", "properties": { "osm_id": "4149486091", "code": 2082, "fclass": "school", "name": "Liebmann-Schule" }, "geometry": { "type": "Point", "coordinates": [ 13.3919599, 52.5019732 ] } },
{ "type": "Feature", "properties": { "osm_id": "4208874814", "code": 2082, "fclass": "school", "name": "AGUS/GADAT Berufliche Schule" }, "geometry": { "type": "Point", "coordinates": [ 12.8262092, 52.9490372 ] } },
{ "type": "Feature", "properties": { "osm_id": "4298064770", "code": 2082, "fclass": "school", "name": "Hort der ESS" }, "geometry": { "type": "Point", "coordinates": [ 13.1948238, 52.5730595 ] } },
{ "type": "Feature", "properties": { "osm_id": "4368419896", "code": 2082, "fclass": "school", "name": "Internationale Lomonossow-Schule" }, "geometry": { "type": "Point", "coordinates": [ 13.35938, 52.5040253 ] } },
{ "type": "Feature", "properties": { "osm_id": "4514468855", "code": 2082, "fclass": "school", "name": "Käthe-Kollwitz-Grundschule" }, "geometry": { "type": "Point", "coordinates": [ 13.3773956, 52.6650157 ] } },
{ "type": "Feature", "properties": { "osm_id": "4514472128", "code": 2082, "fclass": "school", "name": "Hort" }, "geometry": { "type": "Point", "coordinates": [ 13.3779482, 52.6643683 ] } },
{ "type": "Feature", "properties": { "osm_id": "4533957453", "code": 2082, "fclass": "school", "name": "Realschule Sielow" }, "geometry": { "type": "Point", "coordinates": [ 14.3106018, 51.7997276 ] } },
{ "type": "Feature", "properties": { "osm_id": "4555355495", "code": 2082, "fclass": "school", "name": "Georg-Büchner-Schule" }, "geometry": { "type": "Point", "coordinates": [ 13.7511985, 52.9739939 ] } },
{ "type": "Feature", "properties": { "osm_id": "4555377297", "code": 2082, "fclass": "school", "name": "Freies Joachimsthaler Gymnasium" }, "geometry": { "type": "Point", "coordinates": [ 13.7498402, 52.9735699 ] } },
{ "type": "Feature", "properties": { "osm_id": "4578884767", "code": 2082, "fclass": "school", "name": "Freie Draussenschule Angermünde" }, "geometry": { "type": "Point", "coordinates": [ 13.991819, 53.010452 ] } },
{ "type": "Feature", "properties": { "osm_id": "4798779921", "code": 2082, "fclass": "school", "name": null }, "geometry": { "type": "Point", "coordinates": [ 13.7171858, 51.8504533 ] } },
{ "type": "Feature", "properties": { "osm_id": "4850314524", "code": 2082, "fclass": "school", "name": "Cumbancha" }, "geometry": { "type": "Point", "coordinates": [ 13.3774542, 52.4908034 ] } },
{ "type": "Feature", "properties": { "osm_id": "4864189821", "code": 2082, "fclass": "school", "name": "EIIE EURASIA Institute for International Education GmbH" }, "geometry": { "type": "Point", "coordinates": [ 13.2797555, 52.5328938 ] } },
{ "type": "Feature", "properties": { "osm_id": "4932662327", "code": 2082, "fclass": "school", "name": "Piano Cano" }, "geometry": { "type": "Point", "coordinates": [ 13.4477802, 52.5279354 ] } },
{ "type": "Feature", "properties": { "osm_id": "5130410587", "code": 2082, "fclass": "school", "name": "Kleine Grundschule Gollmitz" }, "geometry": { "type": "Point", "coordinates": [ 13.7241018, 53.2979572 ] } },
{ "type": "Feature", "properties": { "osm_id": "5469267151", "code": 2082, "fclass": "school", "name": "bundtStift_Schulen" }, "geometry": { "type": "Point", "coordinates": [ 13.9040753, 52.5894694 ] } },
{ "type": "Feature", "properties": { "osm_id": "5477749794", "code": 2082, "fclass": "school", "name": "Samuel-Hahnemann-Schule" }, "geometry": { "type": "Point", "coordinates": [ 13.394612, 52.4544038 ] } },
{ "type": "Feature", "properties": { "osm_id": "5661514223", "code": 2082, "fclass": "school", "name": "Schule am Hasenhegerweg" }, "geometry": { "type": "Point", "coordinates": [ 13.4468273, 52.4227343 ] } },
{ "type": "Feature", "properties": { "osm_id": "5661514224", "code": 2082, "fclass": "school", "name": "Lisa-Tetzner-Grundschule" }, "geometry": { "type": "Point", "coordinates": [ 13.4468112, 52.4224497 ] } },
{ "type": "Feature", "properties": { "osm_id": "5695079683", "code": 2082, "fclass": "school", "name": "OTA - Tanyildiz Schweißtechnik" }, "geometry": { "type": "Point", "coordinates": [ 13.4885479, 52.5236819 ] } },
{ "type": "Feature", "properties": { "osm_id": "5790175872", "code": 2082, "fclass": "school", "name": "Corrie-ten-Boom-Schule" }, "geometry": { "type": "Point", "coordinates": [ 13.4273152, 52.5347819 ] } },
{ "type": "Feature", "properties": { "osm_id": "5790175875", "code": 2082, "fclass": "school", "name": "Elisabeth-Abegg-Grundschule" }, "geometry": { "type": "Point", "coordinates": [ 13.4278408, 52.5346465 ] } },
{ "type": "Feature", "properties": { "osm_id": "5876205467", "code": 2082, "fclass": "school", "name": "Oberschule Klosterfelde" }, "geometry": { "type": "Point", "coordinates": [ 13.4865625, 52.7939166 ] } },
{ "type": "Feature", "properties": { "osm_id": "5876205468", "code": 2082, "fclass": "school", "name": "Grundschule Klosterfelde" }, "geometry": { "type": "Point", "coordinates": [ 13.4865226, 52.7946204 ] } },
{ "type": "Feature", "properties": { "osm_id": "5892790086", "code": 2082, "fclass": "school", "name": "Schule" }, "geometry": { "type": "Point", "coordinates": [ 13.2738447, 52.3388315 ] } },
{ "type": "Feature", "properties": { "osm_id": "5907019898", "code": 2082, "fclass": "school", "name": "Privates Europa-Gymnasium Berlin" }, "geometry": { "type": "Point", "coordinates": [ 13.3541252, 52.4858093 ] } },
{ "type": "Feature", "properties": { "osm_id": "5997094437", "code": 2082, "fclass": "school", "name": "Moser Schule Schweizer Gymnasium gGmbH" }, "geometry": { "type": "Point", "coordinates": [ 13.2634016, 52.5095435 ] } },
{ "type": "Feature", "properties": { "osm_id": "6058583254", "code": 2082, "fclass": "school", "name": null }, "geometry": { "type": "Point", "coordinates": [ 13.4062656, 52.5273506 ] } },
{ "type": "Feature", "properties": { "osm_id": "6153498939", "code": 2082, "fclass": "school", "name": "Institut für Verhaltenstherapie Berlin" }, "geometry": { "type": "Point", "coordinates": [ 13.2887102, 52.4811108 ] } },
{ "type": "Feature", "properties": { "osm_id": "6215800460", "code": 2082, "fclass": "school", "name": "Mal- und Zeichenschule Prib" }, "geometry": { "type": "Point", "coordinates": [ 13.3976982, 52.5375362 ] } },
{ "type": "Feature", "properties": { "osm_id": "6241526738", "code": 2082, "fclass": "school", "name": "Schule im Nibelungenviertel" }, "geometry": { "type": "Point", "coordinates": [ 13.6088318, 52.6780323 ] } },
{ "type": "Feature", "properties": { "osm_id": "6241526739", "code": 2082, "fclass": "school", "name": "Grundschule an der Hasenheide" }, "geometry": { "type": "Point", "coordinates": [ 13.6094993, 52.6781111 ] } },
{ "type": "Feature", "properties": { "osm_id": "6251995791", "code": 2082, "fclass": "school", "name": "Produktionsschule Mitte" }, "geometry": { "type": "Point", "coordinates": [ 13.3704694, 52.5505701 ] } },
{ "type": "Feature", "properties": { "osm_id": "6264135716", "code": 2082, "fclass": "school", "name": "Philipp-Melanchthon-Gymnasium" }, "geometry": { "type": "Point", "coordinates": [ 13.8238514, 52.4139221 ] } },
{ "type": "Feature", "properties": { "osm_id": "6269724646", "code": 2082, "fclass": "school", "name": "Schule St. Johannesberg" }, "geometry": { "type": "Point", "coordinates": [ 13.2351553, 52.7401797 ] } },
{ "type": "Feature", "properties": { "osm_id": "6292994138", "code": 2082, "fclass": "school", "name": "Berufliche Schule für Sozialwesen „Sophie Scholl\"" }, "geometry": { "type": "Point", "coordinates": [ 12.3287431, 52.5334715 ] } },
{ "type": "Feature", "properties": { "osm_id": "6314793564", "code": 2082, "fclass": "school", "name": "Internationale Gesamtschule Potsdam" }, "geometry": { "type": "Point", "coordinates": [ 13.0792397, 52.372763 ] } },
{ "type": "Feature", "properties": { "osm_id": "6314793565", "code": 2082, "fclass": "school", "name": "Internationale Grundschule Potsdam" }, "geometry": { "type": "Point", "coordinates": [ 13.0793121, 52.3726173 ] } },
{ "type": "Feature", "properties": { "osm_id": "6331221546", "code": 2082, "fclass": "school", "name": "Grundschule Uckerland" }, "geometry": { "type": "Point", "coordinates": [ 13.866993, 53.4567916 ] } },
{ "type": "Feature", "properties": { "osm_id": "6410792688", "code": 2082, "fclass": "school", "name": "Akademie der Gesundheit" }, "geometry": { "type": "Point", "coordinates": [ 13.5072943, 52.6331664 ] } },
{ "type": "Feature", "properties": { "osm_id": "6422859463", "code": 2082, "fclass": "school", "name": "Freie Grundschule Pfefferwerk" }, "geometry": { "type": "Point", "coordinates": [ 13.4097119, 52.5533032 ] } },
{ "type": "Feature", "properties": { "osm_id": "6422859464", "code": 2082, "fclass": "school", "name": "Freie Sekundarschule PepperMont" }, "geometry": { "type": "Point", "coordinates": [ 13.4096543, 52.552951 ] } },
{ "type": "Feature", "properties": { "osm_id": "6593878205", "code": 2082, "fclass": "school", "name": "Bettina-von-Arnim-Oberschule" }, "geometry": { "type": "Point", "coordinates": [ 13.8237378, 52.4141867 ] } },
{ "type": "Feature", "properties": { "osm_id": "6875960985", "code": 2082, "fclass": "school", "name": null }, "geometry": { "type": "Point", "coordinates": [ 13.9402399, 51.8576691 ] } },
{ "type": "Feature", "properties": { "osm_id": "6897072687", "code": 2082, "fclass": "school", "name": "Montessori-Schule" }, "geometry": { "type": "Point", "coordinates": [ 12.8053063, 52.9238328 ] } },
{ "type": "Feature", "properties": { "osm_id": "7014964448", "code": 2082, "fclass": "school", "name": "Aktive Schule Potsdam" }, "geometry": { "type": "Point", "coordinates": [ 13.0935295, 52.3593169 ] } },
{ "type": "Feature", "properties": { "osm_id": "7282070071", "code": 2082, "fclass": "school", "name": "Grundschule am Blumenhag" }, "geometry": { "type": "Point", "coordinates": [ 13.570361, 52.6749199 ] } },
{ "type": "Feature", "properties": { "osm_id": "7282070072", "code": 2082, "fclass": "school", "name": "Tobias-Seiler-Oberschule Bernau" }, "geometry": { "type": "Point", "coordinates": [ 13.5720903, 52.6749457 ] } },
{ "type": "Feature", "properties": { "osm_id": "7342489504", "code": 2082, "fclass": "school", "name": "Docemus Campus Grünheide" }, "geometry": { "type": "Point", "coordinates": [ 13.8235884, 52.4140172 ] } },
{ "type": "Feature", "properties": { "osm_id": "7416810354", "code": 2082, "fclass": "school", "name": "Friedrich-Ludwig-Jahn-Oberschule" }, "geometry": { "type": "Point", "coordinates": [ 13.1516232, 52.103235 ] } },
{ "type": "Feature", "properties": { "osm_id": "7545992045", "code": 2082, "fclass": "school", "name": null }, "geometry": { "type": "Point", "coordinates": [ 12.1873251, 53.1524852 ] } },
{ "type": "Feature", "properties": { "osm_id": "7660545977", "code": 2082, "fclass": "school", "name": "Medizinische Schule" }, "geometry": { "type": "Point", "coordinates": [ 14.3213228, 51.7408574 ] } },
{ "type": "Feature", "properties": { "osm_id": "7685796317", "code": 2082, "fclass": "school", "name": "Prestige Kosmetikakademie" }, "geometry": { "type": "Point", "coordinates": [ 13.3164868, 52.4866263 ] } },
{ "type": "Feature", "properties": { "osm_id": "7774237459", "code": 2082, "fclass": "school", "name": "Grund-Bildungs-Zentrum Berlin" }, "geometry": { "type": "Point", "coordinates": [ 13.3196702, 52.481561 ] } },
{ "type": "Feature", "properties": { "osm_id": "7797330994", "code": 2082, "fclass": "school", "name": null }, "geometry": { "type": "Point", "coordinates": [ 14.6090537, 52.1553996 ] } },
{ "type": "Feature", "properties": { "osm_id": "7911942377", "code": 2082, "fclass": "school", "name": "Anne Frank Grundschule" }, "geometry": { "type": "Point", "coordinates": [ 11.6220975, 53.2256817 ] } },
{ "type": "Feature", "properties": { "osm_id": "8050485559", "code": 2082, "fclass": "school", "name": "Galilei Grundschule" }, "geometry": { "type": "Point", "coordinates": [ 13.3920468, 52.5014874 ] } },
{ "type": "Feature", "properties": { "osm_id": "8050730961", "code": 2082, "fclass": "school", "name": "Hegermühlen-Grundschule" }, "geometry": { "type": "Point", "coordinates": [ 13.8831874, 52.5750389 ] } },
{ "type": "Feature", "properties": { "osm_id": "8114924250", "code": 2082, "fclass": "school", "name": "WIR - Grundschule" }, "geometry": { "type": "Point", "coordinates": [ 12.5434926, 52.3971083 ] } },
{ "type": "Feature", "properties": { "osm_id": "8128788753", "code": 2082, "fclass": "school", "name": null }, "geometry": { "type": "Point", "coordinates": [ 12.2917216, 52.9710955 ] } },
{ "type": "Feature", "properties": { "osm_id": "8168173452", "code": 2082, "fclass": "school", "name": "Landwirtschaftsschule Luisenhof" }, "geometry": { "type": "Point", "coordinates": [ 13.2082164, 52.7545526 ] } },
{ "type": "Feature", "properties": { "osm_id": "8168200658", "code": 2082, "fclass": "school", "name": "Jagdschule Oberhavel e. V." }, "geometry": { "type": "Point", "coordinates": [ 13.2080333, 52.7543764 ] } },
{ "type": "Feature", "properties": { "osm_id": "8205297497", "code": 2082, "fclass": "school", "name": "Dreiklang Oberschule" }, "geometry": { "type": "Point", "coordinates": [ 14.2817053, 53.0583023 ] } },
{ "type": "Feature", "properties": { "osm_id": "8205297498", "code": 2082, "fclass": "school", "name": "Astrid Lindgren Grundschule" }, "geometry": { "type": "Point", "coordinates": [ 14.2822642, 53.0585963 ] } },
{ "type": "Feature", "properties": { "osm_id": "8209604940", "code": 2082, "fclass": "school", "name": "Grundschule am Waldrand" }, "geometry": { "type": "Point", "coordinates": [ 14.2477683, 53.0673738 ] } },
{ "type": "Feature", "properties": { "osm_id": "8291836181", "code": 2082, "fclass": "school", "name": "Oberschule Lehnitz" }, "geometry": { "type": "Point", "coordinates": [ 13.2678945, 52.7388706 ] } },
{ "type": "Feature", "properties": { "osm_id": "8455462627", "code": 2082, "fclass": "school", "name": "Georg-Mendheim-Oberstufenzentrum" }, "geometry": { "type": "Point", "coordinates": [ 13.247665, 52.7541102 ] } },
{ "type": "Feature", "properties": { "osm_id": "8455462628", "code": 2082, "fclass": "school", "name": "AGUS Altenpflegeschule" }, "geometry": { "type": "Point", "coordinates": [ 13.2478327, 52.754042 ] } },
{ "type": "Feature", "properties": { "osm_id": "8536870686", "code": 2082, "fclass": "school", "name": "Kneipp®-Grundschule \"Bertolt Brecht\"" }, "geometry": { "type": "Point", "coordinates": [ 14.0731621, 52.5768128 ] } },
{ "type": "Feature", "properties": { "osm_id": "8553268700", "code": 2082, "fclass": "school", "name": "Grundschule Warnitz" }, "geometry": { "type": "Point", "coordinates": [ 13.8745929, 53.1839782 ] } },
{ "type": "Feature", "properties": { "osm_id": "8589000133", "code": 2082, "fclass": "school", "name": "Kristall Grundschule" }, "geometry": { "type": "Point", "coordinates": [ 13.3589568, 52.5402175 ] } },
{ "type": "Feature", "properties": { "osm_id": "9215908289", "code": 2082, "fclass": "school", "name": "Grundschule am Berg" }, "geometry": { "type": "Point", "coordinates": [ 13.5378599, 52.4186282 ] } },
{ "type": "Feature", "properties": { "osm_id": "9220943709", "code": 2082, "fclass": "school", "name": "Hort Hummelnest" }, "geometry": { "type": "Point", "coordinates": [ 14.1593566, 52.1526599 ] } },
{ "type": "Feature", "properties": { "osm_id": "9233487162", "code": 2082, "fclass": "school", "name": "Grund- und Oberschule Salvador Allende Wriezen" }, "geometry": { "type": "Point", "coordinates": [ 14.1332207, 52.7155405 ] } },
{ "type": "Feature", "properties": { "osm_id": "9233487163", "code": 2082, "fclass": "school", "name": "Evangelisches Johanniter Gymnasium Wriezen" }, "geometry": { "type": "Point", "coordinates": [ 14.1327694, 52.7210665 ] } },
{ "type": "Feature", "properties": { "osm_id": "9397070748", "code": 2082, "fclass": "school", "name": "Hannah-Arendt-Gymnasium" }, "geometry": { "type": "Point", "coordinates": [ 13.0226422, 52.3888727 ] } },
{ "type": "Feature", "properties": { "osm_id": "9502964060", "code": 2082, "fclass": "school", "name": "Berliner Schule für Zen Shiatsu" }, "geometry": { "type": "Point", "coordinates": [ 13.3099724, 52.4953754 ] } },
{ "type": "Feature", "properties": { "osm_id": "9633961960", "code": 2082, "fclass": "school", "name": null }, "geometry": { "type": "Point", "coordinates": [ 13.5543492, 51.496964 ] } },
{ "type": "Feature", "properties": { "osm_id": "9674270517", "code": 2082, "fclass": "school", "name": "SENECA INTENSIV Studios" }, "geometry": { "type": "Point", "coordinates": [ 13.5365868, 52.5427625 ] } },
{ "type": "Feature", "properties": { "osm_id": "9880715115", "code": 2082, "fclass": "school", "name": "Mosaik-Gymnasium Oberhavel" }, "geometry": { "type": "Point", "coordinates": [ 13.2456502, 52.7591345 ] } },
{ "type": "Feature", "properties": { "osm_id": "9953624692", "code": 2082, "fclass": "school", "name": "Demokratische Schule X" }, "geometry": { "type": "Point", "coordinates": [ 13.2474075, 52.6127734 ] } },
{ "type": "Feature", "properties": { "osm_id": "10183349767", "code": 2082, "fclass": "school", "name": "Dorfschule Lunow e.V." }, "geometry": { "type": "Point", "coordinates": [ 14.11068, 52.9224726 ] } },
{ "type": "Feature", "properties": { "osm_id": "10273324300", "code": 2082, "fclass": "school", "name": "Peter-Pan-Grundschule" }, "geometry": { "type": "Point", "coordinates": [ 13.5508288, 52.546377 ] } },
{ "type": "Feature", "properties": { "osm_id": "10788214205", "code": 2082, "fclass": "school", "name": "Ironhack Berlin" }, "geometry": { "type": "Point", "coordinates": [ 13.453285, 52.5329551 ] } },
{ "type": "Feature", "properties": { "osm_id": "10913649729", "code": 2082, "fclass": "school", "name": "Friedrich-Ludwig-Jahn-Grundschule" }, "geometry": { "type": "Point", "coordinates": [ 13.1514397, 52.1032036 ] } },
{ "type": "Feature", "properties": { "osm_id": "11059478422", "code": 2082, "fclass": "school", "name": "Hort Wirbelwind" }, "geometry": { "type": "Point", "coordinates": [ 11.9483553, 52.9581019 ] } },
{ "type": "Feature", "properties": { "osm_id": "11060589005", "code": 2082, "fclass": "school", "name": "Grundschule an der Wuhle" }, "geometry": { "type": "Point", "coordinates": [ 13.5798614, 52.5220834 ] } },
{ "type": "Feature", "properties": { "osm_id": "11191369537", "code": 2082, "fclass": "school", "name": "Berlin Comics Schule" }, "geometry": { "type": "Point", "coordinates": [ 13.3893155, 52.5549661 ] } },
{ "type": "Feature", "properties": { "osm_id": "11197523749", "code": 2082, "fclass": "school", "name": "Seminarschiff" }, "geometry": { "type": "Point", "coordinates": [ 13.3439077, 52.5230665 ] } },
{ "type": "Feature", "properties": { "osm_id": "11198242339", "code": 2082, "fclass": "school", "name": "Surfpaddelschule" }, "geometry": { "type": "Point", "coordinates": [ 13.6308577, 52.4450342 ] } },
{ "type": "Feature", "properties": { "osm_id": "11267498757", "code": 2082, "fclass": "school", "name": "Freie Schule Anne Sophie" }, "geometry": { "type": "Point", "coordinates": [ 13.2629021, 52.4374162 ] } },
{ "type": "Feature", "properties": { "osm_id": "11287862770", "code": 2082, "fclass": "school", "name": "b-trend-setting" }, "geometry": { "type": "Point", "coordinates": [ 13.4533132, 52.4685185 ] } },
{ "type": "Feature", "properties": { "osm_id": "11357840631", "code": 2082, "fclass": "school", "name": "Shiatsu Schule Kreuzberg" }, "geometry": { "type": "Point", "coordinates": [ 13.4363004, 52.4988468 ] } },
{ "type": "Feature", "properties": { "osm_id": "11409566932", "code": 2082, "fclass": "school", "name": "Private Berufsfachschule" }, "geometry": { "type": "Point", "coordinates": [ 13.6254372, 52.6968222 ] } },
{ "type": "Feature", "properties": { "osm_id": "11425591669", "code": 2082, "fclass": "school", "name": "Elinor-Ostrom-Schule (2. Schulstandort)" }, "geometry": { "type": "Point", "coordinates": [ 13.4174416, 52.5455422 ] } },
{ "type": "Feature", "properties": { "osm_id": "11525305289", "code": 2082, "fclass": "school", "name": "Evangelische Schule Neukölln Oberstufe" }, "geometry": { "type": "Point", "coordinates": [ 13.42251, 52.4744236 ] } },
{ "type": "Feature", "properties": { "osm_id": "11769563161", "code": 2082, "fclass": "school", "name": "Volkshochschule Treptow-Köpenick" }, "geometry": { "type": "Point", "coordinates": [ 13.5232934, 52.4618963 ] } },
{ "type": "Feature", "properties": { "osm_id": "11863051770", "code": 2082, "fclass": "school", "name": "Willy-Brandt-Schule" }, "geometry": { "type": "Point", "coordinates": [ 13.3181254, 52.5464638 ] } },
{ "type": "Feature", "properties": { "osm_id": "12068069133", "code": 2082, "fclass": "school", "name": "Grundschule Fehrbelliner Tor" }, "geometry": { "type": "Point", "coordinates": [ 13.1997122, 52.554801 ] } },
{ "type": "Feature", "properties": { "osm_id": "12135294142", "code": 2082, "fclass": "school", "name": "Freie Schule Schöneberg" }, "geometry": { "type": "Point", "coordinates": [ 13.3544535, 52.4857428 ] } },
{ "type": "Feature", "properties": { "osm_id": "12157282592", "code": 2082, "fclass": "school", "name": "Akademie Lausitzer ATA-OTA Schule" }, "geometry": { "type": "Point", "coordinates": [ 14.3206707, 51.7400567 ] } },
{ "type": "Feature", "properties": { "osm_id": "12314506395", "code": 2082, "fclass": "school", "name": "Jugendkunstschule Lichtenberg" }, "geometry": { "type": "Point", "coordinates": [ 13.5116361, 52.5694812 ] } },
{ "type": "Feature", "properties": { "osm_id": "12321410631", "code": 2082, "fclass": "school", "name": "Lazarus Schulen (Schwesternflügel)" }, "geometry": { "type": "Point", "coordinates": [ 13.3885742, 52.5351282 ] } },
{ "type": "Feature", "properties": { "osm_id": "12419325756", "code": 2082, "fclass": "school", "name": "Kreisvolkshochschule Uckermark" }, "geometry": { "type": "Point", "coordinates": [ 13.5119697, 53.1154515 ] } },
{ "type": "Feature", "properties": { "osm_id": "12441435608", "code": 2082, "fclass": "school", "name": "Freie Schule Woltersdorf" }, "geometry": { "type": "Point", "coordinates": [ 13.7498643, 52.4657239 ] } },
{ "type": "Feature", "properties": { "osm_id": "12479416859", "code": 2082, "fclass": "school", "name": "Oberstufenzentrum Uckermark" }, "geometry": { "type": "Point", "coordinates": [ 13.5119108, 53.1155059 ] } },
{ "type": "Feature", "properties": { "osm_id": "12512361420", "code": 2082, "fclass": "school", "name": "Felix-Mendelssohn-Bartholdy-Gymnasium (Temporäres Haus 3)" }, "geometry": { "type": "Point", "coordinates": [ 13.4384541, 52.5296881 ] } },
{ "type": "Feature", "properties": { "osm_id": "12519004487", "code": 2082, "fclass": "school", "name": "Hort SchlaubeKids" }, "geometry": { "type": "Point", "coordinates": [ 14.4107403, 52.2388918 ] } },
{ "type": "Feature", "properties": { "osm_id": "12522418564", "code": 2082, "fclass": "school", "name": "Volkshochschule Berlin-Pankow" }, "geometry": { "type": "Point", "coordinates": [ 13.4199077, 52.5330592 ] } },
{ "type": "Feature", "properties": { "osm_id": "12563980204", "code": 2082, "fclass": "school", "name": "Evangelische Schule Wilmersdorf" }, "geometry": { "type": "Point", "coordinates": [ 13.3091033, 52.4940199 ] } },
{ "type": "Feature", "properties": { "osm_id": "12564011957", "code": 2082, "fclass": "school", "name": "Katholische Schule Sankt Ludwig" }, "geometry": { "type": "Point", "coordinates": [ 13.3213308, 52.4962574 ] } },
{ "type": "Feature", "properties": { "osm_id": "12677407057", "code": 2082, "fclass": "school", "name": "Apego-Schule Berlin" }, "geometry": { "type": "Point", "coordinates": [ 13.3093087, 52.6044768 ] } },
{ "type": "Feature", "properties": { "osm_id": "12691468320", "code": 2082, "fclass": "school", "name": "Grundschule Heerstr. 580" }, "geometry": { "type": "Point", "coordinates": [ 13.1387055, 52.5254218 ] } },
{ "type": "Feature", "properties": { "osm_id": "12700555614", "code": 2082, "fclass": "school", "name": "Hundeschule" }, "geometry": { "type": "Point", "coordinates": [ 13.6149092, 51.6244794 ] } },
{ "type": "Feature", "properties": { "osm_id": "12766031273", "code": 2082, "fclass": "school", "name": "Neubau Grundschule mit TSH" }, "geometry": { "type": "Point", "coordinates": [ 13.5422179, 52.5361367 ] } },
{ "type": "Feature", "properties": { "osm_id": "12766032980", "code": 2082, "fclass": "school", "name": "Neubau Grundschule mit TSH" }, "geometry": { "type": "Point", "coordinates": [ 13.59873, 52.5312548 ] } },
{ "type": "Feature", "properties": { "osm_id": "12766064655", "code": 2082, "fclass": "school", "name": "Neubau MEB 22 mit Mensa" }, "geometry": { "type": "Point", "coordinates": [ 13.6010912, 52.5306448 ] } },
{ "type": "Feature", "properties": { "osm_id": "12782008075", "code": 2082, "fclass": "school", "name": "Richard-Keller-Schule" }, "geometry": { "type": "Point", "coordinates": [ 13.2935618, 52.6232049 ] } },
{ "type": "Feature", "properties": { "osm_id": "12797375598", "code": 2082, "fclass": "school", "name": "15. Schule\nISS mit gymnasialer Oberstufe - 11K15" }, "geometry": { "type": "Point", "coordinates": [ 13.5133643, 52.5249629 ] } },
{ "type": "Feature", "properties": { "osm_id": "12797375599", "code": 2082, "fclass": "school", "name": "12. Gymnasium Lichtenberg 11Y12" }, "geometry": { "type": "Point", "coordinates": [ 13.5139044, 52.5248369 ] } },
{ "type": "Feature", "properties": { "osm_id": "12992163102", "code": 2082, "fclass": "school", "name": "Schauspielschule \"Der Kreis\" Fritz-Kirchhoff-Schule" }, "geometry": { "type": "Point", "coordinates": [ 13.4079761, 52.4591189 ] } },
{ "type": "Feature", "properties": { "osm_id": "12992212501", "code": 2082, "fclass": "school", "name": "die schauspielfabrik berlin" }, "geometry": { "type": "Point", "coordinates": [ 13.4230643, 52.4881953 ] } },
{ "type": "Feature", "properties": { "osm_id": "13026946450", "code": 2082, "fclass": "school", "name": "Georg Heinsius von Mayenburg Grundschule" }, "geometry": { "type": "Point", "coordinates": [ 13.9745952, 51.5071109 ] } },
{ "type": "Feature", "properties": { "osm_id": "13050559747", "code": 2082, "fclass": "school", "name": "Ostkreuzschule für Fotografie" }, "geometry": { "type": "Point", "coordinates": [ 13.4472819, 52.5504641 ] } },
{ "type": "Feature", "properties": { "osm_id": "13082068401", "code": 2082, "fclass": "school", "name": "Feuerwehrtechnischen Ausbildungszentrum" }, "geometry": { "type": "Point", "coordinates": [ 12.580994, 52.7306931 ] } },
{ "type": "Feature", "properties": { "osm_id": "13134401621", "code": 2082, "fclass": "school", "name": "Dalton-Gymnasium Potsdam" }, "geometry": { "type": "Point", "coordinates": [ 13.0511453, 52.4077532 ] } },
{ "type": "Feature", "properties": { "osm_id": "13136827801", "code": 2082, "fclass": "school", "name": "Solar Oberschule Beelitz" }, "geometry": { "type": "Point", "coordinates": [ 12.9771894, 52.2402835 ] } },
{ "type": "Feature", "properties": { "osm_id": "13328764124", "code": 2082, "fclass": "school", "name": "Bernhard Kellermann Oberschule" }, "geometry": { "type": "Point", "coordinates": [ 13.986829, 51.5165576 ] } },
{ "type": "Feature", "properties": { "osm_id": "13357175108", "code": 2082, "fclass": "school", "name": "bbw Akademie für betriebswirtschaftliche Weiterbildung" }, "geometry": { "type": "Point", "coordinates": [ 13.5204192, 52.4976188 ] } },
{ "type": "Feature", "properties": { "osm_id": "13360379101", "code": 2082, "fclass": "school", "name": "Leonardo da Vinci Schule" }, "geometry": { "type": "Point", "coordinates": [ 13.0529039, 52.4203647 ] } }
]
}
